{
   "plus_code" : {
      "compound_code" : "39F8+22G Jalalpur Kuhna, Pakistan",
      "global_code" : "8J4M39F8+22G"
   },
   "results" : [
      {
         "address_components" : [
            {
               "long_name" : "39C7+GXC",
               "short_name" : "39C7+GXC",
               "types" : [ "plus_code" ]
            },
            {
               "long_name" : "Jalalpur Kuhna Road",
               "short_name" : "Jalalpur Kuhna Rd",
               "types" : [ "route" ]
            },
            {
               "long_name" : "Jalalpur Kuhna",
               "short_name" : "Jalalpur Kuhna",
               "types" : [ "locality", "political" ]
            },
            {
               "long_name" : "Pindi Bhattian",
               "short_name" : "Pindi Bhattian",
               "types" : [ "administrative_area_level_3", "political" ]
            },
            {
               "long_name" : "Hafizabad",
               "short_name" : "Hafizabad",
               "types" : [ "administrative_area_level_2", "political" ]
            },
            {
               "long_name" : "Punjab",
               "short_name" : "Punjab",
               "types" : [ "administrative_area_level_1", "political" ]
            },
            {
               "long_name" : "Pakistan",
               "short_name" : "PK",
               "types" : [ "country", "political" ]
            }
         ],
         "formatted_address" : "39C7+GXC, Jalalpur Kuhna Rd, Jalalpur Kuhna, Hafizabad, Punjab, Pakistan",
         "geometry" : {
            "location" : {
               "lat" : 32.0713059,
               "lng" : 73.36489670000002
            },
            "location_type" : "GEOMETRIC_CENTER",
            "viewport" : {
               "northeast" : {
                  "lat" : 32.07265488029149,
                  "lng" : 73.36624568029153
               },
               "southwest" : {
                  "lat" : 32.0699569197085,
                  "lng" : 73.36354771970852
               }
            }
         },
         "place_id" : "ChIJY2xADOP7ITkR6-qaqxjZc9M",
         "types" : [ "establishment", "point_of_interest", "school" ]
      },
      {
         "address_components" : [
            {
               "long_name" : "39C7+GXC",
               "short_name" : "39C7+GXC",
               "types" : [ "plus_code" ]
            },
            {
               "long_name" : "Jalalpur Kuhna Road",
               "short_name" : "Jalalpur Kuhna Rd",
               "types" : [ "route" ]
            },
            {
               "long_name" : "Jalalpur Kuhna",
               "short_name" : "Jalalpur Kuhna",
               "types" : [ "locality", "political" ]
            },
            {
               "long_name" : "Pindi Bhattian",
               "short_name" : "Pindi Bhattian",
               "types" : [ "administrative_area_level_3", "political" ]
            },
            {
               "long_name" : "Hafizabad",
               "short_name" : "Hafizabad",
               "types" : [ "administrative_area_level_2", "political" ]
            },
            {
               "long_name" : "Punjab",
               "short_name" : "Punjab",
               "types" : [ "administrative_area_level_1", "political" ]
            },
            {
               "long_name" : "Pakistan",
               "short_name" : "PK",
               "types" : [ "country", "political" ]
            }
         ],
         "formatted_address" : "39C7+GXC, Jalalpur Kuhna Rd, Jalalpur Kuhna, Hafizabad, Punjab, Pakistan",
         "geometry" : {
            "bounds" : {
               "northeast" : {
                  "lat" : 32.0713256,
                  "lng" : 73.3650184
               },
               "southwest" : {
                  "lat" : 32.0712041,
                  "lng" : 73.36484
               }
            },
            "location" : {
               "lat" : 32.0712583,
               "lng" : 73.364952
            },
            "location_type" : "ROOFTOP",
            "viewport" : {
               "northeast" : {
                  "lat" : 32.07261383029149,
                  "lng" : 73.36627818029152
               },
               "southwest" : {
                  "lat" : 32.0699158697085,
                  "lng" : 73.36358021970851
               }
            }
         },
         "place_id" : "ChIJEX4vLfH7ITkRdLiDsvb3PjM",
         "types" : [ "premise" ]
      },
      {
         "address_components" : [
            {
               "long_name" : "39F8+22",
               "short_name" : "39F8+22",
               "types" : [ "plus_code" ]
            },
            {
               "long_name" : "Jalalpur Kuhna",
               "short_name" : "Jalalpur Kuhna",
               "types" : [ "locality", "political" ]
            },
            {
               "long_name" : "Pindi Bhattian",
               "short_name" : "Pindi Bhattian",
               "types" : [ "administrative_area_level_3", "political" ]
            },
            {
               "long_name" : "Hafizabad",
               "short_name" : "Hafizabad",
               "types" : [ "administrative_area_level_2", "political" ]
            },
            {
               "long_name" : "Punjab",
               "short_name" : "Punjab",
               "types" : [ "administrative_area_level_1", "political" ]
            },
            {
               "long_name" : "Pakistan",
               "short_name" : "PK",
               "types" : [ "country", "political" ]
            }
         ],
         "formatted_address" : "39F8+22 Jalalpur Kuhna, Pakistan",
         "geometry" : {
            "bounds" : {
               "northeast" : {
                  "lat" : 32.072625,
                  "lng" : 73.36512499999999
               },
               "southwest" : {
                  "lat" : 32.0725,
                  "lng" : 73.36499999999999
               }
            },
            "location" : {
               "lat" : 32.0725746,
               "lng" : 73.36507809999999
            },
            "location_type" : "GEOMETRIC_CENTER",
            "viewport" : {
               "northeast" : {
                  "lat" : 32.07391148029149,
                  "lng" : 73.3664114802915
               },
               "southwest" : {
                  "lat" : 32.07121351970849,
                  "lng" : 73.3637135197085
               }
            }
         },
         "place_id" : "GhIJmMLeH0oJQEARF_-IcF1XUkA",
         "plus_code" : {
            "compound_code" : "39F8+22 Jalalpur Kuhna, Pakistan",
            "global_code" : "8J4M39F8+22"
         },
         "types" : [ "plus_code" ]
      },
      {
         "address_components" : [
            {
               "long_name" : "Unnamed Road",
               "short_name" : "Unnamed Road",
               "types" : [ "route" ]
            },
            {
               "long_name" : "Jalalpur Kuhna",
               "short_name" : "Jalalpur Kuhna",
               "types" : [ "locality", "political" ]
            },
            {
               "long_name" : "Pindi Bhattian",
               "short_name" : "Pindi Bhattian",
               "types" : [ "administrative_area_level_3", "political" ]
            },
            {
               "long_name" : "Hafizabad",
               "short_name" : "Hafizabad",
               "types" : [ "administrative_area_level_2", "political" ]
            },
            {
               "long_name" : "Punjab",
               "short_name" : "Punjab",
               "types" : [ "administrative_area_level_1", "political" ]
            },
            {
               "long_name" : "Pakistan",
               "short_name" : "PK",
               "types" : [ "country", "political" ]
            }
         ],
         "formatted_address" : "Unnamed Road, Jalalpur Kuhna, Hafizabad, Punjab, Pakistan",
         "geometry" : {
            "bounds" : {
               "northeast" : {
                  "lat" : 32.0727682,
                  "lng" : 73.3650023
               },
               "southwest" : {
                  "lat" : 32.0725099,
                  "lng" : 73.3648693
               }
            },
            "location" : {
               "lat" : 32.0726248,
               "lng" : 73.3649326
            },
            "location_type" : "GEOMETRIC_CENTER",
            "viewport" : {
               "northeast" : {
                  "lat" : 32.0739880302915,
                  "lng" : 73.36628478029151
               },
               "southwest" : {
                  "lat" : 32.0712900697085,
                  "lng" : 73.36358681970849
               }
            }
         },
         "place_id" : "ChIJTWfpTPH7ITkRdO_vjia8PZo",
         "types" : [ "route" ]
      },
      {
         "address_components" : [
            {
               "long_name" : "Jalalpur Kuhna",
               "short_name" : "Jalalpur Kuhna",
               "types" : [ "locality", "political" ]
            },
            {
               "long_name" : "Pindi Bhattian",
               "short_name" : "Pindi Bhattian",
               "types" : [ "administrative_area_level_3", "political" ]
            },
            {
               "long_name" : "Hafizabad",
               "short_name" : "Hafizabad",
               "types" : [ "administrative_area_level_2", "political" ]
            },
            {
               "long_name" : "Punjab",
               "short_name" : "Punjab",
               "types" : [ "administrative_area_level_1", "political" ]
            },
            {
               "long_name" : "Pakistan",
               "short_name" : "PK",
               "types" : [ "country", "political" ]
            }
         ],
         "formatted_address" : "Jalalpur Kuhna, Hafizabad, Punjab, Pakistan",
         "geometry" : {
            "bounds" : {
               "northeast" : {
                  "lat" : 32.0730834,
                  "lng" : 73.366592
               },
               "southwest" : {
                  "lat" : 32.0668649,
                  "lng" : 73.3620002
               }
            },
            "location" : {
               "lat" : 32.069933,
               "lng" : 73.3642382
            },
            "location_type" : "APPROXIMATE",
            "viewport" : {
               "northeast" : {
                  "lat" : 32.0730834,
                  "lng" : 73.366592
               },
               "southwest" : {
                  "lat" : 32.0668649,
                  "lng" : 73.3620002
               }
            }
         },
         "place_id" : "ChIJ5VUa0PD7ITkRodC0zDDj6BM",
         "types" : [ "locality", "political" ]
      },
      {
         "address_components" : [
            {
               "long_name" : "Jalapur Batt",
               "short_name" : "Jalapur Batt",
               "types" : [ "administrative_area_level_5", "political" ]
            },
            {
               "long_name" : "Pindi Bhattian",
               "short_name" : "Pindi Bhattian",
               "types" : [ "administrative_area_level_3", "political" ]
            },
            {
               "long_name" : "Hafizabad",
               "short_name" : "Hafizabad",
               "types" : [ "administrative_area_level_2", "political" ]
            },
            {
               "long_name" : "Punjab",
               "short_name" : "Punjab",
               "types" : [ "administrative_area_level_1", "political" ]
            },
            {
               "long_name" : "Pakistan",
               "short_name" : "PK",
               "types" : [ "country", "political" ]
            }
         ],
         "formatted_address" : "Jalapur Batt, Hafizabad, Punjab, Pakistan",
         "geometry" : {
            "bounds" : {
               "northeast" : {
                  "lat" : 32.0821239,
                  "lng" : 73.41802939999999
               },
               "southwest" : {
                  "lat" : 32.0288034,
                  "lng" : 73.35659439999999
               }
            },
            "location" : {
               "lat" : 32.0545629,
               "lng" : 73.3885526
            },
            "location_type" : "APPROXIMATE",
            "viewport" : {
               "northeast" : {
                  "lat" : 32.0821239,
                  "lng" : 73.41802939999999
               },
               "southwest" : {
                  "lat" : 32.0288034,
                  "lng" : 73.35659439999999
               }
            }
         },
         "place_id" : "ChIJbyibvqb-ITkRoKIu4J-vH5A",
         "types" : [ "administrative_area_level_5", "political" ]
      },
      {
         "address_components" : [
            {
               "long_name" : "Pindi Bhattian",
               "short_name" : "Pindi Bhattian",
               "types" : [ "administrative_area_level_3", "political" ]
            },
            {
               "long_name" : "Hafizabad",
               "short_name" : "Hafizabad",
               "types" : [ "administrative_area_level_2", "political" ]
            },
            {
               "long_name" : "Punjab",
               "short_name" : "Punjab",
               "types" : [ "administrative_area_level_1", "political" ]
            },
            {
               "long_name" : "Pakistan",
               "short_name" : "PK",
               "types" : [ "country", "political" ]
            }
         ],
         "formatted_address" : "Pindi Bhattian, Hafizabad, Punjab, Pakistan",
         "geometry" : {
            "bounds" : {
               "northeast" : {
                  "lat" : 32.1827314,
                  "lng" : 73.62347389999999
               },
               "southwest" : {
                  "lat" : 31.7615505,
                  "lng" : 73.1597093
               }
            },
            "location" : {
               "lat" : 31.9314181,
               "lng" : 73.4180211
            },
            "location_type" : "APPROXIMATE",
            "viewport" : {
               "northeast" : {
                  "lat" : 32.1827314,
                  "lng" : 73.62347389999999
               },
               "southwest" : {
                  "lat" : 31.7615505,
                  "lng" : 73.1597093
               }
            }
         },
         "place_id" : "ChIJMzUNgF__ITkRY7TazMQ7j_w",
         "types" : [ "administrative_area_level_3", "political" ]
      },
      {
         "address_components" : [
            {
               "long_name" : "Hafizabad",
               "short_name" : "Hafizabad",
               "types" : [ "administrative_area_level_2", "political" ]
            },
            {
               "long_name" : "Punjab",
               "short_name" : "Punjab",
               "types" : [ "administrative_area_level_1", "political" ]
            },
            {
               "long_name" : "Pakistan",
               "short_name" : "PK",
               "types" : [ "country", "political" ]
            }
         ],
         "formatted_address" : "Hafizabad, Punjab, Pakistan",
         "geometry" : {
            "bounds" : {
               "northeast" : {
                  "lat" : 32.3421286,
                  "lng" : 73.8308619
               },
               "southwest" : {
                  "lat" : 31.7615504,
                  "lng" : 73.1597093
               }
            },
            "location" : {
               "lat" : 32.0828952,
               "lng" : 73.55941279999999
            },
            "location_type" : "APPROXIMATE",
            "viewport" : {
               "northeast" : {
                  "lat" : 32.3421286,
                  "lng" : 73.8308619
               },
               "southwest" : {
                  "lat" : 31.7615504,
                  "lng" : 73.1597093
               }
            }
         },
         "place_id" : "ChIJU5BQC_pZHzkRw9KtQn0CiZQ",
         "types" : [ "administrative_area_level_2", "political" ]
      },
      {
         "address_components" : [
            {
               "long_name" : "Punjab",
               "short_name" : "Punjab",
               "types" : [ "administrative_area_level_1", "political" ]
            },
            {
               "long_name" : "Pakistan",
               "short_name" : "PK",
               "types" : [ "country", "political" ]
            }
         ],
         "formatted_address" : "Punjab, Pakistan",
         "geometry" : {
            "bounds" : {
               "northeast" : {
                  "lat" : 34.0434647,
                  "lng" : 75.3796504
               },
               "southwest" : {
                  "lat" : 27.7056256,
                  "lng" : 69.3288726
               }
            },
            "location" : {
               "lat" : 31.1704063,
               "lng" : 72.70971609999999
            },
            "location_type" : "APPROXIMATE",
            "viewport" : {
               "northeast" : {
                  "lat" : 34.0434647,
                  "lng" : 75.3796504
               },
               "southwest" : {
                  "lat" : 27.7056256,
                  "lng" : 69.3288726
               }
            }
         },
         "place_id" : "ChIJy5pBdImU3zgRoOxO0hgwnjo",
         "types" : [ "administrative_area_level_1", "political" ]
      },
      {
         "address_components" : [
            {
               "long_name" : "Pakistan",
               "short_name" : "PK",
               "types" : [ "country", "political" ]
            }
         ],
         "formatted_address" : "Pakistan",
         "geometry" : {
            "bounds" : {
               "northeast" : {
                  "lat" : 37.0841069,
                  "lng" : 77.1204247
               },
               "southwest" : {
                  "lat" : 23.6344999,
                  "lng" : 60.8729721
               }
            },
            "location" : {
               "lat" : 30.375321,
               "lng" : 69.34511599999999
            },
            "location_type" : "APPROXIMATE",
            "viewport" : {
               "northeast" : {
                  "lat" : 37.0841069,
                  "lng" : 77.1204247
               },
               "southwest" : {
                  "lat" : 23.6344999,
                  "lng" : 60.8729721
               }
            }
         },
         "place_id" : "ChIJH3X9-NJS2zgRXJIU5veht0Y",
         "types" : [ "country", "political" ]
      }
   ],
   "status" : "OK"
}
