{
   "plus_code" : {
      "compound_code" : "G96H+QF2 Lahore, Pakistan",
      "global_code" : "8J3PG96H+QF2"
   },
   "results" : [
      {
         "address_components" : [
            {
               "long_name" : "29",
               "short_name" : "29",
               "types" : [ "street_number" ]
            },
            {
               "long_name" : "Lane 2",
               "short_name" : "Lane 2",
               "types" : [ "route" ]
            },
            {
               "long_name" : "Falcon Complex - Tufail Road",
               "short_name" : "Falcon Complex - Tufail Road",
               "types" : [ "neighborhood", "political" ]
            },
            {
               "long_name" : "Falcon Complex",
               "short_name" : "Falcon Complex",
               "types" : [ "political", "sublocality", "sublocality_level_1" ]
            },
            {
               "long_name" : "Lahore",
               "short_name" : "Lahore",
               "types" : [ "locality", "political" ]
            },
            {
               "long_name" : "Lahore Cantt",
               "short_name" : "Lahore Cantt",
               "types" : [ "administrative_area_level_3", "political" ]
            },
            {
               "long_name" : "Lahore",
               "short_name" : "Lahore",
               "types" : [ "administrative_area_level_2", "political" ]
            },
            {
               "long_name" : "Punjab",
               "short_name" : "Punjab",
               "types" : [ "administrative_area_level_1", "political" ]
            },
            {
               "long_name" : "Pakistan",
               "short_name" : "PK",
               "types" : [ "country", "political" ]
            }
         ],
         "formatted_address" : "29 Lane 2, Falcon Complex - Tufail Road Falcon Complex, Lahore, Punjab, Pakistan",
         "geometry" : {
            "location" : {
               "lat" : 31.5120706,
               "lng" : 74.3789146
            },
            "location_type" : "ROOFTOP",
            "viewport" : {
               "northeast" : {
                  "lat" : 31.5134195802915,
                  "lng" : 74.3802635802915
               },
               "southwest" : {
                  "lat" : 31.5107216197085,
                  "lng" : 74.37756561970849
               }
            }
         },
         "place_id" : "ChIJlen4K6MFGTkRY4FRd4zKTB0",
         "plus_code" : {
            "compound_code" : "G96H+RH Lahore, Pakistan",
            "global_code" : "8J3PG96H+RH"
         },
         "types" : [ "street_address" ]
      },
      {
         "address_components" : [
            {
               "long_name" : "29",
               "short_name" : "29",
               "types" : [ "street_number" ]
            },
            {
               "long_name" : "Lane 2",
               "short_name" : "Lane 2",
               "types" : [ "route" ]
            },
            {
               "long_name" : "Falcon Complex - Tufail Road",
               "short_name" : "Falcon Complex - Tufail Road",
               "types" : [ "neighborhood", "political" ]
            },
            {
               "long_name" : "Falcon Complex",
               "short_name" : "Falcon Complex",
               "types" : [ "political", "sublocality", "sublocality_level_1" ]
            },
            {
               "long_name" : "Lahore",
               "short_name" : "Lahore",
               "types" : [ "locality", "political" ]
            },
            {
               "long_name" : "Lahore Cantt",
               "short_name" : "Lahore Cantt",
               "types" : [ "administrative_area_level_3", "political" ]
            },
            {
               "long_name" : "Lahore",
               "short_name" : "Lahore",
               "types" : [ "administrative_area_level_2", "political" ]
            },
            {
               "long_name" : "Punjab",
               "short_name" : "Punjab",
               "types" : [ "administrative_area_level_1", "political" ]
            },
            {
               "long_name" : "Pakistan",
               "short_name" : "PK",
               "types" : [ "country", "political" ]
            }
         ],
         "formatted_address" : "29 Lane 2, Falcon Complex - Tufail Road Falcon Complex, Lahore, Punjab, Pakistan",
         "geometry" : {
            "location" : {
               "lat" : 31.5118501,
               "lng" : 74.37914600000001
            },
            "location_type" : "ROOFTOP",
            "viewport" : {
               "northeast" : {
                  "lat" : 31.5131990802915,
                  "lng" : 74.38049498029152
               },
               "southwest" : {
                  "lat" : 31.5105011197085,
                  "lng" : 74.37779701970851
               }
            }
         },
         "place_id" : "ChIJvVAHkTkFGTkROAOXQqs-qOg",
         "plus_code" : {
            "compound_code" : "G96H+PM Lahore, Pakistan",
            "global_code" : "8J3PG96H+PM"
         },
         "types" : [ "establishment", "point_of_interest" ]
      },
      {
         "address_components" : [
            {
               "long_name" : "29",
               "short_name" : "29",
               "types" : [ "street_number" ]
            },
            {
               "long_name" : "Lane 2",
               "short_name" : "Lane 2",
               "types" : [ "route" ]
            },
            {
               "long_name" : "Falcon Complex - Tufail Road",
               "short_name" : "Falcon Complex - Tufail Road",
               "types" : [ "neighborhood", "political" ]
            },
            {
               "long_name" : "Falcon Complex",
               "short_name" : "Falcon Complex",
               "types" : [ "political", "sublocality", "sublocality_level_1" ]
            },
            {
               "long_name" : "Lahore",
               "short_name" : "Lahore",
               "types" : [ "locality", "political" ]
            },
            {
               "long_name" : "Lahore Cantt",
               "short_name" : "Lahore Cantt",
               "types" : [ "administrative_area_level_3", "political" ]
            },
            {
               "long_name" : "Lahore",
               "short_name" : "Lahore",
               "types" : [ "administrative_area_level_2", "political" ]
            },
            {
               "long_name" : "Punjab",
               "short_name" : "Punjab",
               "types" : [ "administrative_area_level_1", "political" ]
            },
            {
               "long_name" : "Pakistan",
               "short_name" : "PK",
               "types" : [ "country", "political" ]
            }
         ],
         "formatted_address" : "29 Lane 2, Falcon Complex - Tufail Road Falcon Complex, Lahore, Punjab, Pakistan",
         "geometry" : {
            "bounds" : {
               "northeast" : {
                  "lat" : 31.5119971,
                  "lng" : 74.3792945
               },
               "southwest" : {
                  "lat" : 31.5118402,
                  "lng" : 74.3791377
               }
            },
            "location" : {
               "lat" : 31.5119197,
               "lng" : 74.3792278
            },
            "location_type" : "ROOFTOP",
            "viewport" : {
               "northeast" : {
                  "lat" : 31.5132676302915,
                  "lng" : 74.38056508029152
               },
               "southwest" : {
                  "lat" : 31.5105696697085,
                  "lng" : 74.3778671197085
               }
            }
         },
         "place_id" : "ChIJwSqOKqMFGTkRB3ZRKx-8Tbg",
         "types" : [ "premise" ]
      },
      {
         "address_components" : [
            {
               "long_name" : "Tufail Road",
               "short_name" : "Tufail Rd",
               "types" : [ "route" ]
            },
            {
               "long_name" : "Falcon Complex",
               "short_name" : "Falcon Complex",
               "types" : [ "political", "sublocality", "sublocality_level_1" ]
            },
            {
               "long_name" : "Lahore",
               "short_name" : "Lahore",
               "types" : [ "locality", "political" ]
            },
            {
               "long_name" : "Lahore Cantt",
               "short_name" : "Lahore Cantt",
               "types" : [ "administrative_area_level_3", "political" ]
            },
            {
               "long_name" : "Lahore",
               "short_name" : "Lahore",
               "types" : [ "administrative_area_level_2", "political" ]
            },
            {
               "long_name" : "Punjab",
               "short_name" : "Punjab",
               "types" : [ "administrative_area_level_1", "political" ]
            },
            {
               "long_name" : "Pakistan",
               "short_name" : "PK",
               "types" : [ "country", "political" ]
            }
         ],
         "formatted_address" : "Tufail Rd, Falcon Complex, Lahore, Punjab, Pakistan",
         "geometry" : {
            "bounds" : {
               "northeast" : {
                  "lat" : 31.5119285,
                  "lng" : 74.37868809999999
               },
               "southwest" : {
                  "lat" : 31.5116231,
                  "lng" : 74.3786721
               }
            },
            "location" : {
               "lat" : 31.5117755,
               "lng" : 74.3786724
            },
            "location_type" : "GEOMETRIC_CENTER",
            "viewport" : {
               "northeast" : {
                  "lat" : 31.51312478029149,
                  "lng" : 74.38002908029151
               },
               "southwest" : {
                  "lat" : 31.5104268197085,
                  "lng" : 74.37733111970849
               }
            }
         },
         "place_id" : "ChIJTTlXLaMFGTkR5Basn6b0Fr0",
         "types" : [ "route" ]
      },
      {
         "address_components" : [
            {
               "long_name" : "G96H+QF",
               "short_name" : "G96H+QF",
               "types" : [ "plus_code" ]
            },
            {
               "long_name" : "Lahore",
               "short_name" : "Lahore",
               "types" : [ "locality", "political" ]
            },
            {
               "long_name" : "Lahore",
               "short_name" : "Lahore",
               "types" : [ "administrative_area_level_2", "political" ]
            },
            {
               "long_name" : "Punjab",
               "short_name" : "Punjab",
               "types" : [ "administrative_area_level_1", "political" ]
            },
            {
               "long_name" : "Pakistan",
               "short_name" : "PK",
               "types" : [ "country", "political" ]
            }
         ],
         "formatted_address" : "G96H+QF Lahore, Pakistan",
         "geometry" : {
            "bounds" : {
               "northeast" : {
                  "lat" : 31.512,
                  "lng" : 74.37875
               },
               "southwest" : {
                  "lat" : 31.511875,
                  "lng" : 74.378625
               }
            },
            "location" : {
               "lat" : 31.51188,
               "lng" : 74.378643
            },
            "location_type" : "GEOMETRIC_CENTER",
            "viewport" : {
               "northeast" : {
                  "lat" : 31.5132864802915,
                  "lng" : 74.38003648029149
               },
               "southwest" : {
                  "lat" : 31.5105885197085,
                  "lng" : 74.37733851970849
               }
            }
         },
         "place_id" : "GhIJ-nlTkQqDP0AR_3bZrzuYUkA",
         "plus_code" : {
            "compound_code" : "G96H+QF Lahore, Pakistan",
            "global_code" : "8J3PG96H+QF"
         },
         "types" : [ "plus_code" ]
      },
      {
         "address_components" : [
            {
               "long_name" : "26",
               "short_name" : "26",
               "types" : [ "street_number" ]
            },
            {
               "long_name" : "Lane 2",
               "short_name" : "Lane 2",
               "types" : [ "route" ]
            },
            {
               "long_name" : "Falcon Complex",
               "short_name" : "Falcon Complex",
               "types" : [ "political", "sublocality", "sublocality_level_1" ]
            },
            {
               "long_name" : "Lahore",
               "short_name" : "Lahore",
               "types" : [ "locality", "political" ]
            },
            {
               "long_name" : "Lahore Cantt",
               "short_name" : "Lahore Cantt",
               "types" : [ "administrative_area_level_3", "political" ]
            },
            {
               "long_name" : "Lahore",
               "short_name" : "Lahore",
               "types" : [ "administrative_area_level_2", "political" ]
            },
            {
               "long_name" : "Punjab",
               "short_name" : "Punjab",
               "types" : [ "administrative_area_level_1", "political" ]
            },
            {
               "long_name" : "Pakistan",
               "short_name" : "PK",
               "types" : [ "country", "political" ]
            }
         ],
         "formatted_address" : "26 Lane 2, Falcon Complex, Lahore, Punjab, Pakistan",
         "geometry" : {
            "location" : {
               "lat" : 31.5120849,
               "lng" : 74.37949119999999
            },
            "location_type" : "RANGE_INTERPOLATED",
            "viewport" : {
               "northeast" : {
                  "lat" : 31.5134338802915,
                  "lng" : 74.38084018029149
               },
               "southwest" : {
                  "lat" : 31.5107359197085,
                  "lng" : 74.37814221970848
               }
            }
         },
         "place_id" : "EjMyNiBMYW5lIDIsIEZhbGNvbiBDb21wbGV4LCBMYWhvcmUsIFB1bmphYiwgUGFraXN0YW4iGhIYChQKEgnHwBIqowUZOREDg82lX3v8-BAa",
         "types" : [ "street_address" ]
      },
      {
         "address_components" : [
            {
               "long_name" : "Falcon Complex",
               "short_name" : "Falcon Complex",
               "types" : [ "political", "sublocality", "sublocality_level_1" ]
            },
            {
               "long_name" : "Lahore",
               "short_name" : "Lahore",
               "types" : [ "locality", "political" ]
            },
            {
               "long_name" : "Lahore Cantt",
               "short_name" : "Lahore Cantt",
               "types" : [ "administrative_area_level_3", "political" ]
            },
            {
               "long_name" : "Lahore",
               "short_name" : "Lahore",
               "types" : [ "administrative_area_level_2", "political" ]
            },
            {
               "long_name" : "Punjab",
               "short_name" : "Punjab",
               "types" : [ "administrative_area_level_1", "political" ]
            },
            {
               "long_name" : "Pakistan",
               "short_name" : "PK",
               "types" : [ "country", "political" ]
            }
         ],
         "formatted_address" : "Falcon Complex, Lahore, Punjab, Pakistan",
         "geometry" : {
            "bounds" : {
               "northeast" : {
                  "lat" : 31.5222128,
                  "lng" : 74.38153779999999
               },
               "southwest" : {
                  "lat" : 31.5062837,
                  "lng" : 74.3755273
               }
            },
            "location" : {
               "lat" : 31.5130041,
               "lng" : 74.3778076
            },
            "location_type" : "APPROXIMATE",
            "viewport" : {
               "northeast" : {
                  "lat" : 31.5222128,
                  "lng" : 74.38153779999999
               },
               "southwest" : {
                  "lat" : 31.5062837,
                  "lng" : 74.3755273
               }
            }
         },
         "place_id" : "ChIJm9mdCKMFGTkR6L7l4XQ9bOA",
         "types" : [ "political", "sublocality", "sublocality_level_1" ]
      },
      {
         "address_components" : [
            {
               "long_name" : "Cantonment",
               "short_name" : "Cantonment",
               "types" : [ "administrative_area_level_5", "political" ]
            },
            {
               "long_name" : "Lahore",
               "short_name" : "Lahore",
               "types" : [ "locality", "political" ]
            },
            {
               "long_name" : "Lahore Cantt",
               "short_name" : "Lahore Cantt",
               "types" : [ "administrative_area_level_3", "political" ]
            },
            {
               "long_name" : "Lahore",
               "short_name" : "Lahore",
               "types" : [ "administrative_area_level_2", "political" ]
            },
            {
               "long_name" : "Punjab",
               "short_name" : "Punjab",
               "types" : [ "administrative_area_level_1", "political" ]
            },
            {
               "long_name" : "Pakistan",
               "short_name" : "PK",
               "types" : [ "country", "political" ]
            }
         ],
         "formatted_address" : "Cantonment, Lahore, Punjab, Pakistan",
         "geometry" : {
            "bounds" : {
               "northeast" : {
                  "lat" : 31.5641622,
                  "lng" : 74.48560909999999
               },
               "southwest" : {
                  "lat" : 31.4526631,
                  "lng" : 74.34548340000001
               }
            },
            "location" : {
               "lat" : 31.4942641,
               "lng" : 74.41738769999999
            },
            "location_type" : "APPROXIMATE",
            "viewport" : {
               "northeast" : {
                  "lat" : 31.5641622,
                  "lng" : 74.48560909999999
               },
               "southwest" : {
                  "lat" : 31.4526631,
                  "lng" : 74.34548340000001
               }
            }
         },
         "place_id" : "ChIJV3zLTmYPGTkRLrK1jCi4UH4",
         "types" : [ "administrative_area_level_5", "political" ]
      },
      {
         "address_components" : [
            {
               "long_name" : "Lahore Cantt",
               "short_name" : "Lahore Cantt",
               "types" : [ "administrative_area_level_3", "political" ]
            },
            {
               "long_name" : "Lahore",
               "short_name" : "Lahore",
               "types" : [ "administrative_area_level_2", "political" ]
            },
            {
               "long_name" : "Punjab",
               "short_name" : "Punjab",
               "types" : [ "administrative_area_level_1", "political" ]
            },
            {
               "long_name" : "Pakistan",
               "short_name" : "PK",
               "types" : [ "country", "political" ]
            }
         ],
         "formatted_address" : "Lahore Cantt, Lahore, Punjab, Pakistan",
         "geometry" : {
            "bounds" : {
               "northeast" : {
                  "lat" : 31.7326737,
                  "lng" : 74.64111319999999
               },
               "southwest" : {
                  "lat" : 31.281605,
                  "lng" : 74.2479031
               }
            },
            "location" : {
               "lat" : 31.53204,
               "lng" : 74.4525627
            },
            "location_type" : "APPROXIMATE",
            "viewport" : {
               "northeast" : {
                  "lat" : 31.7326737,
                  "lng" : 74.64111319999999
               },
               "southwest" : {
                  "lat" : 31.281605,
                  "lng" : 74.2479031
               }
            }
         },
         "place_id" : "ChIJJ75MHRkPGTkRJIDFq6b2v2k",
         "types" : [ "administrative_area_level_3", "political" ]
      },
      {
         "address_components" : [
            {
               "long_name" : "Lahore",
               "short_name" : "Lahore",
               "types" : [ "locality", "political" ]
            },
            {
               "long_name" : "Lahore",
               "short_name" : "Lahore",
               "types" : [ "administrative_area_level_2", "political" ]
            },
            {
               "long_name" : "Punjab",
               "short_name" : "Punjab",
               "types" : [ "administrative_area_level_1", "political" ]
            },
            {
               "long_name" : "Pakistan",
               "short_name" : "PK",
               "types" : [ "country", "political" ]
            }
         ],
         "formatted_address" : "Lahore, Punjab, Pakistan",
         "geometry" : {
            "bounds" : {
               "northeast" : {
                  "lat" : 31.69848649999999,
                  "lng" : 74.55323989999999
               },
               "southwest" : {
                  "lat" : 31.2673942,
                  "lng" : 74.1155387
               }
            },
            "location" : {
               "lat" : 31.5203696,
               "lng" : 74.35874729999999
            },
            "location_type" : "APPROXIMATE",
            "viewport" : {
               "northeast" : {
                  "lat" : 31.69848649999999,
                  "lng" : 74.55323989999999
               },
               "southwest" : {
                  "lat" : 31.2673942,
                  "lng" : 74.1155387
               }
            }
         },
         "place_id" : "ChIJ2QeB5YMEGTkRYiR-zGy-OsI",
         "types" : [ "locality", "political" ]
      },
      {
         "address_components" : [
            {
               "long_name" : "Lahore",
               "short_name" : "Lahore",
               "types" : [ "administrative_area_level_2", "political" ]
            },
            {
               "long_name" : "Punjab",
               "short_name" : "Punjab",
               "types" : [ "administrative_area_level_1", "political" ]
            },
            {
               "long_name" : "Pakistan",
               "short_name" : "PK",
               "types" : [ "country", "political" ]
            }
         ],
         "formatted_address" : "Lahore, Punjab, Pakistan",
         "geometry" : {
            "bounds" : {
               "northeast" : {
                  "lat" : 31.7326739,
                  "lng" : 74.64111319999999
               },
               "southwest" : {
                  "lat" : 31.2543339,
                  "lng" : 74.0068495
               }
            },
            "location" : {
               "lat" : 31.4312704,
               "lng" : 74.35874729999999
            },
            "location_type" : "APPROXIMATE",
            "viewport" : {
               "northeast" : {
                  "lat" : 31.7326739,
                  "lng" : 74.64111319999999
               },
               "southwest" : {
                  "lat" : 31.2543339,
                  "lng" : 74.0068495
               }
            }
         },
         "place_id" : "ChIJNfyfu-sDGTkRca4X8W4UGb4",
         "types" : [ "administrative_area_level_2", "political" ]
      },
      {
         "address_components" : [
            {
               "long_name" : "Punjab",
               "short_name" : "Punjab",
               "types" : [ "administrative_area_level_1", "political" ]
            },
            {
               "long_name" : "Pakistan",
               "short_name" : "PK",
               "types" : [ "country", "political" ]
            }
         ],
         "formatted_address" : "Punjab, Pakistan",
         "geometry" : {
            "bounds" : {
               "northeast" : {
                  "lat" : 34.0434647,
                  "lng" : 75.3796504
               },
               "southwest" : {
                  "lat" : 27.7056256,
                  "lng" : 69.3288726
               }
            },
            "location" : {
               "lat" : 31.1704063,
               "lng" : 72.70971609999999
            },
            "location_type" : "APPROXIMATE",
            "viewport" : {
               "northeast" : {
                  "lat" : 34.0434647,
                  "lng" : 75.3796504
               },
               "southwest" : {
                  "lat" : 27.7056256,
                  "lng" : 69.3288726
               }
            }
         },
         "place_id" : "ChIJy5pBdImU3zgRoOxO0hgwnjo",
         "types" : [ "administrative_area_level_1", "political" ]
      },
      {
         "address_components" : [
            {
               "long_name" : "Pakistan",
               "short_name" : "PK",
               "types" : [ "country", "political" ]
            }
         ],
         "formatted_address" : "Pakistan",
         "geometry" : {
            "bounds" : {
               "northeast" : {
                  "lat" : 37.0841069,
                  "lng" : 77.1204247
               },
               "southwest" : {
                  "lat" : 23.6344999,
                  "lng" : 60.8729721
               }
            },
            "location" : {
               "lat" : 30.375321,
               "lng" : 69.34511599999999
            },
            "location_type" : "APPROXIMATE",
            "viewport" : {
               "northeast" : {
                  "lat" : 37.0841069,
                  "lng" : 77.1204247
               },
               "southwest" : {
                  "lat" : 23.6344999,
                  "lng" : 60.8729721
               }
            }
         },
         "place_id" : "ChIJH3X9-NJS2zgRXJIU5veht0Y",
         "types" : [ "country", "political" ]
      }
   ],
   "status" : "OK"
}
