{
   "plus_code" : {
      "compound_code" : "XGVG+22G Retri, Pakistan",
      "global_code" : "8J3HXGVG+22G"
   },
   "results" : [
      {
         "address_components" : [
            {
               "long_name" : "XGVG+22",
               "short_name" : "XGVG+22",
               "types" : [ "plus_code" ]
            },
            {
               "long_name" : "Retri",
               "short_name" : "Retri",
               "types" : [ "locality", "political" ]
            },
            {
               "long_name" : "Kalurkot",
               "short_name" : "Kalurkot",
               "types" : [ "administrative_area_level_3", "political" ]
            },
            {
               "long_name" : "Bhakkar",
               "short_name" : "Bhakkar",
               "types" : [ "administrative_area_level_2", "political" ]
            },
            {
               "long_name" : "Punjab",
               "short_name" : "Punjab",
               "types" : [ "administrative_area_level_1", "political" ]
            },
            {
               "long_name" : "Pakistan",
               "short_name" : "PK",
               "types" : [ "country", "political" ]
            }
         ],
         "formatted_address" : "XGVG+22 Retri, Pakistan",
         "geometry" : {
            "bounds" : {
               "northeast" : {
                  "lat" : 31.992625,
                  "lng" : 71.525125
               },
               "southwest" : {
                  "lat" : 31.9925,
                  "lng" : 71.52499999999999
               }
            },
            "location" : {
               "lat" : 31.9925746,
               "lng" : 71.5250781
            },
            "location_type" : "GEOMETRIC_CENTER",
            "viewport" : {
               "northeast" : {
                  "lat" : 31.9939114802915,
                  "lng" : 71.5264114802915
               },
               "southwest" : {
                  "lat" : 31.9912135197085,
                  "lng" : 71.52371351970849
               }
            }
         },
         "place_id" : "GhIJHdd1Xhn-P0ARItYs4ZrhUUA",
         "plus_code" : {
            "compound_code" : "XGVG+22 Retri, Pakistan",
            "global_code" : "8J3HXGVG+22"
         },
         "types" : [ "plus_code" ]
      },
      {
         "address_components" : [
            {
               "long_name" : "Unnamed Road",
               "short_name" : "Unnamed Road",
               "types" : [ "route" ]
            },
            {
               "long_name" : "Retri",
               "short_name" : "Retri",
               "types" : [ "locality", "political" ]
            },
            {
               "long_name" : "Kalurkot",
               "short_name" : "Kalurkot",
               "types" : [ "administrative_area_level_3", "political" ]
            },
            {
               "long_name" : "Bhakkar",
               "short_name" : "Bhakkar",
               "types" : [ "administrative_area_level_2", "political" ]
            },
            {
               "long_name" : "Punjab",
               "short_name" : "Punjab",
               "types" : [ "administrative_area_level_1", "political" ]
            },
            {
               "long_name" : "Pakistan",
               "short_name" : "PK",
               "types" : [ "country", "political" ]
            }
         ],
         "formatted_address" : "Unnamed Road, Retri, Bhakkar, Punjab, Pakistan",
         "geometry" : {
            "bounds" : {
               "northeast" : {
                  "lat" : 31.9900865,
                  "lng" : 71.5209309
               },
               "southwest" : {
                  "lat" : 31.9897293,
                  "lng" : 71.51981859999999
               }
            },
            "location" : {
               "lat" : 31.9900385,
               "lng" : 71.5203387
            },
            "location_type" : "GEOMETRIC_CENTER",
            "viewport" : {
               "northeast" : {
                  "lat" : 31.9912568802915,
                  "lng" : 71.5217237302915
               },
               "southwest" : {
                  "lat" : 31.9885589197085,
                  "lng" : 71.51902576970849
               }
            }
         },
         "place_id" : "ChIJV1DuyjWUJjkRVvFQHREUxTE",
         "types" : [ "route" ]
      },
      {
         "address_components" : [
            {
               "long_name" : "Fazil",
               "short_name" : "Fazil",
               "types" : [ "administrative_area_level_5", "political" ]
            },
            {
               "long_name" : "Kalurkot",
               "short_name" : "Kalurkot",
               "types" : [ "administrative_area_level_3", "political" ]
            },
            {
               "long_name" : "Bhakkar",
               "short_name" : "Bhakkar",
               "types" : [ "administrative_area_level_2", "political" ]
            },
            {
               "long_name" : "Punjab",
               "short_name" : "Punjab",
               "types" : [ "administrative_area_level_1", "political" ]
            },
            {
               "long_name" : "Pakistan",
               "short_name" : "PK",
               "types" : [ "country", "political" ]
            }
         ],
         "formatted_address" : "Fazil, Bhakkar, Punjab, Pakistan",
         "geometry" : {
            "bounds" : {
               "northeast" : {
                  "lat" : 32.2051529,
                  "lng" : 71.58551469999999
               },
               "southwest" : {
                  "lat" : 31.9434475,
                  "lng" : 71.4134296
               }
            },
            "location" : {
               "lat" : 32.0775438,
               "lng" : 71.5011731
            },
            "location_type" : "APPROXIMATE",
            "viewport" : {
               "northeast" : {
                  "lat" : 32.2051529,
                  "lng" : 71.58551469999999
               },
               "southwest" : {
                  "lat" : 31.9434475,
                  "lng" : 71.4134296
               }
            }
         },
         "place_id" : "ChIJF01c9EDrJjkR3u8DZ2TQEzE",
         "types" : [ "administrative_area_level_5", "political" ]
      },
      {
         "address_components" : [
            {
               "long_name" : "Kalurkot",
               "short_name" : "Kalurkot",
               "types" : [ "administrative_area_level_3", "political" ]
            },
            {
               "long_name" : "Bhakkar",
               "short_name" : "Bhakkar",
               "types" : [ "administrative_area_level_2", "political" ]
            },
            {
               "long_name" : "Punjab",
               "short_name" : "Punjab",
               "types" : [ "administrative_area_level_1", "political" ]
            },
            {
               "long_name" : "Pakistan",
               "short_name" : "PK",
               "types" : [ "country", "political" ]
            }
         ],
         "formatted_address" : "Kalurkot, Bhakkar, Punjab, Pakistan",
         "geometry" : {
            "bounds" : {
               "northeast" : {
                  "lat" : 32.205153,
                  "lng" : 71.7760519
               },
               "southwest" : {
                  "lat" : 31.899314,
                  "lng" : 71.0653126
               }
            },
            "location" : {
               "lat" : 32.0887231,
               "lng" : 71.4299364
            },
            "location_type" : "APPROXIMATE",
            "viewport" : {
               "northeast" : {
                  "lat" : 32.205153,
                  "lng" : 71.7760519
               },
               "southwest" : {
                  "lat" : 31.899314,
                  "lng" : 71.0653126
               }
            }
         },
         "place_id" : "ChIJW-DTqC_tJjkR4JO10WSvkc8",
         "types" : [ "administrative_area_level_3", "political" ]
      },
      {
         "address_components" : [
            {
               "long_name" : "Bhakkar",
               "short_name" : "Bhakkar",
               "types" : [ "administrative_area_level_2", "political" ]
            },
            {
               "long_name" : "Punjab",
               "short_name" : "Punjab",
               "types" : [ "administrative_area_level_1", "political" ]
            },
            {
               "long_name" : "Pakistan",
               "short_name" : "PK",
               "types" : [ "country", "political" ]
            }
         ],
         "formatted_address" : "Bhakkar, Punjab, Pakistan",
         "geometry" : {
            "bounds" : {
               "northeast" : {
                  "lat" : 32.2051529,
                  "lng" : 72.0227185
               },
               "southwest" : {
                  "lat" : 31.1373828,
                  "lng" : 70.8071142
               }
            },
            "location" : {
               "lat" : 31.8621101,
               "lng" : 71.3824374
            },
            "location_type" : "APPROXIMATE",
            "viewport" : {
               "northeast" : {
                  "lat" : 32.2051529,
                  "lng" : 72.0227185
               },
               "southwest" : {
                  "lat" : 31.1373828,
                  "lng" : 70.8071142
               }
            }
         },
         "place_id" : "ChIJMZ9MzU6bJjkRVJ6EKVpZeeY",
         "types" : [ "administrative_area_level_2", "political" ]
      },
      {
         "address_components" : [
            {
               "long_name" : "Punjab",
               "short_name" : "Punjab",
               "types" : [ "administrative_area_level_1", "political" ]
            },
            {
               "long_name" : "Pakistan",
               "short_name" : "PK",
               "types" : [ "country", "political" ]
            }
         ],
         "formatted_address" : "Punjab, Pakistan",
         "geometry" : {
            "bounds" : {
               "northeast" : {
                  "lat" : 34.0434647,
                  "lng" : 75.3796504
               },
               "southwest" : {
                  "lat" : 27.7056256,
                  "lng" : 69.3288726
               }
            },
            "location" : {
               "lat" : 31.1704063,
               "lng" : 72.70971609999999
            },
            "location_type" : "APPROXIMATE",
            "viewport" : {
               "northeast" : {
                  "lat" : 34.0434647,
                  "lng" : 75.3796504
               },
               "southwest" : {
                  "lat" : 27.7056256,
                  "lng" : 69.3288726
               }
            }
         },
         "place_id" : "ChIJy5pBdImU3zgRoOxO0hgwnjo",
         "types" : [ "administrative_area_level_1", "political" ]
      },
      {
         "address_components" : [
            {
               "long_name" : "Pakistan",
               "short_name" : "PK",
               "types" : [ "country", "political" ]
            }
         ],
         "formatted_address" : "Pakistan",
         "geometry" : {
            "bounds" : {
               "northeast" : {
                  "lat" : 37.0841069,
                  "lng" : 77.1204247
               },
               "southwest" : {
                  "lat" : 23.6344999,
                  "lng" : 60.8729721
               }
            },
            "location" : {
               "lat" : 30.375321,
               "lng" : 69.34511599999999
            },
            "location_type" : "APPROXIMATE",
            "viewport" : {
               "northeast" : {
                  "lat" : 37.0841069,
                  "lng" : 77.1204247
               },
               "southwest" : {
                  "lat" : 23.6344999,
                  "lng" : 60.8729721
               }
            }
         },
         "place_id" : "ChIJH3X9-NJS2zgRXJIU5veht0Y",
         "types" : [ "country", "political" ]
      }
   ],
   "status" : "OK"
}
