{
   "plus_code" : {
      "compound_code" : "267G+22G Khuram Chorara, Pakistan",
      "global_code" : "8J4M267G+22G"
   },
   "results" : [
      {
         "address_components" : [
            {
               "long_name" : "267G+22",
               "short_name" : "267G+22",
               "types" : [ "plus_code" ]
            },
            {
               "long_name" : "Khuram Chorara",
               "short_name" : "Khuram Chorara",
               "types" : [ "locality", "political" ]
            },
            {
               "long_name" : "Pindi Bhattian",
               "short_name" : "Pindi Bhattian",
               "types" : [ "administrative_area_level_3", "political" ]
            },
            {
               "long_name" : "Hafizabad",
               "short_name" : "Hafizabad",
               "types" : [ "administrative_area_level_2", "political" ]
            },
            {
               "long_name" : "Punjab",
               "short_name" : "Punjab",
               "types" : [ "administrative_area_level_1", "political" ]
            },
            {
               "long_name" : "Pakistan",
               "short_name" : "PK",
               "types" : [ "country", "political" ]
            }
         ],
         "formatted_address" : "267G+22 Khuram Chorara, Pakistan",
         "geometry" : {
            "bounds" : {
               "northeast" : {
                  "lat" : 32.012625,
                  "lng" : 73.22512499999999
               },
               "southwest" : {
                  "lat" : 32.0125,
                  "lng" : 73.22499999999999
               }
            },
            "location" : {
               "lat" : 32.0125746,
               "lng" : 73.22507809999999
            },
            "location_type" : "GEOMETRIC_CENTER",
            "viewport" : {
               "northeast" : {
                  "lat" : 32.0139114802915,
                  "lng" : 73.22641148029152
               },
               "southwest" : {
                  "lat" : 32.0112135197085,
                  "lng" : 73.2237135197085
               }
            }
         },
         "place_id" : "GhIJUeFjC5wBQEAR7qL5rWdOUkA",
         "plus_code" : {
            "compound_code" : "267G+22 Khuram Chorara, Pakistan",
            "global_code" : "8J4M267G+22"
         },
         "types" : [ "plus_code" ]
      },
      {
         "address_components" : [
            {
               "long_name" : "Unnamed Road",
               "short_name" : "Unnamed Road",
               "types" : [ "route" ]
            },
            {
               "long_name" : "Kot Momin",
               "short_name" : "Kot Momin",
               "types" : [ "administrative_area_level_3", "political" ]
            },
            {
               "long_name" : "Sargodha",
               "short_name" : "Sargodha",
               "types" : [ "administrative_area_level_2", "political" ]
            },
            {
               "long_name" : "Punjab",
               "short_name" : "Punjab",
               "types" : [ "administrative_area_level_1", "political" ]
            },
            {
               "long_name" : "Pakistan",
               "short_name" : "PK",
               "types" : [ "country", "political" ]
            }
         ],
         "formatted_address" : "Unnamed Road, Sargodha, Punjab, Pakistan",
         "geometry" : {
            "bounds" : {
               "northeast" : {
                  "lat" : 32.0135318,
                  "lng" : 73.2260742
               },
               "southwest" : {
                  "lat" : 32.0126324,
                  "lng" : 73.2220676
               }
            },
            "location" : {
               "lat" : 32.0130058,
               "lng" : 73.22404879999999
            },
            "location_type" : "GEOMETRIC_CENTER",
            "viewport" : {
               "northeast" : {
                  "lat" : 32.0144310802915,
                  "lng" : 73.2260742
               },
               "southwest" : {
                  "lat" : 32.0117331197085,
                  "lng" : 73.2220676
               }
            }
         },
         "place_id" : "ChIJFz4wKOH2ITkRjMCYbAghDpM",
         "types" : [ "route" ]
      },
      {
         "address_components" : [
            {
               "long_name" : "Midh Ranjha",
               "short_name" : "Midh Ranjha",
               "types" : [ "administrative_area_level_5", "political" ]
            },
            {
               "long_name" : "Kot Momin",
               "short_name" : "Kot Momin",
               "types" : [ "administrative_area_level_3", "political" ]
            },
            {
               "long_name" : "Sargodha",
               "short_name" : "Sargodha",
               "types" : [ "administrative_area_level_2", "political" ]
            },
            {
               "long_name" : "Punjab",
               "short_name" : "Punjab",
               "types" : [ "administrative_area_level_1", "political" ]
            },
            {
               "long_name" : "Pakistan",
               "short_name" : "PK",
               "types" : [ "country", "political" ]
            }
         ],
         "formatted_address" : "Midh Ranjha, Sargodha, Punjab, Pakistan",
         "geometry" : {
            "bounds" : {
               "northeast" : {
                  "lat" : 32.0643332,
                  "lng" : 73.24340100000001
               },
               "southwest" : {
                  "lat" : 31.9500206,
                  "lng" : 73.13127829999999
               }
            },
            "location" : {
               "lat" : 32.0006909,
               "lng" : 73.19396119999999
            },
            "location_type" : "APPROXIMATE",
            "viewport" : {
               "northeast" : {
                  "lat" : 32.0643332,
                  "lng" : 73.24340100000001
               },
               "southwest" : {
                  "lat" : 31.9500206,
                  "lng" : 73.13127829999999
               }
            }
         },
         "place_id" : "ChIJO_F8z572ITkRYOntkkS9vy0",
         "types" : [ "administrative_area_level_5", "political" ]
      },
      {
         "address_components" : [
            {
               "long_name" : "Kot Momin",
               "short_name" : "Kot Momin",
               "types" : [ "administrative_area_level_3", "political" ]
            },
            {
               "long_name" : "Sargodha",
               "short_name" : "Sargodha",
               "types" : [ "administrative_area_level_2", "political" ]
            },
            {
               "long_name" : "Punjab",
               "short_name" : "Punjab",
               "types" : [ "administrative_area_level_1", "political" ]
            },
            {
               "long_name" : "Pakistan",
               "short_name" : "PK",
               "types" : [ "country", "political" ]
            }
         ],
         "formatted_address" : "Kot Momin, Sargodha, Punjab, Pakistan",
         "geometry" : {
            "bounds" : {
               "northeast" : {
                  "lat" : 32.2969201,
                  "lng" : 73.31019239999999
               },
               "southwest" : {
                  "lat" : 31.892333,
                  "lng" : 72.93846119999999
               }
            },
            "location" : {
               "lat" : 32.0699288,
               "lng" : 73.13496049999999
            },
            "location_type" : "APPROXIMATE",
            "viewport" : {
               "northeast" : {
                  "lat" : 32.2969201,
                  "lng" : 73.31019239999999
               },
               "southwest" : {
                  "lat" : 31.892333,
                  "lng" : 72.93846119999999
               }
            }
         },
         "place_id" : "ChIJ0U66lI3yITkRgQZuIYAp954",
         "types" : [ "administrative_area_level_3", "political" ]
      },
      {
         "address_components" : [
            {
               "long_name" : "Sargodha",
               "short_name" : "Sargodha",
               "types" : [ "administrative_area_level_2", "political" ]
            },
            {
               "long_name" : "Punjab",
               "short_name" : "Punjab",
               "types" : [ "administrative_area_level_1", "political" ]
            },
            {
               "long_name" : "Pakistan",
               "short_name" : "PK",
               "types" : [ "country", "political" ]
            }
         ],
         "formatted_address" : "Sargodha, Punjab, Pakistan",
         "geometry" : {
            "bounds" : {
               "northeast" : {
                  "lat" : 32.5712785,
                  "lng" : 73.31019239999999
               },
               "southwest" : {
                  "lat" : 31.5566249,
                  "lng" : 72.21704679999999
               }
            },
            "location" : {
               "lat" : 32.156592,
               "lng" : 72.8042797
            },
            "location_type" : "APPROXIMATE",
            "viewport" : {
               "northeast" : {
                  "lat" : 32.5712785,
                  "lng" : 73.31019239999999
               },
               "southwest" : {
                  "lat" : 31.5566249,
                  "lng" : 72.21704679999999
               }
            }
         },
         "place_id" : "ChIJ0S6JJZadITkRmlmemFkTNjk",
         "types" : [ "administrative_area_level_2", "political" ]
      },
      {
         "address_components" : [
            {
               "long_name" : "Punjab",
               "short_name" : "Punjab",
               "types" : [ "administrative_area_level_1", "political" ]
            },
            {
               "long_name" : "Pakistan",
               "short_name" : "PK",
               "types" : [ "country", "political" ]
            }
         ],
         "formatted_address" : "Punjab, Pakistan",
         "geometry" : {
            "bounds" : {
               "northeast" : {
                  "lat" : 34.0434647,
                  "lng" : 75.3796504
               },
               "southwest" : {
                  "lat" : 27.7056256,
                  "lng" : 69.3288726
               }
            },
            "location" : {
               "lat" : 31.1704063,
               "lng" : 72.70971609999999
            },
            "location_type" : "APPROXIMATE",
            "viewport" : {
               "northeast" : {
                  "lat" : 34.0434647,
                  "lng" : 75.3796504
               },
               "southwest" : {
                  "lat" : 27.7056256,
                  "lng" : 69.3288726
               }
            }
         },
         "place_id" : "ChIJy5pBdImU3zgRoOxO0hgwnjo",
         "types" : [ "administrative_area_level_1", "political" ]
      },
      {
         "address_components" : [
            {
               "long_name" : "Pakistan",
               "short_name" : "PK",
               "types" : [ "country", "political" ]
            }
         ],
         "formatted_address" : "Pakistan",
         "geometry" : {
            "bounds" : {
               "northeast" : {
                  "lat" : 37.0841069,
                  "lng" : 77.1204247
               },
               "southwest" : {
                  "lat" : 23.6344999,
                  "lng" : 60.8729721
               }
            },
            "location" : {
               "lat" : 30.375321,
               "lng" : 69.34511599999999
            },
            "location_type" : "APPROXIMATE",
            "viewport" : {
               "northeast" : {
                  "lat" : 37.0841069,
                  "lng" : 77.1204247
               },
               "southwest" : {
                  "lat" : 23.6344999,
                  "lng" : 60.8729721
               }
            }
         },
         "place_id" : "ChIJH3X9-NJS2zgRXJIU5veht0Y",
         "types" : [ "country", "political" ]
      }
   ],
   "status" : "OK"
}
