{
   "plus_code" : {
      "compound_code" : "X238+22G Kaloor Sharif, Pakistan",
      "global_code" : "8J3MX238+22G"
   },
   "results" : [
      {
         "address_components" : [
            {
               "long_name" : "X238+22",
               "short_name" : "X238+22",
               "types" : [ "plus_code" ]
            },
            {
               "long_name" : "Kaloor Sharif",
               "short_name" : "Kaloor Sharif",
               "types" : [ "locality", "political" ]
            },
            {
               "long_name" : "Chiniot",
               "short_name" : "Chiniot",
               "types" : [ "administrative_area_level_3", "political" ]
            },
            {
               "long_name" : "Sargodha",
               "short_name" : "Sargodha",
               "types" : [ "administrative_area_level_2", "political" ]
            },
            {
               "long_name" : "Punjab",
               "short_name" : "Punjab",
               "types" : [ "administrative_area_level_1", "political" ]
            },
            {
               "long_name" : "Pakistan",
               "short_name" : "PK",
               "types" : [ "country", "political" ]
            }
         ],
         "formatted_address" : "X238+22 Kaloor Sharif, Pakistan",
         "geometry" : {
            "bounds" : {
               "northeast" : {
                  "lat" : 31.95262499999999,
                  "lng" : 73.015125
               },
               "southwest" : {
                  "lat" : 31.9525,
                  "lng" : 73.015
               }
            },
            "location" : {
               "lat" : 31.9525746,
               "lng" : 73.0150781
            },
            "location_type" : "GEOMETRIC_CENTER",
            "viewport" : {
               "northeast" : {
                  "lat" : 31.9539114802915,
                  "lng" : 73.0164114802915
               },
               "southwest" : {
                  "lat" : 31.9512135197085,
                  "lng" : 73.01371351970849
               }
            }
         },
         "place_id" : "GhIJEgDS7dvzP0ARsZgiCvdAUkA",
         "plus_code" : {
            "compound_code" : "X238+22 Kaloor Sharif, Pakistan",
            "global_code" : "8J3MX238+22"
         },
         "types" : [ "plus_code" ]
      },
      {
         "address_components" : [
            {
               "long_name" : "Unnamed Road",
               "short_name" : "Unnamed Road",
               "types" : [ "route" ]
            },
            {
               "long_name" : "Punjab",
               "short_name" : "Punjab",
               "types" : [ "administrative_area_level_1", "political" ]
            },
            {
               "long_name" : "Pakistan",
               "short_name" : "PK",
               "types" : [ "country", "political" ]
            }
         ],
         "formatted_address" : "Unnamed Road, Punjab, Pakistan",
         "geometry" : {
            "bounds" : {
               "northeast" : {
                  "lat" : 31.9526705,
                  "lng" : 73.018236
               },
               "southwest" : {
                  "lat" : 31.9506709,
                  "lng" : 73.0114114
               }
            },
            "location" : {
               "lat" : 31.9522048,
               "lng" : 73.0155087
            },
            "location_type" : "GEOMETRIC_CENTER",
            "viewport" : {
               "northeast" : {
                  "lat" : 31.9530196802915,
                  "lng" : 73.018236
               },
               "southwest" : {
                  "lat" : 31.9503217197085,
                  "lng" : 73.0114114
               }
            }
         },
         "place_id" : "ChIJp944YDiKITkRzNub2UMfu0k",
         "types" : [ "route" ]
      },
      {
         "address_components" : [
            {
               "long_name" : "Doda",
               "short_name" : "Doda",
               "types" : [ "administrative_area_level_5", "political" ]
            },
            {
               "long_name" : "Kot Momin",
               "short_name" : "Kot Momin",
               "types" : [ "administrative_area_level_3", "political" ]
            },
            {
               "long_name" : "Sargodha",
               "short_name" : "Sargodha",
               "types" : [ "administrative_area_level_2", "political" ]
            },
            {
               "long_name" : "Punjab",
               "short_name" : "Punjab",
               "types" : [ "administrative_area_level_1", "political" ]
            },
            {
               "long_name" : "Pakistan",
               "short_name" : "PK",
               "types" : [ "country", "political" ]
            }
         ],
         "formatted_address" : "Doda, Sargodha, Punjab, Pakistan",
         "geometry" : {
            "bounds" : {
               "northeast" : {
                  "lat" : 31.9918149,
                  "lng" : 73.0687204
               },
               "southwest" : {
                  "lat" : 31.9293769,
                  "lng" : 72.991027
               }
            },
            "location" : {
               "lat" : 31.9593045,
               "lng" : 73.052334
            },
            "location_type" : "APPROXIMATE",
            "viewport" : {
               "northeast" : {
                  "lat" : 31.9918149,
                  "lng" : 73.0687204
               },
               "southwest" : {
                  "lat" : 31.9293769,
                  "lng" : 72.991027
               }
            }
         },
         "place_id" : "ChIJ2Srb61GKITkRMhjnN2Y8NeE",
         "types" : [ "administrative_area_level_5", "political" ]
      },
      {
         "address_components" : [
            {
               "long_name" : "Kot Momin",
               "short_name" : "Kot Momin",
               "types" : [ "administrative_area_level_3", "political" ]
            },
            {
               "long_name" : "Sargodha",
               "short_name" : "Sargodha",
               "types" : [ "administrative_area_level_2", "political" ]
            },
            {
               "long_name" : "Punjab",
               "short_name" : "Punjab",
               "types" : [ "administrative_area_level_1", "political" ]
            },
            {
               "long_name" : "Pakistan",
               "short_name" : "PK",
               "types" : [ "country", "political" ]
            }
         ],
         "formatted_address" : "Kot Momin, Sargodha, Punjab, Pakistan",
         "geometry" : {
            "bounds" : {
               "northeast" : {
                  "lat" : 32.2969201,
                  "lng" : 73.31019239999999
               },
               "southwest" : {
                  "lat" : 31.892333,
                  "lng" : 72.93846119999999
               }
            },
            "location" : {
               "lat" : 32.0699288,
               "lng" : 73.13496049999999
            },
            "location_type" : "APPROXIMATE",
            "viewport" : {
               "northeast" : {
                  "lat" : 32.2969201,
                  "lng" : 73.31019239999999
               },
               "southwest" : {
                  "lat" : 31.892333,
                  "lng" : 72.93846119999999
               }
            }
         },
         "place_id" : "ChIJ0U66lI3yITkRgQZuIYAp954",
         "types" : [ "administrative_area_level_3", "political" ]
      },
      {
         "address_components" : [
            {
               "long_name" : "Sargodha",
               "short_name" : "Sargodha",
               "types" : [ "administrative_area_level_2", "political" ]
            },
            {
               "long_name" : "Punjab",
               "short_name" : "Punjab",
               "types" : [ "administrative_area_level_1", "political" ]
            },
            {
               "long_name" : "Pakistan",
               "short_name" : "PK",
               "types" : [ "country", "political" ]
            }
         ],
         "formatted_address" : "Sargodha, Punjab, Pakistan",
         "geometry" : {
            "bounds" : {
               "northeast" : {
                  "lat" : 32.5712785,
                  "lng" : 73.31019239999999
               },
               "southwest" : {
                  "lat" : 31.5566249,
                  "lng" : 72.21704679999999
               }
            },
            "location" : {
               "lat" : 32.156592,
               "lng" : 72.8042797
            },
            "location_type" : "APPROXIMATE",
            "viewport" : {
               "northeast" : {
                  "lat" : 32.5712785,
                  "lng" : 73.31019239999999
               },
               "southwest" : {
                  "lat" : 31.5566249,
                  "lng" : 72.21704679999999
               }
            }
         },
         "place_id" : "ChIJ0S6JJZadITkRmlmemFkTNjk",
         "types" : [ "administrative_area_level_2", "political" ]
      },
      {
         "address_components" : [
            {
               "long_name" : "Punjab",
               "short_name" : "Punjab",
               "types" : [ "administrative_area_level_1", "political" ]
            },
            {
               "long_name" : "Pakistan",
               "short_name" : "PK",
               "types" : [ "country", "political" ]
            }
         ],
         "formatted_address" : "Punjab, Pakistan",
         "geometry" : {
            "bounds" : {
               "northeast" : {
                  "lat" : 34.0434647,
                  "lng" : 75.3796504
               },
               "southwest" : {
                  "lat" : 27.7056256,
                  "lng" : 69.3288726
               }
            },
            "location" : {
               "lat" : 31.1704063,
               "lng" : 72.70971609999999
            },
            "location_type" : "APPROXIMATE",
            "viewport" : {
               "northeast" : {
                  "lat" : 34.0434647,
                  "lng" : 75.3796504
               },
               "southwest" : {
                  "lat" : 27.7056256,
                  "lng" : 69.3288726
               }
            }
         },
         "place_id" : "ChIJy5pBdImU3zgRoOxO0hgwnjo",
         "types" : [ "administrative_area_level_1", "political" ]
      },
      {
         "address_components" : [
            {
               "long_name" : "Pakistan",
               "short_name" : "PK",
               "types" : [ "country", "political" ]
            }
         ],
         "formatted_address" : "Pakistan",
         "geometry" : {
            "bounds" : {
               "northeast" : {
                  "lat" : 37.0841069,
                  "lng" : 77.1204247
               },
               "southwest" : {
                  "lat" : 23.6344999,
                  "lng" : 60.8729721
               }
            },
            "location" : {
               "lat" : 30.375321,
               "lng" : 69.34511599999999
            },
            "location_type" : "APPROXIMATE",
            "viewport" : {
               "northeast" : {
                  "lat" : 37.0841069,
                  "lng" : 77.1204247
               },
               "southwest" : {
                  "lat" : 23.6344999,
                  "lng" : 60.8729721
               }
            }
         },
         "place_id" : "ChIJH3X9-NJS2zgRXJIU5veht0Y",
         "types" : [ "country", "political" ]
      }
   ],
   "status" : "OK"
}
