{
   "plus_code" : {
      "compound_code" : "34F4+22G Rooda, Pakistan",
      "global_code" : "8J4J34F4+22G"
   },
   "results" : [
      {
         "address_components" : [
            {
               "long_name" : "34F4+22",
               "short_name" : "34F4+22",
               "types" : [ "plus_code" ]
            },
            {
               "long_name" : "Rooda",
               "short_name" : "Rooda",
               "types" : [ "locality", "political" ]
            },
            {
               "long_name" : "Khushab",
               "short_name" : "Khushab",
               "types" : [ "administrative_area_level_3", "political" ]
            },
            {
               "long_name" : "Khushab",
               "short_name" : "Khushab",
               "types" : [ "administrative_area_level_2", "political" ]
            },
            {
               "long_name" : "Punjab",
               "short_name" : "Punjab",
               "types" : [ "administrative_area_level_1", "political" ]
            },
            {
               "long_name" : "Pakistan",
               "short_name" : "PK",
               "types" : [ "country", "political" ]
            }
         ],
         "formatted_address" : "34F4+22 Rooda, Pakistan",
         "geometry" : {
            "bounds" : {
               "northeast" : {
                  "lat" : 32.072625,
                  "lng" : 72.105125
               },
               "southwest" : {
                  "lat" : 32.0725,
                  "lng" : 72.10499999999999
               }
            },
            "location" : {
               "lat" : 32.0725746,
               "lng" : 72.1050781
            },
            "location_type" : "GEOMETRIC_CENTER",
            "viewport" : {
               "northeast" : {
                  "lat" : 32.07391148029149,
                  "lng" : 72.1064114802915
               },
               "southwest" : {
                  "lat" : 32.07121351970849,
                  "lng" : 72.10371351970849
               }
            }
         },
         "place_id" : "GhIJmMLeH0oJQEARp8F-mbkGUkA",
         "plus_code" : {
            "compound_code" : "34F4+22 Rooda, Pakistan",
            "global_code" : "8J4J34F4+22"
         },
         "types" : [ "plus_code" ]
      },
      {
         "address_components" : [
            {
               "long_name" : "34C4+VR2",
               "short_name" : "34C4+VR2",
               "types" : [ "plus_code" ]
            },
            {
               "long_name" : "Rooda",
               "short_name" : "Rooda",
               "types" : [ "locality", "political" ]
            },
            {
               "long_name" : "Khushab",
               "short_name" : "Khushab",
               "types" : [ "administrative_area_level_3", "political" ]
            },
            {
               "long_name" : "Khushab",
               "short_name" : "Khushab",
               "types" : [ "administrative_area_level_2", "political" ]
            },
            {
               "long_name" : "Punjab",
               "short_name" : "Punjab",
               "types" : [ "administrative_area_level_1", "political" ]
            },
            {
               "long_name" : "Pakistan",
               "short_name" : "PK",
               "types" : [ "country", "political" ]
            }
         ],
         "formatted_address" : "34C4+VR2, Rooda, Khushab, Punjab, Pakistan",
         "geometry" : {
            "bounds" : {
               "northeast" : {
                  "lat" : 32.0723706,
                  "lng" : 72.1072782
               },
               "southwest" : {
                  "lat" : 32.0720932,
                  "lng" : 72.1067664
               }
            },
            "location" : {
               "lat" : 32.0722495,
               "lng" : 72.10704
            },
            "location_type" : "ROOFTOP",
            "viewport" : {
               "northeast" : {
                  "lat" : 32.0735808802915,
                  "lng" : 72.10837128029149
               },
               "southwest" : {
                  "lat" : 32.0708829197085,
                  "lng" : 72.10567331970849
               }
            }
         },
         "place_id" : "ChIJFT7xxsRIITkR855yBzMcnPI",
         "types" : [ "premise" ]
      },
      {
         "address_components" : [
            {
               "long_name" : "34C4+VR2",
               "short_name" : "34C4+VR2",
               "types" : [ "plus_code" ]
            },
            {
               "long_name" : "Rooda",
               "short_name" : "Rooda",
               "types" : [ "locality", "political" ]
            },
            {
               "long_name" : "Khushab",
               "short_name" : "Khushab",
               "types" : [ "administrative_area_level_3", "political" ]
            },
            {
               "long_name" : "Khushab",
               "short_name" : "Khushab",
               "types" : [ "administrative_area_level_2", "political" ]
            },
            {
               "long_name" : "Punjab",
               "short_name" : "Punjab",
               "types" : [ "administrative_area_level_1", "political" ]
            },
            {
               "long_name" : "Pakistan",
               "short_name" : "PK",
               "types" : [ "country", "political" ]
            }
         ],
         "formatted_address" : "34C4+VR2, Rooda, Khushab, Punjab, Pakistan",
         "geometry" : {
            "location" : {
               "lat" : 32.0721463,
               "lng" : 72.10702959999999
            },
            "location_type" : "GEOMETRIC_CENTER",
            "viewport" : {
               "northeast" : {
                  "lat" : 32.0734952802915,
                  "lng" : 72.1083785802915
               },
               "southwest" : {
                  "lat" : 32.0707973197085,
                  "lng" : 72.10568061970848
               }
            }
         },
         "place_id" : "ChIJx1pjvsRJITkRWtEt0JFTBjo",
         "types" : [ "establishment", "point_of_interest", "university" ]
      },
      {
         "address_components" : [
            {
               "long_name" : "Nawaz Chowk Road",
               "short_name" : "Nawaz Chowk Rd",
               "types" : [ "route" ]
            },
            {
               "long_name" : "Rooda",
               "short_name" : "Rooda",
               "types" : [ "locality", "political" ]
            },
            {
               "long_name" : "Khushab",
               "short_name" : "Khushab",
               "types" : [ "administrative_area_level_3", "political" ]
            },
            {
               "long_name" : "Khushab",
               "short_name" : "Khushab",
               "types" : [ "administrative_area_level_2", "political" ]
            },
            {
               "long_name" : "Punjab",
               "short_name" : "Punjab",
               "types" : [ "administrative_area_level_1", "political" ]
            },
            {
               "long_name" : "Pakistan",
               "short_name" : "PK",
               "types" : [ "country", "political" ]
            }
         ],
         "formatted_address" : "Nawaz Chowk Rd, Rooda, Khushab, Punjab, Pakistan",
         "geometry" : {
            "bounds" : {
               "northeast" : {
                  "lat" : 32.0733519,
                  "lng" : 72.10364969999999
               },
               "southwest" : {
                  "lat" : 32.0731365,
                  "lng" : 72.1035126
               }
            },
            "location" : {
               "lat" : 32.0732437,
               "lng" : 72.10358240000001
            },
            "location_type" : "GEOMETRIC_CENTER",
            "viewport" : {
               "northeast" : {
                  "lat" : 32.0745931802915,
                  "lng" : 72.10493013029151
               },
               "southwest" : {
                  "lat" : 32.0718952197085,
                  "lng" : 72.1022321697085
               }
            }
         },
         "place_id" : "ChIJ3wDPfdtIITkRijhNbNZHc7I",
         "types" : [ "route" ]
      },
      {
         "address_components" : [
            {
               "long_name" : "Rooda",
               "short_name" : "Rooda",
               "types" : [ "locality", "political" ]
            },
            {
               "long_name" : "Khushab",
               "short_name" : "Khushab",
               "types" : [ "administrative_area_level_3", "political" ]
            },
            {
               "long_name" : "Khushab",
               "short_name" : "Khushab",
               "types" : [ "administrative_area_level_2", "political" ]
            },
            {
               "long_name" : "Punjab",
               "short_name" : "Punjab",
               "types" : [ "administrative_area_level_1", "political" ]
            },
            {
               "long_name" : "Pakistan",
               "short_name" : "PK",
               "types" : [ "country", "political" ]
            }
         ],
         "formatted_address" : "Rooda, Khushab, Punjab, Pakistan",
         "geometry" : {
            "bounds" : {
               "northeast" : {
                  "lat" : 32.0824785,
                  "lng" : 72.1093614
               },
               "southwest" : {
                  "lat" : 32.0625901,
                  "lng" : 72.0882053
               }
            },
            "location" : {
               "lat" : 32.0696577,
               "lng" : 72.09718099999999
            },
            "location_type" : "APPROXIMATE",
            "viewport" : {
               "northeast" : {
                  "lat" : 32.0824785,
                  "lng" : 72.1093614
               },
               "southwest" : {
                  "lat" : 32.0625901,
                  "lng" : 72.0882053
               }
            }
         },
         "place_id" : "ChIJix89edxIITkRiwOKPubrptg",
         "types" : [ "locality", "political" ]
      },
      {
         "address_components" : [
            {
               "long_name" : "Roda",
               "short_name" : "Roda",
               "types" : [ "administrative_area_level_5", "political" ]
            },
            {
               "long_name" : "Khushab",
               "short_name" : "Khushab",
               "types" : [ "administrative_area_level_3", "political" ]
            },
            {
               "long_name" : "Khushab",
               "short_name" : "Khushab",
               "types" : [ "administrative_area_level_2", "political" ]
            },
            {
               "long_name" : "Punjab",
               "short_name" : "Punjab",
               "types" : [ "administrative_area_level_1", "political" ]
            },
            {
               "long_name" : "Pakistan",
               "short_name" : "PK",
               "types" : [ "country", "political" ]
            }
         ],
         "formatted_address" : "Roda, Khushab, Punjab, Pakistan",
         "geometry" : {
            "bounds" : {
               "northeast" : {
                  "lat" : 32.1197382,
                  "lng" : 72.21317550000001
               },
               "southwest" : {
                  "lat" : 31.9896512,
                  "lng" : 71.98037959999999
               }
            },
            "location" : {
               "lat" : 32.0809136,
               "lng" : 72.1179169
            },
            "location_type" : "APPROXIMATE",
            "viewport" : {
               "northeast" : {
                  "lat" : 32.1197382,
                  "lng" : 72.21317550000001
               },
               "southwest" : {
                  "lat" : 31.9896512,
                  "lng" : 71.98037959999999
               }
            }
         },
         "place_id" : "ChIJj3Mv3CpPITkRzQdxL_InBLY",
         "types" : [ "administrative_area_level_5", "political" ]
      },
      {
         "address_components" : [
            {
               "long_name" : "Khushab",
               "short_name" : "Khushab",
               "types" : [ "administrative_area_level_3", "political" ]
            },
            {
               "long_name" : "Khushab",
               "short_name" : "Khushab",
               "types" : [ "administrative_area_level_2", "political" ]
            },
            {
               "long_name" : "Punjab",
               "short_name" : "Punjab",
               "types" : [ "administrative_area_level_1", "political" ]
            },
            {
               "long_name" : "Pakistan",
               "short_name" : "PK",
               "types" : [ "country", "political" ]
            }
         ],
         "formatted_address" : "Khushab, Punjab, Pakistan",
         "geometry" : {
            "bounds" : {
               "northeast" : {
                  "lat" : 32.7130679,
                  "lng" : 72.6641961
               },
               "southwest" : {
                  "lat" : 31.9610739,
                  "lng" : 71.8815345
               }
            },
            "location" : {
               "lat" : 32.4547171,
               "lng" : 72.4258145
            },
            "location_type" : "APPROXIMATE",
            "viewport" : {
               "northeast" : {
                  "lat" : 32.7130679,
                  "lng" : 72.6641961
               },
               "southwest" : {
                  "lat" : 31.9610739,
                  "lng" : 71.8815345
               }
            }
         },
         "place_id" : "ChIJFVCCztE8ITkRWs9kTfdEp9k",
         "types" : [ "administrative_area_level_3", "political" ]
      },
      {
         "address_components" : [
            {
               "long_name" : "Khushab",
               "short_name" : "Khushab",
               "types" : [ "administrative_area_level_2", "political" ]
            },
            {
               "long_name" : "Punjab",
               "short_name" : "Punjab",
               "types" : [ "administrative_area_level_1", "political" ]
            },
            {
               "long_name" : "Pakistan",
               "short_name" : "PK",
               "types" : [ "country", "political" ]
            }
         ],
         "formatted_address" : "Khushab, Punjab, Pakistan",
         "geometry" : {
            "bounds" : {
               "northeast" : {
                  "lat" : 32.7130681,
                  "lng" : 72.6641959
               },
               "southwest" : {
                  "lat" : 31.5302101,
                  "lng" : 71.62501139999999
               }
            },
            "location" : {
               "lat" : 32.3259122,
               "lng" : 72.14161319999999
            },
            "location_type" : "APPROXIMATE",
            "viewport" : {
               "northeast" : {
                  "lat" : 32.7130681,
                  "lng" : 72.6641959
               },
               "southwest" : {
                  "lat" : 31.5302101,
                  "lng" : 71.62501139999999
               }
            }
         },
         "place_id" : "ChIJLxN-009IITkRkCg_bdeC5GU",
         "types" : [ "administrative_area_level_2", "political" ]
      },
      {
         "address_components" : [
            {
               "long_name" : "Punjab",
               "short_name" : "Punjab",
               "types" : [ "administrative_area_level_1", "political" ]
            },
            {
               "long_name" : "Pakistan",
               "short_name" : "PK",
               "types" : [ "country", "political" ]
            }
         ],
         "formatted_address" : "Punjab, Pakistan",
         "geometry" : {
            "bounds" : {
               "northeast" : {
                  "lat" : 34.0434647,
                  "lng" : 75.3796504
               },
               "southwest" : {
                  "lat" : 27.7056256,
                  "lng" : 69.3288726
               }
            },
            "location" : {
               "lat" : 31.1704063,
               "lng" : 72.70971609999999
            },
            "location_type" : "APPROXIMATE",
            "viewport" : {
               "northeast" : {
                  "lat" : 34.0434647,
                  "lng" : 75.3796504
               },
               "southwest" : {
                  "lat" : 27.7056256,
                  "lng" : 69.3288726
               }
            }
         },
         "place_id" : "ChIJy5pBdImU3zgRoOxO0hgwnjo",
         "types" : [ "administrative_area_level_1", "political" ]
      },
      {
         "address_components" : [
            {
               "long_name" : "Pakistan",
               "short_name" : "PK",
               "types" : [ "country", "political" ]
            }
         ],
         "formatted_address" : "Pakistan",
         "geometry" : {
            "bounds" : {
               "northeast" : {
                  "lat" : 37.0841069,
                  "lng" : 77.1204247
               },
               "southwest" : {
                  "lat" : 23.6344999,
                  "lng" : 60.8729721
               }
            },
            "location" : {
               "lat" : 30.375321,
               "lng" : 69.34511599999999
            },
            "location_type" : "APPROXIMATE",
            "viewport" : {
               "northeast" : {
                  "lat" : 37.0841069,
                  "lng" : 77.1204247
               },
               "southwest" : {
                  "lat" : 23.6344999,
                  "lng" : 60.8729721
               }
            }
         },
         "place_id" : "ChIJH3X9-NJS2zgRXJIU5veht0Y",
         "types" : [ "country", "political" ]
      }
   ],
   "status" : "OK"
}
