{
   "plus_code" : {
      "compound_code" : "WXV4+22G Chak 51 SB, Pakistan",
      "global_code" : "8J3JWXV4+22G"
   },
   "results" : [
      {
         "address_components" : [
            {
               "long_name" : "WXV4+22",
               "short_name" : "WXV4+22",
               "types" : [ "plus_code" ]
            },
            {
               "long_name" : "Chak 51 SB",
               "short_name" : "Chak 51 SB",
               "types" : [ "locality", "political" ]
            },
            {
               "long_name" : "Sargodha",
               "short_name" : "Sargodha",
               "types" : [ "administrative_area_level_3", "political" ]
            },
            {
               "long_name" : "Sargodha",
               "short_name" : "Sargodha",
               "types" : [ "administrative_area_level_2", "political" ]
            },
            {
               "long_name" : "Punjab",
               "short_name" : "Punjab",
               "types" : [ "administrative_area_level_1", "political" ]
            },
            {
               "long_name" : "Pakistan",
               "short_name" : "PK",
               "types" : [ "country", "political" ]
            }
         ],
         "formatted_address" : "WXV4+22 Chak 51 SB, Pakistan",
         "geometry" : {
            "bounds" : {
               "northeast" : {
                  "lat" : 31.942625,
                  "lng" : 72.955125
               },
               "southwest" : {
                  "lat" : 31.9425,
                  "lng" : 72.955
               }
            },
            "location" : {
               "lat" : 31.9425746,
               "lng" : 72.95507809999999
            },
            "location_type" : "GEOMETRIC_CENTER",
            "viewport" : {
               "northeast" : {
                  "lat" : 31.9439114802915,
                  "lng" : 72.95641148029151
               },
               "southwest" : {
                  "lat" : 31.9412135197085,
                  "lng" : 72.95371351970849
               }
            }
         },
         "place_id" : "GhIJTwqpkUzxP0ARDSjl_x89UkA",
         "plus_code" : {
            "compound_code" : "WXV4+22 Chak 51 SB, Pakistan",
            "global_code" : "8J3JWXV4+22"
         },
         "types" : [ "plus_code" ]
      },
      {
         "address_components" : [
            {
               "long_name" : "Unnamed Road",
               "short_name" : "Unnamed Road",
               "types" : [ "route" ]
            },
            {
               "long_name" : "Chiniot",
               "short_name" : "Chiniot",
               "types" : [ "administrative_area_level_3", "political" ]
            },
            {
               "long_name" : "Chiniot",
               "short_name" : "Chiniot",
               "types" : [ "administrative_area_level_2", "political" ]
            },
            {
               "long_name" : "Punjab",
               "short_name" : "Punjab",
               "types" : [ "administrative_area_level_1", "political" ]
            },
            {
               "long_name" : "Pakistan",
               "short_name" : "PK",
               "types" : [ "country", "political" ]
            }
         ],
         "formatted_address" : "Unnamed Road, Chiniot, Punjab, Pakistan",
         "geometry" : {
            "bounds" : {
               "northeast" : {
                  "lat" : 31.9426975,
                  "lng" : 72.9533249
               },
               "southwest" : {
                  "lat" : 31.9422821,
                  "lng" : 72.95285749999999
               }
            },
            "location" : {
               "lat" : 31.9424898,
               "lng" : 72.9530912
            },
            "location_type" : "GEOMETRIC_CENTER",
            "viewport" : {
               "northeast" : {
                  "lat" : 31.9438387802915,
                  "lng" : 72.9544401802915
               },
               "southwest" : {
                  "lat" : 31.9411408197085,
                  "lng" : 72.95174221970849
               }
            }
         },
         "place_id" : "ChIJHe6Mc7GJITkRtHWRMinc7R8",
         "types" : [ "route" ]
      },
      {
         "address_components" : [
            {
               "long_name" : "Kandiwal",
               "short_name" : "Kandiwal",
               "types" : [ "administrative_area_level_5", "political" ]
            },
            {
               "long_name" : "Chiniot",
               "short_name" : "Chiniot",
               "types" : [ "administrative_area_level_3", "political" ]
            },
            {
               "long_name" : "Chiniot",
               "short_name" : "Chiniot",
               "types" : [ "administrative_area_level_2", "political" ]
            },
            {
               "long_name" : "Punjab",
               "short_name" : "Punjab",
               "types" : [ "administrative_area_level_1", "political" ]
            },
            {
               "long_name" : "Pakistan",
               "short_name" : "PK",
               "types" : [ "country", "political" ]
            }
         ],
         "formatted_address" : "Kandiwal, Chiniot, Punjab, Pakistan",
         "geometry" : {
            "bounds" : {
               "northeast" : {
                  "lat" : 31.9762599,
                  "lng" : 73.0120046
               },
               "southwest" : {
                  "lat" : 31.8585093,
                  "lng" : 72.8975109
               }
            },
            "location" : {
               "lat" : 31.9054227,
               "lng" : 72.9814877
            },
            "location_type" : "APPROXIMATE",
            "viewport" : {
               "northeast" : {
                  "lat" : 31.9762599,
                  "lng" : 73.0120046
               },
               "southwest" : {
                  "lat" : 31.8585093,
                  "lng" : 72.8975109
               }
            }
         },
         "place_id" : "ChIJraDm2NaJITkRG1lXKJz0O7c",
         "types" : [ "administrative_area_level_5", "political" ]
      },
      {
         "address_components" : [
            {
               "long_name" : "Chiniot",
               "short_name" : "Chiniot",
               "types" : [ "administrative_area_level_3", "political" ]
            },
            {
               "long_name" : "Chiniot",
               "short_name" : "Chiniot",
               "types" : [ "administrative_area_level_2", "political" ]
            },
            {
               "long_name" : "Punjab",
               "short_name" : "Punjab",
               "types" : [ "administrative_area_level_1", "political" ]
            },
            {
               "long_name" : "Pakistan",
               "short_name" : "PK",
               "types" : [ "country", "political" ]
            }
         ],
         "formatted_address" : "Chiniot, Punjab, Pakistan",
         "geometry" : {
            "bounds" : {
               "northeast" : {
                  "lat" : 31.9762601,
                  "lng" : 73.2314816
               },
               "southwest" : {
                  "lat" : 31.362188,
                  "lng" : 72.434327
               }
            },
            "location" : {
               "lat" : 31.6267779,
               "lng" : 72.8042797
            },
            "location_type" : "APPROXIMATE",
            "viewport" : {
               "northeast" : {
                  "lat" : 31.9762601,
                  "lng" : 73.2314816
               },
               "southwest" : {
                  "lat" : 31.362188,
                  "lng" : 72.434327
               }
            }
         },
         "place_id" : "ChIJG47iCAwxIjkR-5kVzTJAhLM",
         "types" : [ "administrative_area_level_3", "political" ]
      },
      {
         "address_components" : [
            {
               "long_name" : "Chiniot",
               "short_name" : "Chiniot",
               "types" : [ "administrative_area_level_2", "political" ]
            },
            {
               "long_name" : "Chiniot",
               "short_name" : "Chiniot",
               "types" : [ "administrative_area_level_3", "political" ]
            },
            {
               "long_name" : "Punjab",
               "short_name" : "Punjab",
               "types" : [ "administrative_area_level_1", "political" ]
            },
            {
               "long_name" : "Pakistan",
               "short_name" : "PK",
               "types" : [ "country", "political" ]
            }
         ],
         "formatted_address" : "Chiniot, Punjab, Pakistan",
         "geometry" : {
            "bounds" : {
               "northeast" : {
                  "lat" : 31.9762599,
                  "lng" : 73.23148139999999
               },
               "southwest" : {
                  "lat" : 31.362188,
                  "lng" : 72.434327
               }
            },
            "location" : {
               "lat" : 31.6267779,
               "lng" : 72.8042797
            },
            "location_type" : "APPROXIMATE",
            "viewport" : {
               "northeast" : {
                  "lat" : 31.9762599,
                  "lng" : 73.23148139999999
               },
               "southwest" : {
                  "lat" : 31.362188,
                  "lng" : 72.434327
               }
            }
         },
         "place_id" : "ChIJGY7iCAwxIjkRtMDOW4zxzuk",
         "types" : [ "administrative_area_level_2", "political" ]
      },
      {
         "address_components" : [
            {
               "long_name" : "Punjab",
               "short_name" : "Punjab",
               "types" : [ "administrative_area_level_1", "political" ]
            },
            {
               "long_name" : "Pakistan",
               "short_name" : "PK",
               "types" : [ "country", "political" ]
            }
         ],
         "formatted_address" : "Punjab, Pakistan",
         "geometry" : {
            "bounds" : {
               "northeast" : {
                  "lat" : 34.0434647,
                  "lng" : 75.3796504
               },
               "southwest" : {
                  "lat" : 27.7056256,
                  "lng" : 69.3288726
               }
            },
            "location" : {
               "lat" : 31.1704063,
               "lng" : 72.70971609999999
            },
            "location_type" : "APPROXIMATE",
            "viewport" : {
               "northeast" : {
                  "lat" : 34.0434647,
                  "lng" : 75.3796504
               },
               "southwest" : {
                  "lat" : 27.7056256,
                  "lng" : 69.3288726
               }
            }
         },
         "place_id" : "ChIJy5pBdImU3zgRoOxO0hgwnjo",
         "types" : [ "administrative_area_level_1", "political" ]
      },
      {
         "address_components" : [
            {
               "long_name" : "Pakistan",
               "short_name" : "PK",
               "types" : [ "country", "political" ]
            }
         ],
         "formatted_address" : "Pakistan",
         "geometry" : {
            "bounds" : {
               "northeast" : {
                  "lat" : 37.0841069,
                  "lng" : 77.1204247
               },
               "southwest" : {
                  "lat" : 23.6344999,
                  "lng" : 60.8729721
               }
            },
            "location" : {
               "lat" : 30.375321,
               "lng" : 69.34511599999999
            },
            "location_type" : "APPROXIMATE",
            "viewport" : {
               "northeast" : {
                  "lat" : 37.0841069,
                  "lng" : 77.1204247
               },
               "southwest" : {
                  "lat" : 23.6344999,
                  "lng" : 60.8729721
               }
            }
         },
         "place_id" : "ChIJH3X9-NJS2zgRXJIU5veht0Y",
         "types" : [ "country", "political" ]
      }
   ],
   "status" : "OK"
}
