{
   "plus_code" : {
      "compound_code" : "XFMW+22G Gedar Khadi, Pakistan",
      "global_code" : "8J3JXFMW+22G"
   },
   "results" : [
      {
         "address_components" : [
            {
               "long_name" : "XFMW+22",
               "short_name" : "XFMW+22",
               "types" : [ "plus_code" ]
            },
            {
               "long_name" : "Gedar Khadi",
               "short_name" : "Gedar Khadi",
               "types" : [ "locality", "political" ]
            },
            {
               "long_name" : "Sahiwal (Sardogha)",
               "short_name" : "Sahiwal (Sardogha)",
               "types" : [ "administrative_area_level_3", "political" ]
            },
            {
               "long_name" : "Sargodha",
               "short_name" : "Sargodha",
               "types" : [ "administrative_area_level_2", "political" ]
            },
            {
               "long_name" : "Punjab",
               "short_name" : "Punjab",
               "types" : [ "administrative_area_level_1", "political" ]
            },
            {
               "long_name" : "Pakistan",
               "short_name" : "PK",
               "types" : [ "country", "political" ]
            }
         ],
         "formatted_address" : "XFMW+22 Gedar Khadi, Pakistan",
         "geometry" : {
            "bounds" : {
               "northeast" : {
                  "lat" : 31.982625,
                  "lng" : 72.495125
               },
               "southwest" : {
                  "lat" : 31.9825,
                  "lng" : 72.49499999999999
               }
            },
            "location" : {
               "lat" : 31.9825746,
               "lng" : 72.49507810000001
            },
            "location_type" : "GEOMETRIC_CENTER",
            "viewport" : {
               "northeast" : {
                  "lat" : 31.9839114802915,
                  "lng" : 72.4964114802915
               },
               "southwest" : {
                  "lat" : 31.9812135197085,
                  "lng" : 72.49371351970849
               }
            }
         },
         "place_id" : "GhIJW-FMAor7P0AR0R0OXK8fUkA",
         "plus_code" : {
            "compound_code" : "XFMW+22 Gedar Khadi, Pakistan",
            "global_code" : "8J3JXFMW+22"
         },
         "types" : [ "plus_code" ]
      },
      {
         "address_components" : [
            {
               "long_name" : "XFMV+PXM",
               "short_name" : "XFMV+PXM",
               "types" : [ "plus_code" ]
            },
            {
               "long_name" : "Gedar Khadi",
               "short_name" : "Gedar Khadi",
               "types" : [ "locality", "political" ]
            },
            {
               "long_name" : "Sahiwal (Sardogha)",
               "short_name" : "Sahiwal (Sardogha)",
               "types" : [ "administrative_area_level_3", "political" ]
            },
            {
               "long_name" : "Sargodha",
               "short_name" : "Sargodha",
               "types" : [ "administrative_area_level_2", "political" ]
            },
            {
               "long_name" : "Punjab",
               "short_name" : "Punjab",
               "types" : [ "administrative_area_level_1", "political" ]
            },
            {
               "long_name" : "Pakistan",
               "short_name" : "PK",
               "types" : [ "country", "political" ]
            }
         ],
         "formatted_address" : "XFMV+PXM, Gedar Khadi, Sargodha, Punjab, Pakistan",
         "geometry" : {
            "bounds" : {
               "northeast" : {
                  "lat" : 31.9843572,
                  "lng" : 72.4949568
               },
               "southwest" : {
                  "lat" : 31.984281,
                  "lng" : 72.4948759
               }
            },
            "location" : {
               "lat" : 31.98431769999999,
               "lng" : 72.494918
            },
            "location_type" : "ROOFTOP",
            "viewport" : {
               "northeast" : {
                  "lat" : 31.9856680802915,
                  "lng" : 72.49626533029151
               },
               "southwest" : {
                  "lat" : 31.9829701197085,
                  "lng" : 72.49356736970849
               }
            }
         },
         "place_id" : "ChIJ6bsRDh9lITkRM9SNBUhPTeg",
         "types" : [ "premise" ]
      },
      {
         "address_components" : [
            {
               "long_name" : "XFMV+PXM",
               "short_name" : "XFMV+PXM",
               "types" : [ "plus_code" ]
            },
            {
               "long_name" : "Gedar Khadi",
               "short_name" : "Gedar Khadi",
               "types" : [ "locality", "political" ]
            },
            {
               "long_name" : "Sahiwal (Sardogha)",
               "short_name" : "Sahiwal (Sardogha)",
               "types" : [ "administrative_area_level_3", "political" ]
            },
            {
               "long_name" : "Sargodha",
               "short_name" : "Sargodha",
               "types" : [ "administrative_area_level_2", "political" ]
            },
            {
               "long_name" : "Punjab",
               "short_name" : "Punjab",
               "types" : [ "administrative_area_level_1", "political" ]
            },
            {
               "long_name" : "Pakistan",
               "short_name" : "PK",
               "types" : [ "country", "political" ]
            }
         ],
         "formatted_address" : "XFMV+PXM, Gedar Khadi, Sargodha, Punjab, Pakistan",
         "geometry" : {
            "location" : {
               "lat" : 31.9843457,
               "lng" : 72.49492339999999
            },
            "location_type" : "GEOMETRIC_CENTER",
            "viewport" : {
               "northeast" : {
                  "lat" : 31.9856946802915,
                  "lng" : 72.49627238029149
               },
               "southwest" : {
                  "lat" : 31.9829967197085,
                  "lng" : 72.49357441970848
               }
            }
         },
         "place_id" : "ChIJGzXsjpplITkRzfTZ3MUAmfg",
         "types" : [ "electronics_store", "establishment", "point_of_interest", "store" ]
      },
      {
         "address_components" : [
            {
               "long_name" : "Gedhar Khadi-Chak number 110 NB Road",
               "short_name" : "Gedhar Khadi-Chak number 110 NB Road",
               "types" : [ "route" ]
            },
            {
               "long_name" : "Chak No. 110 NB",
               "short_name" : "Chak No. 110 NB",
               "types" : [ "locality", "political" ]
            },
            {
               "long_name" : "Sahiwal (Sardogha)",
               "short_name" : "Sahiwal (Sardogha)",
               "types" : [ "administrative_area_level_3", "political" ]
            },
            {
               "long_name" : "Sargodha",
               "short_name" : "Sargodha",
               "types" : [ "administrative_area_level_2", "political" ]
            },
            {
               "long_name" : "Punjab",
               "short_name" : "Punjab",
               "types" : [ "administrative_area_level_1", "political" ]
            },
            {
               "long_name" : "Pakistan",
               "short_name" : "PK",
               "types" : [ "country", "political" ]
            }
         ],
         "formatted_address" : "Gedhar Khadi-Chak number 110 NB Road, Chak No. 110 NB, Sargodha, Punjab, Pakistan",
         "geometry" : {
            "bounds" : {
               "northeast" : {
                  "lat" : 31.9843021,
                  "lng" : 72.4950319
               },
               "southwest" : {
                  "lat" : 31.9841139,
                  "lng" : 72.4948579
               }
            },
            "location" : {
               "lat" : 31.984208,
               "lng" : 72.49494489999999
            },
            "location_type" : "GEOMETRIC_CENTER",
            "viewport" : {
               "northeast" : {
                  "lat" : 31.9855569802915,
                  "lng" : 72.4962938802915
               },
               "southwest" : {
                  "lat" : 31.9828590197085,
                  "lng" : 72.4935959197085
               }
            }
         },
         "place_id" : "ChIJuQOTDR9lITkRqo3c5XGO_jw",
         "types" : [ "route" ]
      },
      {
         "address_components" : [
            {
               "long_name" : "Gedar Khadi",
               "short_name" : "Gedar Khadi",
               "types" : [ "locality", "political" ]
            },
            {
               "long_name" : "Sahiwal (Sardogha)",
               "short_name" : "Sahiwal (Sardogha)",
               "types" : [ "administrative_area_level_3", "political" ]
            },
            {
               "long_name" : "Sargodha",
               "short_name" : "Sargodha",
               "types" : [ "administrative_area_level_2", "political" ]
            },
            {
               "long_name" : "Punjab",
               "short_name" : "Punjab",
               "types" : [ "administrative_area_level_1", "political" ]
            },
            {
               "long_name" : "Pakistan",
               "short_name" : "PK",
               "types" : [ "country", "political" ]
            }
         ],
         "formatted_address" : "Gedar Khadi, Sargodha, Punjab, Pakistan",
         "geometry" : {
            "bounds" : {
               "northeast" : {
                  "lat" : 31.9897166,
                  "lng" : 72.4987701
               },
               "southwest" : {
                  "lat" : 31.9818624,
                  "lng" : 72.48787040000001
               }
            },
            "location" : {
               "lat" : 31.9851251,
               "lng" : 72.4953398
            },
            "location_type" : "APPROXIMATE",
            "viewport" : {
               "northeast" : {
                  "lat" : 31.9897166,
                  "lng" : 72.4987701
               },
               "southwest" : {
                  "lat" : 31.9818624,
                  "lng" : 72.48787040000001
               }
            }
         },
         "place_id" : "ChIJfZ4fFQNlITkR7EPZeNarBkI",
         "types" : [ "locality", "political" ]
      },
      {
         "address_components" : [
            {
               "long_name" : "Wijh",
               "short_name" : "Wijh",
               "types" : [ "administrative_area_level_5", "political" ]
            },
            {
               "long_name" : "Sargodha",
               "short_name" : "Sargodha",
               "types" : [ "administrative_area_level_2", "political" ]
            },
            {
               "long_name" : "Punjab",
               "short_name" : "Punjab",
               "types" : [ "administrative_area_level_1", "political" ]
            },
            {
               "long_name" : "Pakistan",
               "short_name" : "PK",
               "types" : [ "country", "political" ]
            }
         ],
         "formatted_address" : "Wijh, Sargodha, Punjab, Pakistan",
         "geometry" : {
            "bounds" : {
               "northeast" : {
                  "lat" : 31.9894656,
                  "lng" : 72.56897579999999
               },
               "southwest" : {
                  "lat" : 31.9252582,
                  "lng" : 72.39936539999999
               }
            },
            "location" : {
               "lat" : 31.9617904,
               "lng" : 72.4376499
            },
            "location_type" : "APPROXIMATE",
            "viewport" : {
               "northeast" : {
                  "lat" : 31.9894656,
                  "lng" : 72.56897579999999
               },
               "southwest" : {
                  "lat" : 31.9252582,
                  "lng" : 72.39936539999999
               }
            }
         },
         "place_id" : "ChIJ5bxLTY1kITkRdndIGw78EpE",
         "types" : [ "administrative_area_level_5", "political" ]
      },
      {
         "address_components" : [
            {
               "long_name" : "Sahiwal (Sardogha)",
               "short_name" : "Sahiwal (Sardogha)",
               "types" : [ "administrative_area_level_3", "political" ]
            },
            {
               "long_name" : "Sargodha",
               "short_name" : "Sargodha",
               "types" : [ "administrative_area_level_2", "political" ]
            },
            {
               "long_name" : "Punjab",
               "short_name" : "Punjab",
               "types" : [ "administrative_area_level_1", "political" ]
            },
            {
               "long_name" : "Pakistan",
               "short_name" : "PK",
               "types" : [ "country", "political" ]
            }
         ],
         "formatted_address" : "Sahiwal (Sardogha), Sargodha, Punjab, Pakistan",
         "geometry" : {
            "bounds" : {
               "northeast" : {
                  "lat" : 32.0559859,
                  "lng" : 72.5619361
               },
               "southwest" : {
                  "lat" : 31.70946499999999,
                  "lng" : 72.21704679999999
               }
            },
            "location" : {
               "lat" : 31.8762345,
               "lng" : 72.37846789999999
            },
            "location_type" : "APPROXIMATE",
            "viewport" : {
               "northeast" : {
                  "lat" : 32.0559859,
                  "lng" : 72.5619361
               },
               "southwest" : {
                  "lat" : 31.70946499999999,
                  "lng" : 72.21704679999999
               }
            }
         },
         "place_id" : "ChIJZ2aUDwZhITkRcdXKna13vVE",
         "types" : [ "administrative_area_level_3", "political" ]
      },
      {
         "address_components" : [
            {
               "long_name" : "Sargodha",
               "short_name" : "Sargodha",
               "types" : [ "administrative_area_level_2", "political" ]
            },
            {
               "long_name" : "Punjab",
               "short_name" : "Punjab",
               "types" : [ "administrative_area_level_1", "political" ]
            },
            {
               "long_name" : "Pakistan",
               "short_name" : "PK",
               "types" : [ "country", "political" ]
            }
         ],
         "formatted_address" : "Sargodha, Punjab, Pakistan",
         "geometry" : {
            "bounds" : {
               "northeast" : {
                  "lat" : 32.5712785,
                  "lng" : 73.31019239999999
               },
               "southwest" : {
                  "lat" : 31.5566249,
                  "lng" : 72.21704679999999
               }
            },
            "location" : {
               "lat" : 32.156592,
               "lng" : 72.8042797
            },
            "location_type" : "APPROXIMATE",
            "viewport" : {
               "northeast" : {
                  "lat" : 32.5712785,
                  "lng" : 73.31019239999999
               },
               "southwest" : {
                  "lat" : 31.5566249,
                  "lng" : 72.21704679999999
               }
            }
         },
         "place_id" : "ChIJ0S6JJZadITkRmlmemFkTNjk",
         "types" : [ "administrative_area_level_2", "political" ]
      },
      {
         "address_components" : [
            {
               "long_name" : "Punjab",
               "short_name" : "Punjab",
               "types" : [ "administrative_area_level_1", "political" ]
            },
            {
               "long_name" : "Pakistan",
               "short_name" : "PK",
               "types" : [ "country", "political" ]
            }
         ],
         "formatted_address" : "Punjab, Pakistan",
         "geometry" : {
            "bounds" : {
               "northeast" : {
                  "lat" : 34.0434647,
                  "lng" : 75.3796504
               },
               "southwest" : {
                  "lat" : 27.7056256,
                  "lng" : 69.3288726
               }
            },
            "location" : {
               "lat" : 31.1704063,
               "lng" : 72.70971609999999
            },
            "location_type" : "APPROXIMATE",
            "viewport" : {
               "northeast" : {
                  "lat" : 34.0434647,
                  "lng" : 75.3796504
               },
               "southwest" : {
                  "lat" : 27.7056256,
                  "lng" : 69.3288726
               }
            }
         },
         "place_id" : "ChIJy5pBdImU3zgRoOxO0hgwnjo",
         "types" : [ "administrative_area_level_1", "political" ]
      },
      {
         "address_components" : [
            {
               "long_name" : "Pakistan",
               "short_name" : "PK",
               "types" : [ "country", "political" ]
            }
         ],
         "formatted_address" : "Pakistan",
         "geometry" : {
            "bounds" : {
               "northeast" : {
                  "lat" : 37.0841069,
                  "lng" : 77.1204247
               },
               "southwest" : {
                  "lat" : 23.6344999,
                  "lng" : 60.8729721
               }
            },
            "location" : {
               "lat" : 30.375321,
               "lng" : 69.34511599999999
            },
            "location_type" : "APPROXIMATE",
            "viewport" : {
               "northeast" : {
                  "lat" : 37.0841069,
                  "lng" : 77.1204247
               },
               "southwest" : {
                  "lat" : 23.6344999,
                  "lng" : 60.8729721
               }
            }
         },
         "place_id" : "ChIJH3X9-NJS2zgRXJIU5veht0Y",
         "types" : [ "country", "political" ]
      }
   ],
   "status" : "OK"
}
