{
   "plus_code" : {
      "compound_code" : "297W+22G Kudlathi Ara, Pakistan",
      "global_code" : "8J4J297W+22G"
   },
   "results" : [
      {
         "address_components" : [
            {
               "long_name" : "297W+22",
               "short_name" : "297W+22",
               "types" : [ "plus_code" ]
            },
            {
               "long_name" : "Kudlathi Ara",
               "short_name" : "Kudlathi Ara",
               "types" : [ "locality", "political" ]
            },
            {
               "long_name" : "Sahiwal (Sardogha)",
               "short_name" : "Sahiwal (Sardogha)",
               "types" : [ "administrative_area_level_3", "political" ]
            },
            {
               "long_name" : "Sargodha",
               "short_name" : "Sargodha",
               "types" : [ "administrative_area_level_2", "political" ]
            },
            {
               "long_name" : "Punjab",
               "short_name" : "Punjab",
               "types" : [ "administrative_area_level_1", "political" ]
            },
            {
               "long_name" : "Pakistan",
               "short_name" : "PK",
               "types" : [ "country", "political" ]
            }
         ],
         "formatted_address" : "297W+22 Kudlathi Ara, Pakistan",
         "geometry" : {
            "bounds" : {
               "northeast" : {
                  "lat" : 32.012625,
                  "lng" : 72.39512499999999
               },
               "southwest" : {
                  "lat" : 32.0125,
                  "lng" : 72.395
               }
            },
            "location" : {
               "lat" : 32.0125746,
               "lng" : 72.39507809999999
            },
            "location_type" : "GEOMETRIC_CENTER",
            "viewport" : {
               "northeast" : {
                  "lat" : 32.0139114802915,
                  "lng" : 72.3964114802915
               },
               "southwest" : {
                  "lat" : 32.0112135197085,
                  "lng" : 72.3937135197085
               }
            }
         },
         "place_id" : "GhIJUeFjC5wBQEARaben9UgZUkA",
         "plus_code" : {
            "compound_code" : "297W+22 Kudlathi Ara, Pakistan",
            "global_code" : "8J4J297W+22"
         },
         "types" : [ "plus_code" ]
      },
      {
         "address_components" : [
            {
               "long_name" : "297W+M24",
               "short_name" : "297W+M24",
               "types" : [ "plus_code" ]
            },
            {
               "long_name" : "Radhan",
               "short_name" : "Radhan",
               "types" : [ "locality", "political" ]
            },
            {
               "long_name" : "Sahiwal (Sardogha)",
               "short_name" : "Sahiwal (Sardogha)",
               "types" : [ "administrative_area_level_3", "political" ]
            },
            {
               "long_name" : "Sargodha",
               "short_name" : "Sargodha",
               "types" : [ "administrative_area_level_2", "political" ]
            },
            {
               "long_name" : "Punjab",
               "short_name" : "Punjab",
               "types" : [ "administrative_area_level_1", "political" ]
            },
            {
               "long_name" : "Pakistan",
               "short_name" : "PK",
               "types" : [ "country", "political" ]
            }
         ],
         "formatted_address" : "297W+M24, Radhan, Sargodha, Punjab, Pakistan",
         "geometry" : {
            "bounds" : {
               "northeast" : {
                  "lat" : 32.0141602,
                  "lng" : 72.39510829999999
               },
               "southwest" : {
                  "lat" : 32.0140697,
                  "lng" : 72.39500699999999
               }
            },
            "location" : {
               "lat" : 32.0141131,
               "lng" : 72.3950564
            },
            "location_type" : "ROOFTOP",
            "viewport" : {
               "northeast" : {
                  "lat" : 32.0154639302915,
                  "lng" : 72.39640663029149
               },
               "southwest" : {
                  "lat" : 32.0127659697085,
                  "lng" : 72.39370866970847
               }
            }
         },
         "place_id" : "ChIJw1M6N5xoITkRR1DImiCt500",
         "types" : [ "premise" ]
      },
      {
         "address_components" : [
            {
               "long_name" : "297V+47C",
               "short_name" : "297V+47C",
               "types" : [ "plus_code" ]
            },
            {
               "long_name" : "Kudlathi Ara",
               "short_name" : "Kudlathi Ara",
               "types" : [ "locality", "political" ]
            },
            {
               "long_name" : "Sahiwal (Sardogha)",
               "short_name" : "Sahiwal (Sardogha)",
               "types" : [ "administrative_area_level_3", "political" ]
            },
            {
               "long_name" : "Sargodha",
               "short_name" : "Sargodha",
               "types" : [ "administrative_area_level_2", "political" ]
            },
            {
               "long_name" : "Punjab",
               "short_name" : "Punjab",
               "types" : [ "administrative_area_level_1", "political" ]
            },
            {
               "long_name" : "Pakistan",
               "short_name" : "PK",
               "types" : [ "country", "political" ]
            }
         ],
         "formatted_address" : "297V+47C, Kudlathi Ara, Sargodha, Punjab, Pakistan",
         "geometry" : {
            "location" : {
               "lat" : 32.0128217,
               "lng" : 72.3931274
            },
            "location_type" : "GEOMETRIC_CENTER",
            "viewport" : {
               "northeast" : {
                  "lat" : 32.01417068029149,
                  "lng" : 72.39447638029151
               },
               "southwest" : {
                  "lat" : 32.01147271970849,
                  "lng" : 72.3917784197085
               }
            }
         },
         "place_id" : "ChIJK9-OHNlpITkRYMhKNErCXq8",
         "types" : [ "establishment", "point_of_interest" ]
      },
      {
         "address_components" : [
            {
               "long_name" : "Unnamed Road",
               "short_name" : "Unnamed Road",
               "types" : [ "route" ]
            },
            {
               "long_name" : "Kudlathi Ara",
               "short_name" : "Kudlathi Ara",
               "types" : [ "locality", "political" ]
            },
            {
               "long_name" : "Sahiwal (Sardogha)",
               "short_name" : "Sahiwal (Sardogha)",
               "types" : [ "administrative_area_level_3", "political" ]
            },
            {
               "long_name" : "Sargodha",
               "short_name" : "Sargodha",
               "types" : [ "administrative_area_level_2", "political" ]
            },
            {
               "long_name" : "Punjab",
               "short_name" : "Punjab",
               "types" : [ "administrative_area_level_1", "political" ]
            },
            {
               "long_name" : "Pakistan",
               "short_name" : "PK",
               "types" : [ "country", "political" ]
            }
         ],
         "formatted_address" : "Unnamed Road, Kudlathi Ara, Sargodha, Punjab, Pakistan",
         "geometry" : {
            "bounds" : {
               "northeast" : {
                  "lat" : 32.0128692,
                  "lng" : 72.3950272
               },
               "southwest" : {
                  "lat" : 32.0124744,
                  "lng" : 72.39470439999999
               }
            },
            "location" : {
               "lat" : 32.0126718,
               "lng" : 72.39486579999999
            },
            "location_type" : "GEOMETRIC_CENTER",
            "viewport" : {
               "northeast" : {
                  "lat" : 32.0140207802915,
                  "lng" : 72.3962147802915
               },
               "southwest" : {
                  "lat" : 32.0113228197085,
                  "lng" : 72.39351681970849
               }
            }
         },
         "place_id" : "ChIJW-Oox51oITkR6kMVmoBKG7Q",
         "types" : [ "route" ]
      },
      {
         "address_components" : [
            {
               "long_name" : "Radhan",
               "short_name" : "Radhan",
               "types" : [ "administrative_area_level_5", "political" ]
            },
            {
               "long_name" : "Sahiwal (Sardogha)",
               "short_name" : "Sahiwal (Sardogha)",
               "types" : [ "administrative_area_level_3", "political" ]
            },
            {
               "long_name" : "Sargodha",
               "short_name" : "Sargodha",
               "types" : [ "administrative_area_level_2", "political" ]
            },
            {
               "long_name" : "Punjab",
               "short_name" : "Punjab",
               "types" : [ "administrative_area_level_1", "political" ]
            },
            {
               "long_name" : "Pakistan",
               "short_name" : "PK",
               "types" : [ "country", "political" ]
            }
         ],
         "formatted_address" : "Radhan, Sargodha, Punjab, Pakistan",
         "geometry" : {
            "bounds" : {
               "northeast" : {
                  "lat" : 32.0196252,
                  "lng" : 72.4406321
               },
               "southwest" : {
                  "lat" : 31.8898653,
                  "lng" : 72.3343218
               }
            },
            "location" : {
               "lat" : 31.9109829,
               "lng" : 72.39030529999999
            },
            "location_type" : "APPROXIMATE",
            "viewport" : {
               "northeast" : {
                  "lat" : 32.0196252,
                  "lng" : 72.4406321
               },
               "southwest" : {
                  "lat" : 31.8898653,
                  "lng" : 72.3343218
               }
            }
         },
         "place_id" : "ChIJY6cX1fpmITkRxoHjyFc4e7s",
         "types" : [ "administrative_area_level_5", "political" ]
      },
      {
         "address_components" : [
            {
               "long_name" : "Sahiwal (Sardogha)",
               "short_name" : "Sahiwal (Sardogha)",
               "types" : [ "administrative_area_level_3", "political" ]
            },
            {
               "long_name" : "Sargodha",
               "short_name" : "Sargodha",
               "types" : [ "administrative_area_level_2", "political" ]
            },
            {
               "long_name" : "Punjab",
               "short_name" : "Punjab",
               "types" : [ "administrative_area_level_1", "political" ]
            },
            {
               "long_name" : "Pakistan",
               "short_name" : "PK",
               "types" : [ "country", "political" ]
            }
         ],
         "formatted_address" : "Sahiwal (Sardogha), Sargodha, Punjab, Pakistan",
         "geometry" : {
            "bounds" : {
               "northeast" : {
                  "lat" : 32.0559859,
                  "lng" : 72.5619361
               },
               "southwest" : {
                  "lat" : 31.70946499999999,
                  "lng" : 72.21704679999999
               }
            },
            "location" : {
               "lat" : 31.8762345,
               "lng" : 72.37846789999999
            },
            "location_type" : "APPROXIMATE",
            "viewport" : {
               "northeast" : {
                  "lat" : 32.0559859,
                  "lng" : 72.5619361
               },
               "southwest" : {
                  "lat" : 31.70946499999999,
                  "lng" : 72.21704679999999
               }
            }
         },
         "place_id" : "ChIJZ2aUDwZhITkRcdXKna13vVE",
         "types" : [ "administrative_area_level_3", "political" ]
      },
      {
         "address_components" : [
            {
               "long_name" : "Sargodha",
               "short_name" : "Sargodha",
               "types" : [ "administrative_area_level_2", "political" ]
            },
            {
               "long_name" : "Punjab",
               "short_name" : "Punjab",
               "types" : [ "administrative_area_level_1", "political" ]
            },
            {
               "long_name" : "Pakistan",
               "short_name" : "PK",
               "types" : [ "country", "political" ]
            }
         ],
         "formatted_address" : "Sargodha, Punjab, Pakistan",
         "geometry" : {
            "bounds" : {
               "northeast" : {
                  "lat" : 32.5712785,
                  "lng" : 73.31019239999999
               },
               "southwest" : {
                  "lat" : 31.5566249,
                  "lng" : 72.21704679999999
               }
            },
            "location" : {
               "lat" : 32.156592,
               "lng" : 72.8042797
            },
            "location_type" : "APPROXIMATE",
            "viewport" : {
               "northeast" : {
                  "lat" : 32.5712785,
                  "lng" : 73.31019239999999
               },
               "southwest" : {
                  "lat" : 31.5566249,
                  "lng" : 72.21704679999999
               }
            }
         },
         "place_id" : "ChIJ0S6JJZadITkRmlmemFkTNjk",
         "types" : [ "administrative_area_level_2", "political" ]
      },
      {
         "address_components" : [
            {
               "long_name" : "Punjab",
               "short_name" : "Punjab",
               "types" : [ "administrative_area_level_1", "political" ]
            },
            {
               "long_name" : "Pakistan",
               "short_name" : "PK",
               "types" : [ "country", "political" ]
            }
         ],
         "formatted_address" : "Punjab, Pakistan",
         "geometry" : {
            "bounds" : {
               "northeast" : {
                  "lat" : 34.0434647,
                  "lng" : 75.3796504
               },
               "southwest" : {
                  "lat" : 27.7056256,
                  "lng" : 69.3288726
               }
            },
            "location" : {
               "lat" : 31.1704063,
               "lng" : 72.70971609999999
            },
            "location_type" : "APPROXIMATE",
            "viewport" : {
               "northeast" : {
                  "lat" : 34.0434647,
                  "lng" : 75.3796504
               },
               "southwest" : {
                  "lat" : 27.7056256,
                  "lng" : 69.3288726
               }
            }
         },
         "place_id" : "ChIJy5pBdImU3zgRoOxO0hgwnjo",
         "types" : [ "administrative_area_level_1", "political" ]
      },
      {
         "address_components" : [
            {
               "long_name" : "Pakistan",
               "short_name" : "PK",
               "types" : [ "country", "political" ]
            }
         ],
         "formatted_address" : "Pakistan",
         "geometry" : {
            "bounds" : {
               "northeast" : {
                  "lat" : 37.0841069,
                  "lng" : 77.1204247
               },
               "southwest" : {
                  "lat" : 23.6344999,
                  "lng" : 60.8729721
               }
            },
            "location" : {
               "lat" : 30.375321,
               "lng" : 69.34511599999999
            },
            "location_type" : "APPROXIMATE",
            "viewport" : {
               "northeast" : {
                  "lat" : 37.0841069,
                  "lng" : 77.1204247
               },
               "southwest" : {
                  "lat" : 23.6344999,
                  "lng" : 60.8729721
               }
            }
         },
         "place_id" : "ChIJH3X9-NJS2zgRXJIU5veht0Y",
         "types" : [ "country", "political" ]
      }
   ],
   "status" : "OK"
}
