{
   "plus_code" : {
      "compound_code" : "2C7P+22G Radhan, Pakistan",
      "global_code" : "8J4J2C7P+22G"
   },
   "results" : [
      {
         "address_components" : [
            {
               "long_name" : "2C7P+22",
               "short_name" : "2C7P+22",
               "types" : [ "plus_code" ]
            },
            {
               "long_name" : "Radhan",
               "short_name" : "Radhan",
               "types" : [ "locality", "political" ]
            },
            {
               "long_name" : "Shahpur",
               "short_name" : "Shahpur",
               "types" : [ "administrative_area_level_3", "political" ]
            },
            {
               "long_name" : "Sargodha",
               "short_name" : "Sargodha",
               "types" : [ "administrative_area_level_2", "political" ]
            },
            {
               "long_name" : "Punjab",
               "short_name" : "Punjab",
               "types" : [ "administrative_area_level_1", "political" ]
            },
            {
               "long_name" : "Pakistan",
               "short_name" : "PK",
               "types" : [ "country", "political" ]
            }
         ],
         "formatted_address" : "2C7P+22 Radhan, Pakistan",
         "geometry" : {
            "bounds" : {
               "northeast" : {
                  "lat" : 32.012625,
                  "lng" : 72.435125
               },
               "southwest" : {
                  "lat" : 32.0125,
                  "lng" : 72.435
               }
            },
            "location" : {
               "lat" : 32.0125746,
               "lng" : 72.4350781
            },
            "location_type" : "GEOMETRIC_CENTER",
            "viewport" : {
               "northeast" : {
                  "lat" : 32.0139114802915,
                  "lng" : 72.43641148029151
               },
               "southwest" : {
                  "lat" : 32.0112135197085,
                  "lng" : 72.4337135197085
               }
            }
         },
         "place_id" : "GhIJUeFjC5wBQEARLK3QUdgbUkA",
         "plus_code" : {
            "compound_code" : "2C7P+22 Radhan, Pakistan",
            "global_code" : "8J4J2C7P+22"
         },
         "types" : [ "plus_code" ]
      },
      {
         "address_components" : [
            {
               "long_name" : "Faruka Radhan Road",
               "short_name" : "Faruka Radhan Rd",
               "types" : [ "route" ]
            },
            {
               "long_name" : "Shahpur",
               "short_name" : "Shahpur",
               "types" : [ "administrative_area_level_3", "political" ]
            },
            {
               "long_name" : "Sargodha",
               "short_name" : "Sargodha",
               "types" : [ "administrative_area_level_2", "political" ]
            },
            {
               "long_name" : "Punjab",
               "short_name" : "Punjab",
               "types" : [ "administrative_area_level_1", "political" ]
            },
            {
               "long_name" : "Pakistan",
               "short_name" : "PK",
               "types" : [ "country", "political" ]
            }
         ],
         "formatted_address" : "Faruka Radhan Rd, Sargodha, Punjab, Pakistan",
         "geometry" : {
            "bounds" : {
               "northeast" : {
                  "lat" : 32.0137834,
                  "lng" : 72.43393689999999
               },
               "southwest" : {
                  "lat" : 32.0109364,
                  "lng" : 72.43206640000001
               }
            },
            "location" : {
               "lat" : 32.0125162,
               "lng" : 72.43266679999999
            },
            "location_type" : "GEOMETRIC_CENTER",
            "viewport" : {
               "northeast" : {
                  "lat" : 32.0137834,
                  "lng" : 72.4343506302915
               },
               "southwest" : {
                  "lat" : 32.0109364,
                  "lng" : 72.4316526697085
               }
            }
         },
         "place_id" : "ChIJ50pQAvllITkRbNPx8E3AZA4",
         "types" : [ "route" ]
      },
      {
         "address_components" : [
            {
               "long_name" : "Gondal",
               "short_name" : "Gondal",
               "types" : [ "administrative_area_level_5", "political" ]
            },
            {
               "long_name" : "Sargodha",
               "short_name" : "Sargodha",
               "types" : [ "administrative_area_level_2", "political" ]
            },
            {
               "long_name" : "Punjab",
               "short_name" : "Punjab",
               "types" : [ "administrative_area_level_1", "political" ]
            },
            {
               "long_name" : "Pakistan",
               "short_name" : "PK",
               "types" : [ "country", "political" ]
            }
         ],
         "formatted_address" : "Gondal, Sargodha, Punjab, Pakistan",
         "geometry" : {
            "bounds" : {
               "northeast" : {
                  "lat" : 32.0955275,
                  "lng" : 72.5015358
               },
               "southwest" : {
                  "lat" : 31.9760684,
                  "lng" : 72.40902919999999
               }
            },
            "location" : {
               "lat" : 32.0312344,
               "lng" : 72.4613191
            },
            "location_type" : "APPROXIMATE",
            "viewport" : {
               "northeast" : {
                  "lat" : 32.0955275,
                  "lng" : 72.5015358
               },
               "southwest" : {
                  "lat" : 31.9760684,
                  "lng" : 72.40902919999999
               }
            }
         },
         "place_id" : "ChIJkbBsVWlvITkRU_Lj4SfhIIE",
         "types" : [ "administrative_area_level_5", "political" ]
      },
      {
         "address_components" : [
            {
               "long_name" : "Shahpur",
               "short_name" : "Shahpur",
               "types" : [ "administrative_area_level_3", "political" ]
            },
            {
               "long_name" : "Sargodha",
               "short_name" : "Sargodha",
               "types" : [ "administrative_area_level_2", "political" ]
            },
            {
               "long_name" : "Punjab",
               "short_name" : "Punjab",
               "types" : [ "administrative_area_level_1", "political" ]
            },
            {
               "long_name" : "Pakistan",
               "short_name" : "PK",
               "types" : [ "country", "political" ]
            }
         ],
         "formatted_address" : "Shahpur, Sargodha, Punjab, Pakistan",
         "geometry" : {
            "bounds" : {
               "northeast" : {
                  "lat" : 32.398447,
                  "lng" : 72.732675
               },
               "southwest" : {
                  "lat" : 32.002398,
                  "lng" : 72.325019
               }
            },
            "location" : {
               "lat" : 32.2553728,
               "lng" : 72.5678041
            },
            "location_type" : "APPROXIMATE",
            "viewport" : {
               "northeast" : {
                  "lat" : 32.398447,
                  "lng" : 72.732675
               },
               "southwest" : {
                  "lat" : 32.002398,
                  "lng" : 72.325019
               }
            }
         },
         "place_id" : "ChIJrYvPKaxyITkRdgBDrQkvuUY",
         "types" : [ "administrative_area_level_3", "political" ]
      },
      {
         "address_components" : [
            {
               "long_name" : "Sargodha",
               "short_name" : "Sargodha",
               "types" : [ "administrative_area_level_2", "political" ]
            },
            {
               "long_name" : "Punjab",
               "short_name" : "Punjab",
               "types" : [ "administrative_area_level_1", "political" ]
            },
            {
               "long_name" : "Pakistan",
               "short_name" : "PK",
               "types" : [ "country", "political" ]
            }
         ],
         "formatted_address" : "Sargodha, Punjab, Pakistan",
         "geometry" : {
            "bounds" : {
               "northeast" : {
                  "lat" : 32.5712785,
                  "lng" : 73.31019239999999
               },
               "southwest" : {
                  "lat" : 31.5566249,
                  "lng" : 72.21704679999999
               }
            },
            "location" : {
               "lat" : 32.156592,
               "lng" : 72.8042797
            },
            "location_type" : "APPROXIMATE",
            "viewport" : {
               "northeast" : {
                  "lat" : 32.5712785,
                  "lng" : 73.31019239999999
               },
               "southwest" : {
                  "lat" : 31.5566249,
                  "lng" : 72.21704679999999
               }
            }
         },
         "place_id" : "ChIJ0S6JJZadITkRmlmemFkTNjk",
         "types" : [ "administrative_area_level_2", "political" ]
      },
      {
         "address_components" : [
            {
               "long_name" : "Punjab",
               "short_name" : "Punjab",
               "types" : [ "administrative_area_level_1", "political" ]
            },
            {
               "long_name" : "Pakistan",
               "short_name" : "PK",
               "types" : [ "country", "political" ]
            }
         ],
         "formatted_address" : "Punjab, Pakistan",
         "geometry" : {
            "bounds" : {
               "northeast" : {
                  "lat" : 34.0434647,
                  "lng" : 75.3796504
               },
               "southwest" : {
                  "lat" : 27.7056256,
                  "lng" : 69.3288726
               }
            },
            "location" : {
               "lat" : 31.1704063,
               "lng" : 72.70971609999999
            },
            "location_type" : "APPROXIMATE",
            "viewport" : {
               "northeast" : {
                  "lat" : 34.0434647,
                  "lng" : 75.3796504
               },
               "southwest" : {
                  "lat" : 27.7056256,
                  "lng" : 69.3288726
               }
            }
         },
         "place_id" : "ChIJy5pBdImU3zgRoOxO0hgwnjo",
         "types" : [ "administrative_area_level_1", "political" ]
      },
      {
         "address_components" : [
            {
               "long_name" : "Pakistan",
               "short_name" : "PK",
               "types" : [ "country", "political" ]
            }
         ],
         "formatted_address" : "Pakistan",
         "geometry" : {
            "bounds" : {
               "northeast" : {
                  "lat" : 37.0841069,
                  "lng" : 77.1204247
               },
               "southwest" : {
                  "lat" : 23.6344999,
                  "lng" : 60.8729721
               }
            },
            "location" : {
               "lat" : 30.375321,
               "lng" : 69.34511599999999
            },
            "location_type" : "APPROXIMATE",
            "viewport" : {
               "northeast" : {
                  "lat" : 37.0841069,
                  "lng" : 77.1204247
               },
               "southwest" : {
                  "lat" : 23.6344999,
                  "lng" : 60.8729721
               }
            }
         },
         "place_id" : "ChIJH3X9-NJS2zgRXJIU5veht0Y",
         "types" : [ "country", "political" ]
      }
   ],
   "status" : "OK"
}
