{
   "plus_code" : {
      "compound_code" : "W5F4+22G Aeno, Pakistan",
      "global_code" : "8J3JW5F4+22G"
   },
   "results" : [
      {
         "address_components" : [
            {
               "long_name" : "W5F4+22",
               "short_name" : "W5F4+22",
               "types" : [ "plus_code" ]
            },
            {
               "long_name" : "Aeno",
               "short_name" : "Aeno",
               "types" : [ "locality", "political" ]
            },
            {
               "long_name" : "Nurpur",
               "short_name" : "Nurpur",
               "types" : [ "administrative_area_level_3", "political" ]
            },
            {
               "long_name" : "Khushab",
               "short_name" : "Khushab",
               "types" : [ "administrative_area_level_2", "political" ]
            },
            {
               "long_name" : "Punjab",
               "short_name" : "Punjab",
               "types" : [ "administrative_area_level_1", "political" ]
            },
            {
               "long_name" : "Pakistan",
               "short_name" : "PK",
               "types" : [ "country", "political" ]
            }
         ],
         "formatted_address" : "W5F4+22 Aeno, Pakistan",
         "geometry" : {
            "bounds" : {
               "northeast" : {
                  "lat" : 31.922625,
                  "lng" : 72.155125
               },
               "southwest" : {
                  "lat" : 31.9225,
                  "lng" : 72.155
               }
            },
            "location" : {
               "lat" : 31.9225746,
               "lng" : 72.1550781
            },
            "location_type" : "GEOMETRIC_CENTER",
            "viewport" : {
               "northeast" : {
                  "lat" : 31.9239114802915,
                  "lng" : 72.1564114802915
               },
               "southwest" : {
                  "lat" : 31.92121351970851,
                  "lng" : 72.15371351970849
               }
            }
         },
         "place_id" : "GhIJyh5X2S3sP0AR2vSxzOwJUkA",
         "plus_code" : {
            "compound_code" : "W5F4+22 Aeno, Pakistan",
            "global_code" : "8J3JW5F4+22"
         },
         "types" : [ "plus_code" ]
      },
      {
         "address_components" : [
            {
               "long_name" : "Unnamed Road",
               "short_name" : "Unnamed Road",
               "types" : [ "route" ]
            },
            {
               "long_name" : "Nurpur",
               "short_name" : "Nurpur",
               "types" : [ "administrative_area_level_3", "political" ]
            },
            {
               "long_name" : "Khushab",
               "short_name" : "Khushab",
               "types" : [ "administrative_area_level_2", "political" ]
            },
            {
               "long_name" : "Punjab",
               "short_name" : "Punjab",
               "types" : [ "administrative_area_level_1", "political" ]
            },
            {
               "long_name" : "Pakistan",
               "short_name" : "PK",
               "types" : [ "country", "political" ]
            }
         ],
         "formatted_address" : "Unnamed Road, Khushab, Punjab, Pakistan",
         "geometry" : {
            "bounds" : {
               "northeast" : {
                  "lat" : 31.9198838,
                  "lng" : 72.15293989999999
               },
               "southwest" : {
                  "lat" : 31.91982879999999,
                  "lng" : 72.15151179999999
               }
            },
            "location" : {
               "lat" : 31.9198563,
               "lng" : 72.15222589999999
            },
            "location_type" : "GEOMETRIC_CENTER",
            "viewport" : {
               "northeast" : {
                  "lat" : 31.9212052802915,
                  "lng" : 72.1535748302915
               },
               "southwest" : {
                  "lat" : 31.9185073197085,
                  "lng" : 72.15087686970848
               }
            }
         },
         "place_id" : "ChIJ8ceJE3BaITkRAGZyCjx4IVU",
         "types" : [ "route" ]
      },
      {
         "address_components" : [
            {
               "long_name" : "Jamali",
               "short_name" : "Jamali",
               "types" : [ "administrative_area_level_5", "political" ]
            },
            {
               "long_name" : "Nurpur",
               "short_name" : "Nurpur",
               "types" : [ "administrative_area_level_3", "political" ]
            },
            {
               "long_name" : "Khushab",
               "short_name" : "Khushab",
               "types" : [ "administrative_area_level_2", "political" ]
            },
            {
               "long_name" : "Punjab",
               "short_name" : "Punjab",
               "types" : [ "administrative_area_level_1", "political" ]
            },
            {
               "long_name" : "Pakistan",
               "short_name" : "PK",
               "types" : [ "country", "political" ]
            }
         ],
         "formatted_address" : "Jamali, Khushab, Punjab, Pakistan",
         "geometry" : {
            "bounds" : {
               "northeast" : {
                  "lat" : 31.9961469,
                  "lng" : 72.1823222
               },
               "southwest" : {
                  "lat" : 31.7915176,
                  "lng" : 71.9545404
               }
            },
            "location" : {
               "lat" : 31.8980415,
               "lng" : 72.07051849999999
            },
            "location_type" : "APPROXIMATE",
            "viewport" : {
               "northeast" : {
                  "lat" : 31.9961469,
                  "lng" : 72.1823222
               },
               "southwest" : {
                  "lat" : 31.7915176,
                  "lng" : 71.9545404
               }
            }
         },
         "place_id" : "ChIJ5ZPv6EBRITkR9ymLWO13foM",
         "types" : [ "administrative_area_level_5", "political" ]
      },
      {
         "address_components" : [
            {
               "long_name" : "Nurpur",
               "short_name" : "Nurpur",
               "types" : [ "administrative_area_level_3", "political" ]
            },
            {
               "long_name" : "Khushab",
               "short_name" : "Khushab",
               "types" : [ "administrative_area_level_2", "political" ]
            },
            {
               "long_name" : "Punjab",
               "short_name" : "Punjab",
               "types" : [ "administrative_area_level_1", "political" ]
            },
            {
               "long_name" : "Pakistan",
               "short_name" : "PK",
               "types" : [ "country", "political" ]
            }
         ],
         "formatted_address" : "Nurpur, Khushab, Punjab, Pakistan",
         "geometry" : {
            "bounds" : {
               "northeast" : {
                  "lat" : 32.2134421,
                  "lng" : 72.28814199999999
               },
               "southwest" : {
                  "lat" : 31.5302101,
                  "lng" : 71.62501139999999
               }
            },
            "location" : {
               "lat" : 31.84487399999999,
               "lng" : 71.8571331
            },
            "location_type" : "APPROXIMATE",
            "viewport" : {
               "northeast" : {
                  "lat" : 32.2134421,
                  "lng" : 72.28814199999999
               },
               "southwest" : {
                  "lat" : 31.5302101,
                  "lng" : 71.62501139999999
               }
            }
         },
         "place_id" : "ChIJG3IowE1TITkRolpo_M8cxgo",
         "types" : [ "administrative_area_level_3", "political" ]
      },
      {
         "address_components" : [
            {
               "long_name" : "Khushab",
               "short_name" : "Khushab",
               "types" : [ "administrative_area_level_2", "political" ]
            },
            {
               "long_name" : "Punjab",
               "short_name" : "Punjab",
               "types" : [ "administrative_area_level_1", "political" ]
            },
            {
               "long_name" : "Pakistan",
               "short_name" : "PK",
               "types" : [ "country", "political" ]
            }
         ],
         "formatted_address" : "Khushab, Punjab, Pakistan",
         "geometry" : {
            "bounds" : {
               "northeast" : {
                  "lat" : 32.7130681,
                  "lng" : 72.6641959
               },
               "southwest" : {
                  "lat" : 31.5302101,
                  "lng" : 71.62501139999999
               }
            },
            "location" : {
               "lat" : 32.3259122,
               "lng" : 72.14161319999999
            },
            "location_type" : "APPROXIMATE",
            "viewport" : {
               "northeast" : {
                  "lat" : 32.7130681,
                  "lng" : 72.6641959
               },
               "southwest" : {
                  "lat" : 31.5302101,
                  "lng" : 71.62501139999999
               }
            }
         },
         "place_id" : "ChIJLxN-009IITkRkCg_bdeC5GU",
         "types" : [ "administrative_area_level_2", "political" ]
      },
      {
         "address_components" : [
            {
               "long_name" : "Punjab",
               "short_name" : "Punjab",
               "types" : [ "administrative_area_level_1", "political" ]
            },
            {
               "long_name" : "Pakistan",
               "short_name" : "PK",
               "types" : [ "country", "political" ]
            }
         ],
         "formatted_address" : "Punjab, Pakistan",
         "geometry" : {
            "bounds" : {
               "northeast" : {
                  "lat" : 34.0434647,
                  "lng" : 75.3796504
               },
               "southwest" : {
                  "lat" : 27.7056256,
                  "lng" : 69.3288726
               }
            },
            "location" : {
               "lat" : 31.1704063,
               "lng" : 72.70971609999999
            },
            "location_type" : "APPROXIMATE",
            "viewport" : {
               "northeast" : {
                  "lat" : 34.0434647,
                  "lng" : 75.3796504
               },
               "southwest" : {
                  "lat" : 27.7056256,
                  "lng" : 69.3288726
               }
            }
         },
         "place_id" : "ChIJy5pBdImU3zgRoOxO0hgwnjo",
         "types" : [ "administrative_area_level_1", "political" ]
      },
      {
         "address_components" : [
            {
               "long_name" : "Pakistan",
               "short_name" : "PK",
               "types" : [ "country", "political" ]
            }
         ],
         "formatted_address" : "Pakistan",
         "geometry" : {
            "bounds" : {
               "northeast" : {
                  "lat" : 37.0841069,
                  "lng" : 77.1204247
               },
               "southwest" : {
                  "lat" : 23.6344999,
                  "lng" : 60.8729721
               }
            },
            "location" : {
               "lat" : 30.375321,
               "lng" : 69.34511599999999
            },
            "location_type" : "APPROXIMATE",
            "viewport" : {
               "northeast" : {
                  "lat" : 37.0841069,
                  "lng" : 77.1204247
               },
               "southwest" : {
                  "lat" : 23.6344999,
                  "lng" : 60.8729721
               }
            }
         },
         "place_id" : "ChIJH3X9-NJS2zgRXJIU5veht0Y",
         "types" : [ "country", "political" ]
      }
   ],
   "status" : "OK"
}
