{
   "plus_code" : {
      "compound_code" : "G92H+VX3 Lahore, Pakistan",
      "global_code" : "8J3PG92H+VX3"
   },
   "results" : [
      {
         "address_components" : [
            {
               "long_name" : "G92H+VX",
               "short_name" : "G92H+VX",
               "types" : [ "plus_code" ]
            },
            {
               "long_name" : "Lahore",
               "short_name" : "Lahore",
               "types" : [ "locality", "political" ]
            },
            {
               "long_name" : "Lahore",
               "short_name" : "Lahore",
               "types" : [ "administrative_area_level_2", "political" ]
            },
            {
               "long_name" : "Punjab",
               "short_name" : "Punjab",
               "types" : [ "administrative_area_level_1", "political" ]
            },
            {
               "long_name" : "Pakistan",
               "short_name" : "PK",
               "types" : [ "country", "political" ]
            }
         ],
         "formatted_address" : "G92H+VX Lahore, Pakistan",
         "geometry" : {
            "bounds" : {
               "northeast" : {
                  "lat" : 31.50225,
                  "lng" : 74.38
               },
               "southwest" : {
                  "lat" : 31.502125,
                  "lng" : 74.379875
               }
            },
            "location" : {
               "lat" : 31.5021291,
               "lng" : 74.3799305
            },
            "location_type" : "GEOMETRIC_CENTER",
            "viewport" : {
               "northeast" : {
                  "lat" : 31.5035364802915,
                  "lng" : 74.38128648029151
               },
               "southwest" : {
                  "lat" : 31.5008385197085,
                  "lng" : 74.37858851970849
               }
            }
         },
         "place_id" : "GhIJs95eiIuAP0ARMBAEyFCYUkA",
         "plus_code" : {
            "compound_code" : "G92H+VX Lahore, Pakistan",
            "global_code" : "8J3PG92H+VX"
         },
         "types" : [ "plus_code" ]
      },
      {
         "address_components" : [
            {
               "long_name" : "G92J+VPM",
               "short_name" : "G92J+VPM",
               "types" : [ "plus_code" ]
            },
            {
               "long_name" : "Walton Cantt Board Officers Housing Society",
               "short_name" : "Walton Cantt Board Officers Housing Society",
               "types" : [ "political", "sublocality", "sublocality_level_2" ]
            },
            {
               "long_name" : "Cantt",
               "short_name" : "Cantt",
               "types" : [ "political", "sublocality", "sublocality_level_1" ]
            },
            {
               "long_name" : "Lahore",
               "short_name" : "Lahore",
               "types" : [ "locality", "political" ]
            },
            {
               "long_name" : "Lahore Cantt",
               "short_name" : "Lahore Cantt",
               "types" : [ "administrative_area_level_3", "political" ]
            },
            {
               "long_name" : "Lahore",
               "short_name" : "Lahore",
               "types" : [ "administrative_area_level_2", "political" ]
            },
            {
               "long_name" : "Punjab",
               "short_name" : "Punjab",
               "types" : [ "administrative_area_level_1", "political" ]
            },
            {
               "long_name" : "Pakistan",
               "short_name" : "PK",
               "types" : [ "country", "political" ]
            }
         ],
         "formatted_address" : "G92J+VPM, Walton Cantt Board Officers Housing Society Cantt, Lahore, Punjab, Pakistan",
         "geometry" : {
            "location" : {
               "lat" : 31.5022136,
               "lng" : 74.38180990000001
            },
            "location_type" : "GEOMETRIC_CENTER",
            "viewport" : {
               "northeast" : {
                  "lat" : 31.5035625802915,
                  "lng" : 74.38315888029152
               },
               "southwest" : {
                  "lat" : 31.5008646197085,
                  "lng" : 74.38046091970851
               }
            }
         },
         "place_id" : "ChIJR3tF4L8FGTkRPp8LHrgI5Ng",
         "types" : [ "establishment", "point_of_interest", "police" ]
      },
      {
         "address_components" : [
            {
               "long_name" : "G92J+QQM",
               "short_name" : "G92J+QQM",
               "types" : [ "plus_code" ]
            },
            {
               "long_name" : "Walton Cantt Board Officers Housing Society",
               "short_name" : "Walton Cantt Board Officers Housing Society",
               "types" : [ "political", "sublocality", "sublocality_level_2" ]
            },
            {
               "long_name" : "Cantt",
               "short_name" : "Cantt",
               "types" : [ "political", "sublocality", "sublocality_level_1" ]
            },
            {
               "long_name" : "Lahore",
               "short_name" : "Lahore",
               "types" : [ "locality", "political" ]
            },
            {
               "long_name" : "Lahore Cantt",
               "short_name" : "Lahore Cantt",
               "types" : [ "administrative_area_level_3", "political" ]
            },
            {
               "long_name" : "Lahore",
               "short_name" : "Lahore",
               "types" : [ "administrative_area_level_2", "political" ]
            },
            {
               "long_name" : "Punjab",
               "short_name" : "Punjab",
               "types" : [ "administrative_area_level_1", "political" ]
            },
            {
               "long_name" : "Pakistan",
               "short_name" : "PK",
               "types" : [ "country", "political" ]
            }
         ],
         "formatted_address" : "G92J+QQM, Walton Cantt Board Officers Housing Society Cantt, Lahore, Punjab, Pakistan",
         "geometry" : {
            "bounds" : {
               "northeast" : {
                  "lat" : 31.5020278,
                  "lng" : 74.38194729999999
               },
               "southwest" : {
                  "lat" : 31.5019386,
                  "lng" : 74.38180389999999
               }
            },
            "location" : {
               "lat" : 31.5019949,
               "lng" : 74.38187359999999
            },
            "location_type" : "ROOFTOP",
            "viewport" : {
               "northeast" : {
                  "lat" : 31.5033321802915,
                  "lng" : 74.38322458029151
               },
               "southwest" : {
                  "lat" : 31.5006342197085,
                  "lng" : 74.38052661970849
               }
            }
         },
         "place_id" : "ChIJBQL7478FGTkRdx6BLFbBPss",
         "types" : [ "premise" ]
      },
      {
         "address_components" : [
            {
               "long_name" : "Starting Point Bus Stop",
               "short_name" : "Starting Point Bus Stop",
               "types" : [ "establishment", "point_of_interest", "transit_station" ]
            },
            {
               "long_name" : "Walton Cantt Board Officers Housing Society",
               "short_name" : "Walton Cantt Board Officers Housing Society",
               "types" : [ "political", "sublocality", "sublocality_level_2" ]
            },
            {
               "long_name" : "Cantt",
               "short_name" : "Cantt",
               "types" : [ "political", "sublocality", "sublocality_level_1" ]
            },
            {
               "long_name" : "Lahore",
               "short_name" : "Lahore",
               "types" : [ "locality", "political" ]
            },
            {
               "long_name" : "Lahore Cantt",
               "short_name" : "Lahore Cantt",
               "types" : [ "administrative_area_level_3", "political" ]
            },
            {
               "long_name" : "Lahore",
               "short_name" : "Lahore",
               "types" : [ "administrative_area_level_2", "political" ]
            },
            {
               "long_name" : "Punjab",
               "short_name" : "Punjab",
               "types" : [ "administrative_area_level_1", "political" ]
            },
            {
               "long_name" : "Pakistan",
               "short_name" : "PK",
               "types" : [ "country", "political" ]
            }
         ],
         "formatted_address" : "Starting Point Bus Stop, Walton Cantt Board Officers Housing Society Cantt, Lahore, Punjab, Pakistan",
         "geometry" : {
            "location" : {
               "lat" : 31.5026048,
               "lng" : 74.38199039999999
            },
            "location_type" : "GEOMETRIC_CENTER",
            "viewport" : {
               "northeast" : {
                  "lat" : 31.5039537802915,
                  "lng" : 74.38333938029149
               },
               "southwest" : {
                  "lat" : 31.5012558197085,
                  "lng" : 74.38064141970848
               }
            }
         },
         "place_id" : "ChIJgS_73r8FGTkRDWwl_dRQA3g",
         "plus_code" : {
            "compound_code" : "G93J+2Q Lahore, Pakistan",
            "global_code" : "8J3PG93J+2Q"
         },
         "types" : [ "establishment", "point_of_interest", "transit_station" ]
      },
      {
         "address_components" : [
            {
               "long_name" : "Walton Road",
               "short_name" : "Walton Road",
               "types" : [ "route" ]
            },
            {
               "long_name" : "Cantt",
               "short_name" : "Cantt",
               "types" : [ "political", "sublocality", "sublocality_level_1" ]
            },
            {
               "long_name" : "Lahore",
               "short_name" : "Lahore",
               "types" : [ "locality", "political" ]
            },
            {
               "long_name" : "Lahore Cantt",
               "short_name" : "Lahore Cantt",
               "types" : [ "administrative_area_level_3", "political" ]
            },
            {
               "long_name" : "Lahore",
               "short_name" : "Lahore",
               "types" : [ "administrative_area_level_2", "political" ]
            },
            {
               "long_name" : "Punjab",
               "short_name" : "Punjab",
               "types" : [ "administrative_area_level_1", "political" ]
            },
            {
               "long_name" : "Pakistan",
               "short_name" : "PK",
               "types" : [ "country", "political" ]
            }
         ],
         "formatted_address" : "Walton Road, Cantt, Lahore, Punjab, Pakistan",
         "geometry" : {
            "bounds" : {
               "northeast" : {
                  "lat" : 31.5022878,
                  "lng" : 74.3782933
               },
               "southwest" : {
                  "lat" : 31.5013403,
                  "lng" : 74.37822179999999
               }
            },
            "location" : {
               "lat" : 31.5018168,
               "lng" : 74.37829259999999
            },
            "location_type" : "GEOMETRIC_CENTER",
            "viewport" : {
               "northeast" : {
                  "lat" : 31.5031630302915,
                  "lng" : 74.3796065302915
               },
               "southwest" : {
                  "lat" : 31.5004650697085,
                  "lng" : 74.37690856970849
               }
            }
         },
         "place_id" : "ChIJ_xyiFL8FGTkRFsD0cSC0Kfs",
         "types" : [ "route" ]
      },
      {
         "address_components" : [
            {
               "long_name" : "Cantt",
               "short_name" : "Cantt",
               "types" : [ "political", "sublocality", "sublocality_level_1" ]
            },
            {
               "long_name" : "Lahore",
               "short_name" : "Lahore",
               "types" : [ "locality", "political" ]
            },
            {
               "long_name" : "Lahore Cantt",
               "short_name" : "Lahore Cantt",
               "types" : [ "administrative_area_level_3", "political" ]
            },
            {
               "long_name" : "Lahore",
               "short_name" : "Lahore",
               "types" : [ "administrative_area_level_2", "political" ]
            },
            {
               "long_name" : "Punjab",
               "short_name" : "Punjab",
               "types" : [ "administrative_area_level_1", "political" ]
            },
            {
               "long_name" : "Pakistan",
               "short_name" : "PK",
               "types" : [ "country", "political" ]
            }
         ],
         "formatted_address" : "Cantt, Lahore, Punjab, Pakistan",
         "geometry" : {
            "bounds" : {
               "northeast" : {
                  "lat" : 31.5525784,
                  "lng" : 74.4353742
               },
               "southwest" : {
                  "lat" : 31.4958426,
                  "lng" : 74.36848879999999
               }
            },
            "location" : {
               "lat" : 31.5196113,
               "lng" : 74.388925
            },
            "location_type" : "APPROXIMATE",
            "viewport" : {
               "northeast" : {
                  "lat" : 31.5525784,
                  "lng" : 74.4353742
               },
               "southwest" : {
                  "lat" : 31.4958426,
                  "lng" : 74.36848879999999
               }
            }
         },
         "place_id" : "ChIJKUQxuIEFGTkRrUMO1ndJddw",
         "types" : [ "political", "sublocality", "sublocality_level_1" ]
      },
      {
         "address_components" : [
            {
               "long_name" : "Cantonment",
               "short_name" : "Cantonment",
               "types" : [ "administrative_area_level_5", "political" ]
            },
            {
               "long_name" : "Lahore",
               "short_name" : "Lahore",
               "types" : [ "locality", "political" ]
            },
            {
               "long_name" : "Lahore Cantt",
               "short_name" : "Lahore Cantt",
               "types" : [ "administrative_area_level_3", "political" ]
            },
            {
               "long_name" : "Lahore",
               "short_name" : "Lahore",
               "types" : [ "administrative_area_level_2", "political" ]
            },
            {
               "long_name" : "Punjab",
               "short_name" : "Punjab",
               "types" : [ "administrative_area_level_1", "political" ]
            },
            {
               "long_name" : "Pakistan",
               "short_name" : "PK",
               "types" : [ "country", "political" ]
            }
         ],
         "formatted_address" : "Cantonment, Lahore, Punjab, Pakistan",
         "geometry" : {
            "bounds" : {
               "northeast" : {
                  "lat" : 31.5641622,
                  "lng" : 74.48560909999999
               },
               "southwest" : {
                  "lat" : 31.4526631,
                  "lng" : 74.34548340000001
               }
            },
            "location" : {
               "lat" : 31.4942641,
               "lng" : 74.41738769999999
            },
            "location_type" : "APPROXIMATE",
            "viewport" : {
               "northeast" : {
                  "lat" : 31.5641622,
                  "lng" : 74.48560909999999
               },
               "southwest" : {
                  "lat" : 31.4526631,
                  "lng" : 74.34548340000001
               }
            }
         },
         "place_id" : "ChIJV3zLTmYPGTkRLrK1jCi4UH4",
         "types" : [ "administrative_area_level_5", "political" ]
      },
      {
         "address_components" : [
            {
               "long_name" : "Lahore Cantt",
               "short_name" : "Lahore Cantt",
               "types" : [ "administrative_area_level_3", "political" ]
            },
            {
               "long_name" : "Lahore",
               "short_name" : "Lahore",
               "types" : [ "administrative_area_level_2", "political" ]
            },
            {
               "long_name" : "Punjab",
               "short_name" : "Punjab",
               "types" : [ "administrative_area_level_1", "political" ]
            },
            {
               "long_name" : "Pakistan",
               "short_name" : "PK",
               "types" : [ "country", "political" ]
            }
         ],
         "formatted_address" : "Lahore Cantt, Lahore, Punjab, Pakistan",
         "geometry" : {
            "bounds" : {
               "northeast" : {
                  "lat" : 31.7326737,
                  "lng" : 74.64111319999999
               },
               "southwest" : {
                  "lat" : 31.281605,
                  "lng" : 74.2479031
               }
            },
            "location" : {
               "lat" : 31.53204,
               "lng" : 74.4525627
            },
            "location_type" : "APPROXIMATE",
            "viewport" : {
               "northeast" : {
                  "lat" : 31.7326737,
                  "lng" : 74.64111319999999
               },
               "southwest" : {
                  "lat" : 31.281605,
                  "lng" : 74.2479031
               }
            }
         },
         "place_id" : "ChIJJ75MHRkPGTkRJIDFq6b2v2k",
         "types" : [ "administrative_area_level_3", "political" ]
      },
      {
         "address_components" : [
            {
               "long_name" : "Lahore",
               "short_name" : "Lahore",
               "types" : [ "locality", "political" ]
            },
            {
               "long_name" : "Lahore",
               "short_name" : "Lahore",
               "types" : [ "administrative_area_level_2", "political" ]
            },
            {
               "long_name" : "Punjab",
               "short_name" : "Punjab",
               "types" : [ "administrative_area_level_1", "political" ]
            },
            {
               "long_name" : "Pakistan",
               "short_name" : "PK",
               "types" : [ "country", "political" ]
            }
         ],
         "formatted_address" : "Lahore, Punjab, Pakistan",
         "geometry" : {
            "bounds" : {
               "northeast" : {
                  "lat" : 31.69848649999999,
                  "lng" : 74.55323989999999
               },
               "southwest" : {
                  "lat" : 31.2673942,
                  "lng" : 74.1155387
               }
            },
            "location" : {
               "lat" : 31.5203696,
               "lng" : 74.35874729999999
            },
            "location_type" : "APPROXIMATE",
            "viewport" : {
               "northeast" : {
                  "lat" : 31.69848649999999,
                  "lng" : 74.55323989999999
               },
               "southwest" : {
                  "lat" : 31.2673942,
                  "lng" : 74.1155387
               }
            }
         },
         "place_id" : "ChIJ2QeB5YMEGTkRYiR-zGy-OsI",
         "types" : [ "locality", "political" ]
      },
      {
         "address_components" : [
            {
               "long_name" : "Lahore",
               "short_name" : "Lahore",
               "types" : [ "administrative_area_level_2", "political" ]
            },
            {
               "long_name" : "Punjab",
               "short_name" : "Punjab",
               "types" : [ "administrative_area_level_1", "political" ]
            },
            {
               "long_name" : "Pakistan",
               "short_name" : "PK",
               "types" : [ "country", "political" ]
            }
         ],
         "formatted_address" : "Lahore, Punjab, Pakistan",
         "geometry" : {
            "bounds" : {
               "northeast" : {
                  "lat" : 31.7326739,
                  "lng" : 74.64111319999999
               },
               "southwest" : {
                  "lat" : 31.2543339,
                  "lng" : 74.0068495
               }
            },
            "location" : {
               "lat" : 31.4312704,
               "lng" : 74.35874729999999
            },
            "location_type" : "APPROXIMATE",
            "viewport" : {
               "northeast" : {
                  "lat" : 31.7326739,
                  "lng" : 74.64111319999999
               },
               "southwest" : {
                  "lat" : 31.2543339,
                  "lng" : 74.0068495
               }
            }
         },
         "place_id" : "ChIJNfyfu-sDGTkRca4X8W4UGb4",
         "types" : [ "administrative_area_level_2", "political" ]
      },
      {
         "address_components" : [
            {
               "long_name" : "Punjab",
               "short_name" : "Punjab",
               "types" : [ "administrative_area_level_1", "political" ]
            },
            {
               "long_name" : "Pakistan",
               "short_name" : "PK",
               "types" : [ "country", "political" ]
            }
         ],
         "formatted_address" : "Punjab, Pakistan",
         "geometry" : {
            "bounds" : {
               "northeast" : {
                  "lat" : 34.0434647,
                  "lng" : 75.3796504
               },
               "southwest" : {
                  "lat" : 27.7056256,
                  "lng" : 69.3288726
               }
            },
            "location" : {
               "lat" : 31.1704063,
               "lng" : 72.70971609999999
            },
            "location_type" : "APPROXIMATE",
            "viewport" : {
               "northeast" : {
                  "lat" : 34.0434647,
                  "lng" : 75.3796504
               },
               "southwest" : {
                  "lat" : 27.7056256,
                  "lng" : 69.3288726
               }
            }
         },
         "place_id" : "ChIJy5pBdImU3zgRoOxO0hgwnjo",
         "types" : [ "administrative_area_level_1", "political" ]
      },
      {
         "address_components" : [
            {
               "long_name" : "Pakistan",
               "short_name" : "PK",
               "types" : [ "country", "political" ]
            }
         ],
         "formatted_address" : "Pakistan",
         "geometry" : {
            "bounds" : {
               "northeast" : {
                  "lat" : 37.0841069,
                  "lng" : 77.1204247
               },
               "southwest" : {
                  "lat" : 23.6344999,
                  "lng" : 60.8729721
               }
            },
            "location" : {
               "lat" : 30.375321,
               "lng" : 69.34511599999999
            },
            "location_type" : "APPROXIMATE",
            "viewport" : {
               "northeast" : {
                  "lat" : 37.0841069,
                  "lng" : 77.1204247
               },
               "southwest" : {
                  "lat" : 23.6344999,
                  "lng" : 60.8729721
               }
            }
         },
         "place_id" : "ChIJH3X9-NJS2zgRXJIU5veht0Y",
         "types" : [ "country", "political" ]
      }
   ],
   "status" : "OK"
}
