{
   "plus_code" : {
      "compound_code" : "3JM2+2QC Nawan Jandanwala, Pakistan",
      "global_code" : "8J4H3JM2+2QC"
   },
   "results" : [
      {
         "address_components" : [
            {
               "long_name" : "3JM2+2Q",
               "short_name" : "3JM2+2Q",
               "types" : [ "plus_code" ]
            },
            {
               "long_name" : "Nawan Jandanwala",
               "short_name" : "Nawan Jandanwala",
               "types" : [ "locality", "political" ]
            },
            {
               "long_name" : "Kalurkot",
               "short_name" : "Kalurkot",
               "types" : [ "administrative_area_level_3", "political" ]
            },
            {
               "long_name" : "Bhakkar",
               "short_name" : "Bhakkar",
               "types" : [ "administrative_area_level_2", "political" ]
            },
            {
               "long_name" : "Punjab",
               "short_name" : "Punjab",
               "types" : [ "administrative_area_level_1", "political" ]
            },
            {
               "long_name" : "Pakistan",
               "short_name" : "PK",
               "types" : [ "country", "political" ]
            }
         ],
         "formatted_address" : "3JM2+2Q Nawan Jandanwala, Pakistan",
         "geometry" : {
            "bounds" : {
               "northeast" : {
                  "lat" : 32.082625,
                  "lng" : 71.60199999999999
               },
               "southwest" : {
                  "lat" : 32.0825,
                  "lng" : 71.60187499999999
               }
            },
            "location" : {
               "lat" : 32.0825746,
               "lng" : 71.60187809999999
            },
            "location_type" : "GEOMETRIC_CENTER",
            "viewport" : {
               "northeast" : {
                  "lat" : 32.08391148029149,
                  "lng" : 71.60328648029149
               },
               "southwest" : {
                  "lat" : 32.0812135197085,
                  "lng" : 71.60058851970848
               }
            }
         },
         "place_id" : "GhIJej3zzZEKQEARbuu4K4XmUUA",
         "plus_code" : {
            "compound_code" : "3JM2+2Q Nawan Jandanwala, Pakistan",
            "global_code" : "8J4H3JM2+2Q"
         },
         "types" : [ "plus_code" ]
      },
      {
         "address_components" : [
            {
               "long_name" : "Unnamed Road",
               "short_name" : "Unnamed Road",
               "types" : [ "route" ]
            },
            {
               "long_name" : "Nawan Jandanwala",
               "short_name" : "Nawan Jandanwala",
               "types" : [ "locality", "political" ]
            },
            {
               "long_name" : "Kalurkot",
               "short_name" : "Kalurkot",
               "types" : [ "administrative_area_level_3", "political" ]
            },
            {
               "long_name" : "Bhakkar",
               "short_name" : "Bhakkar",
               "types" : [ "administrative_area_level_2", "political" ]
            },
            {
               "long_name" : "Punjab",
               "short_name" : "Punjab",
               "types" : [ "administrative_area_level_1", "political" ]
            },
            {
               "long_name" : "Pakistan",
               "short_name" : "PK",
               "types" : [ "country", "political" ]
            }
         ],
         "formatted_address" : "Unnamed Road, Nawan Jandanwala, Bhakkar, Punjab, Pakistan",
         "geometry" : {
            "bounds" : {
               "northeast" : {
                  "lat" : 32.0824236,
                  "lng" : 71.6022126
               },
               "southwest" : {
                  "lat" : 32.0824145,
                  "lng" : 71.60045989999999
               }
            },
            "location" : {
               "lat" : 32.0824216,
               "lng" : 71.6013363
            },
            "location_type" : "GEOMETRIC_CENTER",
            "viewport" : {
               "northeast" : {
                  "lat" : 32.08376803029149,
                  "lng" : 71.6026852302915
               },
               "southwest" : {
                  "lat" : 32.0810700697085,
                  "lng" : 71.59998726970849
               }
            }
         },
         "place_id" : "ChIJweJi5W3AJjkRTFkjmTa73nA",
         "types" : [ "route" ]
      },
      {
         "address_components" : [
            {
               "long_name" : "Jandanwala",
               "short_name" : "Jandanwala",
               "types" : [ "locality", "political" ]
            },
            {
               "long_name" : "Kalurkot",
               "short_name" : "Kalurkot",
               "types" : [ "administrative_area_level_3", "political" ]
            },
            {
               "long_name" : "Bhakkar",
               "short_name" : "Bhakkar",
               "types" : [ "administrative_area_level_2", "political" ]
            },
            {
               "long_name" : "Punjab",
               "short_name" : "Punjab",
               "types" : [ "administrative_area_level_1", "political" ]
            },
            {
               "long_name" : "Pakistan",
               "short_name" : "PK",
               "types" : [ "country", "political" ]
            }
         ],
         "formatted_address" : "Jandanwala, Bhakkar, Punjab, Pakistan",
         "geometry" : {
            "bounds" : {
               "northeast" : {
                  "lat" : 32.0842836,
                  "lng" : 71.6145944
               },
               "southwest" : {
                  "lat" : 32.0689016,
                  "lng" : 71.59755699999999
               }
            },
            "location" : {
               "lat" : 32.0794236,
               "lng" : 71.6050339
            },
            "location_type" : "APPROXIMATE",
            "viewport" : {
               "northeast" : {
                  "lat" : 32.0842836,
                  "lng" : 71.6145944
               },
               "southwest" : {
                  "lat" : 32.0689016,
                  "lng" : 71.59755699999999
               }
            }
         },
         "place_id" : "ChIJd3mUM3fAJjkRhy7ou58ri-0",
         "types" : [ "locality", "political" ]
      },
      {
         "address_components" : [
            {
               "long_name" : "Jandanwala",
               "short_name" : "Jandanwala",
               "types" : [ "administrative_area_level_5", "political" ]
            },
            {
               "long_name" : "Kalurkot",
               "short_name" : "Kalurkot",
               "types" : [ "administrative_area_level_3", "political" ]
            },
            {
               "long_name" : "Bhakkar",
               "short_name" : "Bhakkar",
               "types" : [ "administrative_area_level_2", "political" ]
            },
            {
               "long_name" : "Punjab",
               "short_name" : "Punjab",
               "types" : [ "administrative_area_level_1", "political" ]
            },
            {
               "long_name" : "Pakistan",
               "short_name" : "PK",
               "types" : [ "country", "political" ]
            }
         ],
         "formatted_address" : "Jandanwala, Bhakkar, Punjab, Pakistan",
         "geometry" : {
            "bounds" : {
               "northeast" : {
                  "lat" : 32.186898,
                  "lng" : 71.7760519
               },
               "southwest" : {
                  "lat" : 32.0280535,
                  "lng" : 71.5488562
               }
            },
            "location" : {
               "lat" : 32.1059824,
               "lng" : 71.69106599999999
            },
            "location_type" : "APPROXIMATE",
            "viewport" : {
               "northeast" : {
                  "lat" : 32.186898,
                  "lng" : 71.7760519
               },
               "southwest" : {
                  "lat" : 32.0280535,
                  "lng" : 71.5488562
               }
            }
         },
         "place_id" : "ChIJxZlDCczAJjkRrd9YhW6fVO8",
         "types" : [ "administrative_area_level_5", "political" ]
      },
      {
         "address_components" : [
            {
               "long_name" : "Kalurkot",
               "short_name" : "Kalurkot",
               "types" : [ "administrative_area_level_3", "political" ]
            },
            {
               "long_name" : "Bhakkar",
               "short_name" : "Bhakkar",
               "types" : [ "administrative_area_level_2", "political" ]
            },
            {
               "long_name" : "Punjab",
               "short_name" : "Punjab",
               "types" : [ "administrative_area_level_1", "political" ]
            },
            {
               "long_name" : "Pakistan",
               "short_name" : "PK",
               "types" : [ "country", "political" ]
            }
         ],
         "formatted_address" : "Kalurkot, Bhakkar, Punjab, Pakistan",
         "geometry" : {
            "bounds" : {
               "northeast" : {
                  "lat" : 32.205153,
                  "lng" : 71.7760519
               },
               "southwest" : {
                  "lat" : 31.899314,
                  "lng" : 71.0653126
               }
            },
            "location" : {
               "lat" : 32.0887231,
               "lng" : 71.4299364
            },
            "location_type" : "APPROXIMATE",
            "viewport" : {
               "northeast" : {
                  "lat" : 32.205153,
                  "lng" : 71.7760519
               },
               "southwest" : {
                  "lat" : 31.899314,
                  "lng" : 71.0653126
               }
            }
         },
         "place_id" : "ChIJW-DTqC_tJjkR4JO10WSvkc8",
         "types" : [ "administrative_area_level_3", "political" ]
      },
      {
         "address_components" : [
            {
               "long_name" : "Bhakkar",
               "short_name" : "Bhakkar",
               "types" : [ "administrative_area_level_2", "political" ]
            },
            {
               "long_name" : "Punjab",
               "short_name" : "Punjab",
               "types" : [ "administrative_area_level_1", "political" ]
            },
            {
               "long_name" : "Pakistan",
               "short_name" : "PK",
               "types" : [ "country", "political" ]
            }
         ],
         "formatted_address" : "Bhakkar, Punjab, Pakistan",
         "geometry" : {
            "bounds" : {
               "northeast" : {
                  "lat" : 32.2051529,
                  "lng" : 72.0227185
               },
               "southwest" : {
                  "lat" : 31.1373828,
                  "lng" : 70.8071142
               }
            },
            "location" : {
               "lat" : 31.8621101,
               "lng" : 71.3824374
            },
            "location_type" : "APPROXIMATE",
            "viewport" : {
               "northeast" : {
                  "lat" : 32.2051529,
                  "lng" : 72.0227185
               },
               "southwest" : {
                  "lat" : 31.1373828,
                  "lng" : 70.8071142
               }
            }
         },
         "place_id" : "ChIJMZ9MzU6bJjkRVJ6EKVpZeeY",
         "types" : [ "administrative_area_level_2", "political" ]
      },
      {
         "address_components" : [
            {
               "long_name" : "Punjab",
               "short_name" : "Punjab",
               "types" : [ "administrative_area_level_1", "political" ]
            },
            {
               "long_name" : "Pakistan",
               "short_name" : "PK",
               "types" : [ "country", "political" ]
            }
         ],
         "formatted_address" : "Punjab, Pakistan",
         "geometry" : {
            "bounds" : {
               "northeast" : {
                  "lat" : 34.0434647,
                  "lng" : 75.3796504
               },
               "southwest" : {
                  "lat" : 27.7056256,
                  "lng" : 69.3288726
               }
            },
            "location" : {
               "lat" : 31.1704063,
               "lng" : 72.70971609999999
            },
            "location_type" : "APPROXIMATE",
            "viewport" : {
               "northeast" : {
                  "lat" : 34.0434647,
                  "lng" : 75.3796504
               },
               "southwest" : {
                  "lat" : 27.7056256,
                  "lng" : 69.3288726
               }
            }
         },
         "place_id" : "ChIJy5pBdImU3zgRoOxO0hgwnjo",
         "types" : [ "administrative_area_level_1", "political" ]
      },
      {
         "address_components" : [
            {
               "long_name" : "Pakistan",
               "short_name" : "PK",
               "types" : [ "country", "political" ]
            }
         ],
         "formatted_address" : "Pakistan",
         "geometry" : {
            "bounds" : {
               "northeast" : {
                  "lat" : 37.0841069,
                  "lng" : 77.1204247
               },
               "southwest" : {
                  "lat" : 23.6344999,
                  "lng" : 60.8729721
               }
            },
            "location" : {
               "lat" : 30.375321,
               "lng" : 69.34511599999999
            },
            "location_type" : "APPROXIMATE",
            "viewport" : {
               "northeast" : {
                  "lat" : 37.0841069,
                  "lng" : 77.1204247
               },
               "southwest" : {
                  "lat" : 23.6344999,
                  "lng" : 60.8729721
               }
            }
         },
         "place_id" : "ChIJH3X9-NJS2zgRXJIU5veht0Y",
         "types" : [ "country", "political" ]
      }
   ],
   "status" : "OK"
}
