{
   "plus_code" : {
      "compound_code" : "C6RR+7G2 Lahore, Pakistan",
      "global_code" : "8J3PC6RR+7G2"
   },
   "results" : [
      {
         "address_components" : [
            {
               "long_name" : "C6QR+WHV",
               "short_name" : "C6QR+WHV",
               "types" : [ "plus_code" ]
            },
            {
               "long_name" : "Street Number 16",
               "short_name" : "Street Number 16",
               "types" : [ "route" ]
            },
            {
               "long_name" : "Alipur",
               "short_name" : "Alipur",
               "types" : [ "neighborhood", "political" ]
            },
            {
               "long_name" : "Eden Homes Scheme",
               "short_name" : "Eden Homes Scheme",
               "types" : [ "political", "sublocality", "sublocality_level_1" ]
            },
            {
               "long_name" : "Lahore",
               "short_name" : "Lahore",
               "types" : [ "locality", "political" ]
            },
            {
               "long_name" : "Lahore City",
               "short_name" : "Lahore City",
               "types" : [ "administrative_area_level_3", "political" ]
            },
            {
               "long_name" : "Lahore",
               "short_name" : "Lahore",
               "types" : [ "administrative_area_level_2", "political" ]
            },
            {
               "long_name" : "Punjab",
               "short_name" : "Punjab",
               "types" : [ "administrative_area_level_1", "political" ]
            },
            {
               "long_name" : "Pakistan",
               "short_name" : "PK",
               "types" : [ "country", "political" ]
            }
         ],
         "formatted_address" : "C6QR+WHV, Street Number 16, Alipur Eden Homes Scheme, Lahore, Punjab, Pakistan",
         "geometry" : {
            "bounds" : {
               "northeast" : {
                  "lat" : 31.439937,
                  "lng" : 74.2415206
               },
               "southwest" : {
                  "lat" : 31.439794,
                  "lng" : 74.24131149999999
               }
            },
            "location" : {
               "lat" : 31.4398537,
               "lng" : 74.24143219999999
            },
            "location_type" : "ROOFTOP",
            "viewport" : {
               "northeast" : {
                  "lat" : 31.44121448029149,
                  "lng" : 74.24276503029151
               },
               "southwest" : {
                  "lat" : 31.43851651970849,
                  "lng" : 74.2400670697085
               }
            }
         },
         "place_id" : "ChIJl-iyTJUBGTkR1mfyc-6pqn8",
         "types" : [ "premise" ]
      },
      {
         "address_components" : [
            {
               "long_name" : "C6QR+WHV",
               "short_name" : "C6QR+WHV",
               "types" : [ "plus_code" ]
            },
            {
               "long_name" : "Street Number 16",
               "short_name" : "Street Number 16",
               "types" : [ "route" ]
            },
            {
               "long_name" : "Alipur",
               "short_name" : "Alipur",
               "types" : [ "neighborhood", "political" ]
            },
            {
               "long_name" : "Eden Homes Scheme",
               "short_name" : "Eden Homes Scheme",
               "types" : [ "political", "sublocality", "sublocality_level_1" ]
            },
            {
               "long_name" : "Lahore",
               "short_name" : "Lahore",
               "types" : [ "locality", "political" ]
            },
            {
               "long_name" : "Lahore City",
               "short_name" : "Lahore City",
               "types" : [ "administrative_area_level_3", "political" ]
            },
            {
               "long_name" : "Lahore",
               "short_name" : "Lahore",
               "types" : [ "administrative_area_level_2", "political" ]
            },
            {
               "long_name" : "Punjab",
               "short_name" : "Punjab",
               "types" : [ "administrative_area_level_1", "political" ]
            },
            {
               "long_name" : "Pakistan",
               "short_name" : "PK",
               "types" : [ "country", "political" ]
            }
         ],
         "formatted_address" : "C6QR+WHV, Street Number 16, Alipur Eden Homes Scheme, Lahore, Punjab, Pakistan",
         "geometry" : {
            "location" : {
               "lat" : 31.4398662,
               "lng" : 74.2414132
            },
            "location_type" : "GEOMETRIC_CENTER",
            "viewport" : {
               "northeast" : {
                  "lat" : 31.4412151802915,
                  "lng" : 74.24276218029151
               },
               "southwest" : {
                  "lat" : 31.4385172197085,
                  "lng" : 74.24006421970849
               }
            }
         },
         "place_id" : "ChIJO5IqaOkBGTkR-NwyHaeDIEE",
         "types" : [ "clothing_store", "establishment", "point_of_interest", "store" ]
      },
      {
         "address_components" : [
            {
               "long_name" : "C6RR+7G",
               "short_name" : "C6RR+7G",
               "types" : [ "plus_code" ]
            },
            {
               "long_name" : "Lahore",
               "short_name" : "Lahore",
               "types" : [ "locality", "political" ]
            },
            {
               "long_name" : "Lahore",
               "short_name" : "Lahore",
               "types" : [ "administrative_area_level_2", "political" ]
            },
            {
               "long_name" : "Punjab",
               "short_name" : "Punjab",
               "types" : [ "administrative_area_level_1", "political" ]
            },
            {
               "long_name" : "Pakistan",
               "short_name" : "PK",
               "types" : [ "country", "political" ]
            }
         ],
         "formatted_address" : "C6RR+7G Lahore, Pakistan",
         "geometry" : {
            "bounds" : {
               "northeast" : {
                  "lat" : 31.44075,
                  "lng" : 74.24137499999999
               },
               "southwest" : {
                  "lat" : 31.440625,
                  "lng" : 74.24124999999999
               }
            },
            "location" : {
               "lat" : 31.4406414,
               "lng" : 74.2412549
            },
            "location_type" : "GEOMETRIC_CENTER",
            "viewport" : {
               "northeast" : {
                  "lat" : 31.4420364802915,
                  "lng" : 74.2426614802915
               },
               "southwest" : {
                  "lat" : 31.4393385197085,
                  "lng" : 74.2399635197085
               }
            }
         },
         "place_id" : "GhIJfkPy381wP0AR_F9kuHCPUkA",
         "plus_code" : {
            "compound_code" : "C6RR+7G Lahore, Pakistan",
            "global_code" : "8J3PC6RR+7G"
         },
         "types" : [ "plus_code" ]
      },
      {
         "address_components" : [
            {
               "long_name" : "Street 10",
               "short_name" : "Street 10",
               "types" : [ "route" ]
            },
            {
               "long_name" : "Eden Palace Villas",
               "short_name" : "Eden Palace Villas",
               "types" : [ "neighborhood", "political" ]
            },
            {
               "long_name" : "Eden Homes Scheme",
               "short_name" : "Eden Homes Scheme",
               "types" : [ "political", "sublocality", "sublocality_level_1" ]
            },
            {
               "long_name" : "Lahore",
               "short_name" : "Lahore",
               "types" : [ "locality", "political" ]
            },
            {
               "long_name" : "Lahore City",
               "short_name" : "Lahore City",
               "types" : [ "administrative_area_level_3", "political" ]
            },
            {
               "long_name" : "Lahore",
               "short_name" : "Lahore",
               "types" : [ "administrative_area_level_2", "political" ]
            },
            {
               "long_name" : "Punjab",
               "short_name" : "Punjab",
               "types" : [ "administrative_area_level_1", "political" ]
            },
            {
               "long_name" : "Pakistan",
               "short_name" : "PK",
               "types" : [ "country", "political" ]
            }
         ],
         "formatted_address" : "Street 10, Eden Palace Villas Eden Homes Scheme, Lahore, Punjab, Pakistan",
         "geometry" : {
            "bounds" : {
               "northeast" : {
                  "lat" : 31.4407779,
                  "lng" : 74.24134599999999
               },
               "southwest" : {
                  "lat" : 31.440537,
                  "lng" : 74.24070330000001
               }
            },
            "location" : {
               "lat" : 31.4406582,
               "lng" : 74.2410251
            },
            "location_type" : "GEOMETRIC_CENTER",
            "viewport" : {
               "northeast" : {
                  "lat" : 31.4420064302915,
                  "lng" : 74.24237363029151
               },
               "southwest" : {
                  "lat" : 31.4393084697085,
                  "lng" : 74.2396756697085
               }
            }
         },
         "place_id" : "ChIJs5f5zuoBGTkR-rFirEw0CBA",
         "types" : [ "route" ]
      },
      {
         "address_components" : [
            {
               "long_name" : "Eden Homes Scheme",
               "short_name" : "Eden Homes Scheme",
               "types" : [ "political", "sublocality", "sublocality_level_1" ]
            },
            {
               "long_name" : "Lahore",
               "short_name" : "Lahore",
               "types" : [ "locality", "political" ]
            },
            {
               "long_name" : "Lahore City",
               "short_name" : "Lahore City",
               "types" : [ "administrative_area_level_3", "political" ]
            },
            {
               "long_name" : "Lahore",
               "short_name" : "Lahore",
               "types" : [ "administrative_area_level_2", "political" ]
            },
            {
               "long_name" : "Punjab",
               "short_name" : "Punjab",
               "types" : [ "administrative_area_level_1", "political" ]
            },
            {
               "long_name" : "Pakistan",
               "short_name" : "PK",
               "types" : [ "country", "political" ]
            }
         ],
         "formatted_address" : "Eden Homes Scheme, Lahore, Punjab, Pakistan",
         "geometry" : {
            "bounds" : {
               "northeast" : {
                  "lat" : 31.4436409,
                  "lng" : 74.24288829999999
               },
               "southwest" : {
                  "lat" : 31.4375366,
                  "lng" : 74.23835009999999
               }
            },
            "location" : {
               "lat" : 31.440868,
               "lng" : 74.24067560000002
            },
            "location_type" : "APPROXIMATE",
            "viewport" : {
               "northeast" : {
                  "lat" : 31.4436409,
                  "lng" : 74.24288829999999
               },
               "southwest" : {
                  "lat" : 31.4375366,
                  "lng" : 74.23835009999999
               }
            }
         },
         "place_id" : "ChIJZartxeoBGTkRZY5lR6lDagU",
         "types" : [ "political", "sublocality", "sublocality_level_1" ]
      },
      {
         "address_components" : [
            {
               "long_name" : "Eden Palace Villas",
               "short_name" : "Eden Palace Villas",
               "types" : [ "neighborhood", "political" ]
            },
            {
               "long_name" : "Lahore",
               "short_name" : "Lahore",
               "types" : [ "locality", "political" ]
            },
            {
               "long_name" : "Lahore City",
               "short_name" : "Lahore City",
               "types" : [ "administrative_area_level_3", "political" ]
            },
            {
               "long_name" : "Lahore",
               "short_name" : "Lahore",
               "types" : [ "administrative_area_level_2", "political" ]
            },
            {
               "long_name" : "Punjab",
               "short_name" : "Punjab",
               "types" : [ "administrative_area_level_1", "political" ]
            },
            {
               "long_name" : "Pakistan",
               "short_name" : "PK",
               "types" : [ "country", "political" ]
            }
         ],
         "formatted_address" : "Eden Palace Villas Lahore, Punjab, Pakistan",
         "geometry" : {
            "bounds" : {
               "northeast" : {
                  "lat" : 31.4454387,
                  "lng" : 74.24282669999999
               },
               "southwest" : {
                  "lat" : 31.4362624,
                  "lng" : 74.2348444
               }
            },
            "location" : {
               "lat" : 31.4406837,
               "lng" : 74.2392084
            },
            "location_type" : "APPROXIMATE",
            "viewport" : {
               "northeast" : {
                  "lat" : 31.4454387,
                  "lng" : 74.24282669999999
               },
               "southwest" : {
                  "lat" : 31.4362624,
                  "lng" : 74.2348444
               }
            }
         },
         "place_id" : "ChIJvzh9-eoBGTkRCpJ1UTijBtI",
         "types" : [ "neighborhood", "political" ]
      },
      {
         "address_components" : [
            {
               "long_name" : "Ali Raza Abad",
               "short_name" : "Ali Raza Abad",
               "types" : [ "administrative_area_level_5", "political" ]
            },
            {
               "long_name" : "Lahore",
               "short_name" : "Lahore",
               "types" : [ "locality", "political" ]
            },
            {
               "long_name" : "Lahore",
               "short_name" : "Lahore",
               "types" : [ "administrative_area_level_2", "political" ]
            },
            {
               "long_name" : "Punjab",
               "short_name" : "Punjab",
               "types" : [ "administrative_area_level_1", "political" ]
            },
            {
               "long_name" : "Pakistan",
               "short_name" : "PK",
               "types" : [ "country", "political" ]
            }
         ],
         "formatted_address" : "Ali Raza Abad, Lahore, Punjab, Pakistan",
         "geometry" : {
            "bounds" : {
               "northeast" : {
                  "lat" : 31.4846231,
                  "lng" : 74.29962330000001
               },
               "southwest" : {
                  "lat" : 31.4149163,
                  "lng" : 74.2140024
               }
            },
            "location" : {
               "lat" : 31.4514818,
               "lng" : 74.2531465
            },
            "location_type" : "APPROXIMATE",
            "viewport" : {
               "northeast" : {
                  "lat" : 31.4846231,
                  "lng" : 74.29962330000001
               },
               "southwest" : {
                  "lat" : 31.4149163,
                  "lng" : 74.2140024
               }
            }
         },
         "place_id" : "ChIJT_dfBZsBGTkRg6mprXjHODU",
         "types" : [ "administrative_area_level_5", "political" ]
      },
      {
         "address_components" : [
            {
               "long_name" : "Lahore City",
               "short_name" : "Lahore City",
               "types" : [ "administrative_area_level_3", "political" ]
            },
            {
               "long_name" : "Lahore",
               "short_name" : "Lahore",
               "types" : [ "administrative_area_level_2", "political" ]
            },
            {
               "long_name" : "Punjab",
               "short_name" : "Punjab",
               "types" : [ "administrative_area_level_1", "political" ]
            },
            {
               "long_name" : "Pakistan",
               "short_name" : "PK",
               "types" : [ "country", "political" ]
            }
         ],
         "formatted_address" : "Lahore City, Lahore, Punjab, Pakistan",
         "geometry" : {
            "bounds" : {
               "northeast" : {
                  "lat" : 31.669884,
                  "lng" : 74.39582299999999
               },
               "southwest" : {
                  "lat" : 31.2543339,
                  "lng" : 74.0068495
               }
            },
            "location" : {
               "lat" : 31.4329663,
               "lng" : 74.1944529
            },
            "location_type" : "APPROXIMATE",
            "viewport" : {
               "northeast" : {
                  "lat" : 31.669884,
                  "lng" : 74.39582299999999
               },
               "southwest" : {
                  "lat" : 31.2543339,
                  "lng" : 74.0068495
               }
            }
         },
         "place_id" : "ChIJU0eVDuT9GDkReHoSeZ1j6rg",
         "types" : [ "administrative_area_level_3", "political" ]
      },
      {
         "address_components" : [
            {
               "long_name" : "Lahore",
               "short_name" : "Lahore",
               "types" : [ "locality", "political" ]
            },
            {
               "long_name" : "Lahore",
               "short_name" : "Lahore",
               "types" : [ "administrative_area_level_2", "political" ]
            },
            {
               "long_name" : "Punjab",
               "short_name" : "Punjab",
               "types" : [ "administrative_area_level_1", "political" ]
            },
            {
               "long_name" : "Pakistan",
               "short_name" : "PK",
               "types" : [ "country", "political" ]
            }
         ],
         "formatted_address" : "Lahore, Punjab, Pakistan",
         "geometry" : {
            "bounds" : {
               "northeast" : {
                  "lat" : 31.69848649999999,
                  "lng" : 74.55323989999999
               },
               "southwest" : {
                  "lat" : 31.2673942,
                  "lng" : 74.1155387
               }
            },
            "location" : {
               "lat" : 31.5203696,
               "lng" : 74.35874729999999
            },
            "location_type" : "APPROXIMATE",
            "viewport" : {
               "northeast" : {
                  "lat" : 31.69848649999999,
                  "lng" : 74.55323989999999
               },
               "southwest" : {
                  "lat" : 31.2673942,
                  "lng" : 74.1155387
               }
            }
         },
         "place_id" : "ChIJ2QeB5YMEGTkRYiR-zGy-OsI",
         "types" : [ "locality", "political" ]
      },
      {
         "address_components" : [
            {
               "long_name" : "Lahore",
               "short_name" : "Lahore",
               "types" : [ "administrative_area_level_2", "political" ]
            },
            {
               "long_name" : "Punjab",
               "short_name" : "Punjab",
               "types" : [ "administrative_area_level_1", "political" ]
            },
            {
               "long_name" : "Pakistan",
               "short_name" : "PK",
               "types" : [ "country", "political" ]
            }
         ],
         "formatted_address" : "Lahore, Punjab, Pakistan",
         "geometry" : {
            "bounds" : {
               "northeast" : {
                  "lat" : 31.7326739,
                  "lng" : 74.64111319999999
               },
               "southwest" : {
                  "lat" : 31.2543339,
                  "lng" : 74.0068495
               }
            },
            "location" : {
               "lat" : 31.4312704,
               "lng" : 74.35874729999999
            },
            "location_type" : "APPROXIMATE",
            "viewport" : {
               "northeast" : {
                  "lat" : 31.7326739,
                  "lng" : 74.64111319999999
               },
               "southwest" : {
                  "lat" : 31.2543339,
                  "lng" : 74.0068495
               }
            }
         },
         "place_id" : "ChIJNfyfu-sDGTkRca4X8W4UGb4",
         "types" : [ "administrative_area_level_2", "political" ]
      },
      {
         "address_components" : [
            {
               "long_name" : "Punjab",
               "short_name" : "Punjab",
               "types" : [ "administrative_area_level_1", "political" ]
            },
            {
               "long_name" : "Pakistan",
               "short_name" : "PK",
               "types" : [ "country", "political" ]
            }
         ],
         "formatted_address" : "Punjab, Pakistan",
         "geometry" : {
            "bounds" : {
               "northeast" : {
                  "lat" : 34.0434647,
                  "lng" : 75.3796504
               },
               "southwest" : {
                  "lat" : 27.7056256,
                  "lng" : 69.3288726
               }
            },
            "location" : {
               "lat" : 31.1704063,
               "lng" : 72.70971609999999
            },
            "location_type" : "APPROXIMATE",
            "viewport" : {
               "northeast" : {
                  "lat" : 34.0434647,
                  "lng" : 75.3796504
               },
               "southwest" : {
                  "lat" : 27.7056256,
                  "lng" : 69.3288726
               }
            }
         },
         "place_id" : "ChIJy5pBdImU3zgRoOxO0hgwnjo",
         "types" : [ "administrative_area_level_1", "political" ]
      },
      {
         "address_components" : [
            {
               "long_name" : "Pakistan",
               "short_name" : "PK",
               "types" : [ "country", "political" ]
            }
         ],
         "formatted_address" : "Pakistan",
         "geometry" : {
            "bounds" : {
               "northeast" : {
                  "lat" : 37.0841069,
                  "lng" : 77.1204247
               },
               "southwest" : {
                  "lat" : 23.6344999,
                  "lng" : 60.8729721
               }
            },
            "location" : {
               "lat" : 30.375321,
               "lng" : 69.34511599999999
            },
            "location_type" : "APPROXIMATE",
            "viewport" : {
               "northeast" : {
                  "lat" : 37.0841069,
                  "lng" : 77.1204247
               },
               "southwest" : {
                  "lat" : 23.6344999,
                  "lng" : 60.8729721
               }
            }
         },
         "place_id" : "ChIJH3X9-NJS2zgRXJIU5veht0Y",
         "types" : [ "country", "political" ]
      }
   ],
   "status" : "OK"
}
