{
   "plus_code" : {
      "compound_code" : "J9R9+2QP Lahore, Pakistan",
      "global_code" : "8J3PJ9R9+2QP"
   },
   "results" : [
      {
         "address_components" : [
            {
               "long_name" : "J9R9+4PW",
               "short_name" : "J9R9+4PW",
               "types" : [ "plus_code" ]
            },
            {
               "long_name" : "Main Road",
               "short_name" : "Main Road",
               "types" : [ "route" ]
            },
            {
               "long_name" : "Karol",
               "short_name" : "Karol",
               "types" : [ "political", "sublocality", "sublocality_level_3" ]
            },
            {
               "long_name" : "Karol",
               "short_name" : "Karol",
               "types" : [ "locality", "political" ]
            },
            {
               "long_name" : "Lahore City",
               "short_name" : "Lahore City",
               "types" : [ "administrative_area_level_3", "political" ]
            },
            {
               "long_name" : "Lahore",
               "short_name" : "Lahore",
               "types" : [ "administrative_area_level_2", "political" ]
            },
            {
               "long_name" : "Punjab",
               "short_name" : "Punjab",
               "types" : [ "administrative_area_level_1", "political" ]
            },
            {
               "long_name" : "Pakistan",
               "short_name" : "PK",
               "types" : [ "country", "political" ]
            }
         ],
         "formatted_address" : "J9R9+4PW, Main Road, Karol Lahore, Punjab, Pakistan",
         "geometry" : {
            "bounds" : {
               "northeast" : {
                  "lat" : 31.6405199,
                  "lng" : 74.3694744
               },
               "southwest" : {
                  "lat" : 31.6403415,
                  "lng" : 74.369241
               }
            },
            "location" : {
               "lat" : 31.640425,
               "lng" : 74.36935440000001
            },
            "location_type" : "ROOFTOP",
            "viewport" : {
               "northeast" : {
                  "lat" : 31.6417796802915,
                  "lng" : 74.37070668029151
               },
               "southwest" : {
                  "lat" : 31.6390817197085,
                  "lng" : 74.3680087197085
               }
            }
         },
         "place_id" : "ChIJX8blkzAaGTkRtzpXzcrT-wE",
         "types" : [ "premise" ]
      },
      {
         "address_components" : [
            {
               "long_name" : "J9Q9+XJ2",
               "short_name" : "J9Q9+XJ2",
               "types" : [ "plus_code" ]
            },
            {
               "long_name" : "Karol",
               "short_name" : "Karol",
               "types" : [ "political", "sublocality", "sublocality_level_3" ]
            },
            {
               "long_name" : "Karol",
               "short_name" : "Karol",
               "types" : [ "locality", "political" ]
            },
            {
               "long_name" : "Lahore City",
               "short_name" : "Lahore City",
               "types" : [ "administrative_area_level_3", "political" ]
            },
            {
               "long_name" : "Lahore",
               "short_name" : "Lahore",
               "types" : [ "administrative_area_level_2", "political" ]
            },
            {
               "long_name" : "Punjab",
               "short_name" : "Punjab",
               "types" : [ "administrative_area_level_1", "political" ]
            },
            {
               "long_name" : "Pakistan",
               "short_name" : "PK",
               "types" : [ "country", "political" ]
            }
         ],
         "formatted_address" : "J9Q9+XJ2, Karol Lahore, Punjab, Pakistan",
         "geometry" : {
            "location" : {
               "lat" : 31.6398824,
               "lng" : 74.36901089999999
            },
            "location_type" : "GEOMETRIC_CENTER",
            "viewport" : {
               "northeast" : {
                  "lat" : 31.6412313802915,
                  "lng" : 74.37035988029149
               },
               "southwest" : {
                  "lat" : 31.6385334197085,
                  "lng" : 74.36766191970848
               }
            }
         },
         "place_id" : "ChIJGa4j0f4bGTkRaKSGox9PBvA",
         "types" : [ "establishment", "mosque", "place_of_worship", "point_of_interest" ]
      },
      {
         "address_components" : [
            {
               "long_name" : "J9R9+2Q",
               "short_name" : "J9R9+2Q",
               "types" : [ "plus_code" ]
            },
            {
               "long_name" : "Lahore",
               "short_name" : "Lahore",
               "types" : [ "locality", "political" ]
            },
            {
               "long_name" : "Lahore",
               "short_name" : "Lahore",
               "types" : [ "administrative_area_level_2", "political" ]
            },
            {
               "long_name" : "Punjab",
               "short_name" : "Punjab",
               "types" : [ "administrative_area_level_1", "political" ]
            },
            {
               "long_name" : "Pakistan",
               "short_name" : "PK",
               "types" : [ "country", "political" ]
            }
         ],
         "formatted_address" : "J9R9+2Q Lahore, Pakistan",
         "geometry" : {
            "bounds" : {
               "northeast" : {
                  "lat" : 31.64012499999999,
                  "lng" : 74.3695
               },
               "southwest" : {
                  "lat" : 31.64,
                  "lng" : 74.36937499999999
               }
            },
            "location" : {
               "lat" : 31.6400831,
               "lng" : 74.36945919999999
            },
            "location_type" : "GEOMETRIC_CENTER",
            "viewport" : {
               "northeast" : {
                  "lat" : 31.6414114802915,
                  "lng" : 74.3707864802915
               },
               "southwest" : {
                  "lat" : 31.6387135197085,
                  "lng" : 74.36808851970849
               }
            }
         },
         "place_id" : "GhIJ6DhtfNyjP0ARNE0zOKWXUkA",
         "plus_code" : {
            "compound_code" : "J9R9+2Q Lahore, Pakistan",
            "global_code" : "8J3PJ9R9+2Q"
         },
         "types" : [ "plus_code" ]
      },
      {
         "address_components" : [
            {
               "long_name" : "Unnamed Road",
               "short_name" : "Unnamed Road",
               "types" : [ "route" ]
            },
            {
               "long_name" : "Karol",
               "short_name" : "Karol",
               "types" : [ "political", "sublocality", "sublocality_level_3" ]
            },
            {
               "long_name" : "Lahore",
               "short_name" : "Lahore",
               "types" : [ "locality", "political" ]
            },
            {
               "long_name" : "Lahore City",
               "short_name" : "Lahore City",
               "types" : [ "administrative_area_level_3", "political" ]
            },
            {
               "long_name" : "Lahore",
               "short_name" : "Lahore",
               "types" : [ "administrative_area_level_2", "political" ]
            },
            {
               "long_name" : "Punjab",
               "short_name" : "Punjab",
               "types" : [ "administrative_area_level_1", "political" ]
            },
            {
               "long_name" : "Pakistan",
               "short_name" : "PK",
               "types" : [ "country", "political" ]
            }
         ],
         "formatted_address" : "Unnamed Road, Karol Lahore, Punjab, Pakistan",
         "geometry" : {
            "bounds" : {
               "northeast" : {
                  "lat" : 31.6405007,
                  "lng" : 74.36950539999999
               },
               "southwest" : {
                  "lat" : 31.6396586,
                  "lng" : 74.36940559999999
               }
            },
            "location" : {
               "lat" : 31.6400801,
               "lng" : 74.36944869999999
            },
            "location_type" : "GEOMETRIC_CENTER",
            "viewport" : {
               "northeast" : {
                  "lat" : 31.6414286302915,
                  "lng" : 74.37080448029151
               },
               "southwest" : {
                  "lat" : 31.6387306697085,
                  "lng" : 74.36810651970849
               }
            }
         },
         "place_id" : "ChIJcRlrljAaGTkRpPa8iX6KEsw",
         "types" : [ "route" ]
      },
      {
         "address_components" : [
            {
               "long_name" : "Karol",
               "short_name" : "Karol",
               "types" : [ "locality", "political" ]
            },
            {
               "long_name" : "Lahore",
               "short_name" : "Lahore",
               "types" : [ "administrative_area_level_2", "political" ]
            },
            {
               "long_name" : "Punjab",
               "short_name" : "Punjab",
               "types" : [ "administrative_area_level_1", "political" ]
            },
            {
               "long_name" : "Pakistan",
               "short_name" : "PK",
               "types" : [ "country", "political" ]
            }
         ],
         "formatted_address" : "Karol, Lahore, Punjab, Pakistan",
         "geometry" : {
            "bounds" : {
               "northeast" : {
                  "lat" : 31.64164409999999,
                  "lng" : 74.3735616
               },
               "southwest" : {
                  "lat" : 31.6346687,
                  "lng" : 74.36390539999999
               }
            },
            "location" : {
               "lat" : 31.6398824,
               "lng" : 74.3690108
            },
            "location_type" : "APPROXIMATE",
            "viewport" : {
               "northeast" : {
                  "lat" : 31.64164409999999,
                  "lng" : 74.3735616
               },
               "southwest" : {
                  "lat" : 31.6346687,
                  "lng" : 74.36390539999999
               }
            }
         },
         "place_id" : "ChIJuxMaNDcaGTkROHBhVijMbgA",
         "types" : [ "locality", "political" ]
      },
      {
         "address_components" : [
            {
               "long_name" : "Karol",
               "short_name" : "Karol",
               "types" : [ "political", "sublocality", "sublocality_level_3" ]
            },
            {
               "long_name" : "Lahore",
               "short_name" : "Lahore",
               "types" : [ "locality", "political" ]
            },
            {
               "long_name" : "Lahore",
               "short_name" : "Lahore",
               "types" : [ "administrative_area_level_2", "political" ]
            },
            {
               "long_name" : "Punjab",
               "short_name" : "Punjab",
               "types" : [ "administrative_area_level_1", "political" ]
            },
            {
               "long_name" : "Pakistan",
               "short_name" : "PK",
               "types" : [ "country", "political" ]
            }
         ],
         "formatted_address" : "Karol Lahore, Punjab, Pakistan",
         "geometry" : {
            "bounds" : {
               "northeast" : {
                  "lat" : 31.6430636,
                  "lng" : 74.3757248
               },
               "southwest" : {
                  "lat" : 31.633705,
                  "lng" : 74.36293049999999
               }
            },
            "location" : {
               "lat" : 31.6371018,
               "lng" : 74.3690108
            },
            "location_type" : "APPROXIMATE",
            "viewport" : {
               "northeast" : {
                  "lat" : 31.6430636,
                  "lng" : 74.3757248
               },
               "southwest" : {
                  "lat" : 31.633705,
                  "lng" : 74.36293049999999
               }
            }
         },
         "place_id" : "ChIJSbxwSzcaGTkR7iWW2ifZN-o",
         "types" : [ "political", "sublocality", "sublocality_level_3" ]
      },
      {
         "address_components" : [
            {
               "long_name" : "Muhammad",
               "short_name" : "Muhammad",
               "types" : [ "administrative_area_level_5", "political" ]
            },
            {
               "long_name" : "Lahore",
               "short_name" : "Lahore",
               "types" : [ "locality", "political" ]
            },
            {
               "long_name" : "Lahore",
               "short_name" : "Lahore",
               "types" : [ "administrative_area_level_2", "political" ]
            },
            {
               "long_name" : "Punjab",
               "short_name" : "Punjab",
               "types" : [ "administrative_area_level_1", "political" ]
            },
            {
               "long_name" : "Pakistan",
               "short_name" : "PK",
               "types" : [ "country", "political" ]
            }
         ],
         "formatted_address" : "Muhammad, Lahore, Punjab, Pakistan",
         "geometry" : {
            "bounds" : {
               "northeast" : {
                  "lat" : 31.6698838,
                  "lng" : 74.3970514
               },
               "southwest" : {
                  "lat" : 31.5981697,
                  "lng" : 74.35152719999999
               }
            },
            "location" : {
               "lat" : 31.6394079,
               "lng" : 74.3763415
            },
            "location_type" : "APPROXIMATE",
            "viewport" : {
               "northeast" : {
                  "lat" : 31.6698838,
                  "lng" : 74.3970514
               },
               "southwest" : {
                  "lat" : 31.5981697,
                  "lng" : 74.35152719999999
               }
            }
         },
         "place_id" : "ChIJGy8NmzgaGTkRkZmP4FHLR1Y",
         "types" : [ "administrative_area_level_5", "political" ]
      },
      {
         "address_components" : [
            {
               "long_name" : "Lahore City",
               "short_name" : "Lahore City",
               "types" : [ "administrative_area_level_3", "political" ]
            },
            {
               "long_name" : "Lahore",
               "short_name" : "Lahore",
               "types" : [ "administrative_area_level_2", "political" ]
            },
            {
               "long_name" : "Punjab",
               "short_name" : "Punjab",
               "types" : [ "administrative_area_level_1", "political" ]
            },
            {
               "long_name" : "Pakistan",
               "short_name" : "PK",
               "types" : [ "country", "political" ]
            }
         ],
         "formatted_address" : "Lahore City, Lahore, Punjab, Pakistan",
         "geometry" : {
            "bounds" : {
               "northeast" : {
                  "lat" : 31.669884,
                  "lng" : 74.39582299999999
               },
               "southwest" : {
                  "lat" : 31.2543339,
                  "lng" : 74.0068495
               }
            },
            "location" : {
               "lat" : 31.4329663,
               "lng" : 74.1944529
            },
            "location_type" : "APPROXIMATE",
            "viewport" : {
               "northeast" : {
                  "lat" : 31.669884,
                  "lng" : 74.39582299999999
               },
               "southwest" : {
                  "lat" : 31.2543339,
                  "lng" : 74.0068495
               }
            }
         },
         "place_id" : "ChIJU0eVDuT9GDkReHoSeZ1j6rg",
         "types" : [ "administrative_area_level_3", "political" ]
      },
      {
         "address_components" : [
            {
               "long_name" : "Lahore",
               "short_name" : "Lahore",
               "types" : [ "locality", "political" ]
            },
            {
               "long_name" : "Lahore",
               "short_name" : "Lahore",
               "types" : [ "administrative_area_level_2", "political" ]
            },
            {
               "long_name" : "Punjab",
               "short_name" : "Punjab",
               "types" : [ "administrative_area_level_1", "political" ]
            },
            {
               "long_name" : "Pakistan",
               "short_name" : "PK",
               "types" : [ "country", "political" ]
            }
         ],
         "formatted_address" : "Lahore, Punjab, Pakistan",
         "geometry" : {
            "bounds" : {
               "northeast" : {
                  "lat" : 31.69848649999999,
                  "lng" : 74.55323989999999
               },
               "southwest" : {
                  "lat" : 31.2673942,
                  "lng" : 74.1155387
               }
            },
            "location" : {
               "lat" : 31.5203696,
               "lng" : 74.35874729999999
            },
            "location_type" : "APPROXIMATE",
            "viewport" : {
               "northeast" : {
                  "lat" : 31.69848649999999,
                  "lng" : 74.55323989999999
               },
               "southwest" : {
                  "lat" : 31.2673942,
                  "lng" : 74.1155387
               }
            }
         },
         "place_id" : "ChIJ2QeB5YMEGTkRYiR-zGy-OsI",
         "types" : [ "locality", "political" ]
      },
      {
         "address_components" : [
            {
               "long_name" : "Lahore",
               "short_name" : "Lahore",
               "types" : [ "administrative_area_level_2", "political" ]
            },
            {
               "long_name" : "Punjab",
               "short_name" : "Punjab",
               "types" : [ "administrative_area_level_1", "political" ]
            },
            {
               "long_name" : "Pakistan",
               "short_name" : "PK",
               "types" : [ "country", "political" ]
            }
         ],
         "formatted_address" : "Lahore, Punjab, Pakistan",
         "geometry" : {
            "bounds" : {
               "northeast" : {
                  "lat" : 31.7326739,
                  "lng" : 74.64111319999999
               },
               "southwest" : {
                  "lat" : 31.2543339,
                  "lng" : 74.0068495
               }
            },
            "location" : {
               "lat" : 31.4312704,
               "lng" : 74.35874729999999
            },
            "location_type" : "APPROXIMATE",
            "viewport" : {
               "northeast" : {
                  "lat" : 31.7326739,
                  "lng" : 74.64111319999999
               },
               "southwest" : {
                  "lat" : 31.2543339,
                  "lng" : 74.0068495
               }
            }
         },
         "place_id" : "ChIJNfyfu-sDGTkRca4X8W4UGb4",
         "types" : [ "administrative_area_level_2", "political" ]
      },
      {
         "address_components" : [
            {
               "long_name" : "Punjab",
               "short_name" : "Punjab",
               "types" : [ "administrative_area_level_1", "political" ]
            },
            {
               "long_name" : "Pakistan",
               "short_name" : "PK",
               "types" : [ "country", "political" ]
            }
         ],
         "formatted_address" : "Punjab, Pakistan",
         "geometry" : {
            "bounds" : {
               "northeast" : {
                  "lat" : 34.0434647,
                  "lng" : 75.3796504
               },
               "southwest" : {
                  "lat" : 27.7056256,
                  "lng" : 69.3288726
               }
            },
            "location" : {
               "lat" : 31.1704063,
               "lng" : 72.70971609999999
            },
            "location_type" : "APPROXIMATE",
            "viewport" : {
               "northeast" : {
                  "lat" : 34.0434647,
                  "lng" : 75.3796504
               },
               "southwest" : {
                  "lat" : 27.7056256,
                  "lng" : 69.3288726
               }
            }
         },
         "place_id" : "ChIJy5pBdImU3zgRoOxO0hgwnjo",
         "types" : [ "administrative_area_level_1", "political" ]
      },
      {
         "address_components" : [
            {
               "long_name" : "Pakistan",
               "short_name" : "PK",
               "types" : [ "country", "political" ]
            }
         ],
         "formatted_address" : "Pakistan",
         "geometry" : {
            "bounds" : {
               "northeast" : {
                  "lat" : 37.0841069,
                  "lng" : 77.1204247
               },
               "southwest" : {
                  "lat" : 23.6344999,
                  "lng" : 60.8729721
               }
            },
            "location" : {
               "lat" : 30.375321,
               "lng" : 69.34511599999999
            },
            "location_type" : "APPROXIMATE",
            "viewport" : {
               "northeast" : {
                  "lat" : 37.0841069,
                  "lng" : 77.1204247
               },
               "southwest" : {
                  "lat" : 23.6344999,
                  "lng" : 60.8729721
               }
            }
         },
         "place_id" : "ChIJH3X9-NJS2zgRXJIU5veht0Y",
         "types" : [ "country", "political" ]
      }
   ],
   "status" : "OK"
}
