{
   "plus_code" : {
      "compound_code" : "39M8+22G Jiwan Gondal, Pakistan",
      "global_code" : "8J4J39M8+22G"
   },
   "results" : [
      {
         "address_components" : [
            {
               "long_name" : "39M8+22",
               "short_name" : "39M8+22",
               "types" : [ "plus_code" ]
            },
            {
               "long_name" : "Jiwan Gondal",
               "short_name" : "Jiwan Gondal",
               "types" : [ "locality", "political" ]
            },
            {
               "long_name" : "Shahpur",
               "short_name" : "Shahpur",
               "types" : [ "administrative_area_level_3", "political" ]
            },
            {
               "long_name" : "Sargodha",
               "short_name" : "Sargodha",
               "types" : [ "administrative_area_level_2", "political" ]
            },
            {
               "long_name" : "Punjab",
               "short_name" : "Punjab",
               "types" : [ "administrative_area_level_1", "political" ]
            },
            {
               "long_name" : "Pakistan",
               "short_name" : "PK",
               "types" : [ "country", "political" ]
            }
         ],
         "formatted_address" : "39M8+22 Jiwan Gondal, Pakistan",
         "geometry" : {
            "bounds" : {
               "northeast" : {
                  "lat" : 32.082625,
                  "lng" : 72.36512499999999
               },
               "southwest" : {
                  "lat" : 32.0825,
                  "lng" : 72.36500000000001
               }
            },
            "location" : {
               "lat" : 32.0825746,
               "lng" : 72.36507809999999
            },
            "location_type" : "GEOMETRIC_CENTER",
            "viewport" : {
               "northeast" : {
                  "lat" : 32.08391148029149,
                  "lng" : 72.36641148029152
               },
               "southwest" : {
                  "lat" : 32.0812135197085,
                  "lng" : 72.3637135197085
               }
            }
         },
         "place_id" : "GhIJej3zzZEKQEARF_-IcF0XUkA",
         "plus_code" : {
            "compound_code" : "39M8+22 Jiwan Gondal, Pakistan",
            "global_code" : "8J4J39M8+22"
         },
         "types" : [ "plus_code" ]
      },
      {
         "address_components" : [
            {
               "long_name" : "39J8+57R",
               "short_name" : "39J8+57R",
               "types" : [ "plus_code" ]
            },
            {
               "long_name" : "Jiwan Gondal",
               "short_name" : "Jiwan Gondal",
               "types" : [ "locality", "political" ]
            },
            {
               "long_name" : "Shahpur",
               "short_name" : "Shahpur",
               "types" : [ "administrative_area_level_3", "political" ]
            },
            {
               "long_name" : "Sargodha",
               "short_name" : "Sargodha",
               "types" : [ "administrative_area_level_2", "political" ]
            },
            {
               "long_name" : "Punjab",
               "short_name" : "Punjab",
               "types" : [ "administrative_area_level_1", "political" ]
            },
            {
               "long_name" : "Pakistan",
               "short_name" : "PK",
               "types" : [ "country", "political" ]
            }
         ],
         "formatted_address" : "39J8+57R, Jiwan Gondal, Sargodha, Punjab, Pakistan",
         "geometry" : {
            "location" : {
               "lat" : 32.0804984,
               "lng" : 72.3656429
            },
            "location_type" : "GEOMETRIC_CENTER",
            "viewport" : {
               "northeast" : {
                  "lat" : 32.0818473802915,
                  "lng" : 72.36699188029151
               },
               "southwest" : {
                  "lat" : 32.0791494197085,
                  "lng" : 72.3642939197085
               }
            }
         },
         "place_id" : "ChIJ____v5JpITkR8va6Z_eecmc",
         "types" : [ "establishment", "point_of_interest", "store" ]
      },
      {
         "address_components" : [
            {
               "long_name" : "39J8+57R",
               "short_name" : "39J8+57R",
               "types" : [ "plus_code" ]
            },
            {
               "long_name" : "Jiwan Gondal",
               "short_name" : "Jiwan Gondal",
               "types" : [ "locality", "political" ]
            },
            {
               "long_name" : "Shahpur",
               "short_name" : "Shahpur",
               "types" : [ "administrative_area_level_3", "political" ]
            },
            {
               "long_name" : "Sargodha",
               "short_name" : "Sargodha",
               "types" : [ "administrative_area_level_2", "political" ]
            },
            {
               "long_name" : "Punjab",
               "short_name" : "Punjab",
               "types" : [ "administrative_area_level_1", "political" ]
            },
            {
               "long_name" : "Pakistan",
               "short_name" : "PK",
               "types" : [ "country", "political" ]
            }
         ],
         "formatted_address" : "39J8+57R, Jiwan Gondal, Sargodha, Punjab, Pakistan",
         "geometry" : {
            "bounds" : {
               "northeast" : {
                  "lat" : 32.0805477,
                  "lng" : 72.3657673
               },
               "southwest" : {
                  "lat" : 32.0804488,
                  "lng" : 72.3655988
               }
            },
            "location" : {
               "lat" : 32.0804817,
               "lng" : 72.36572819999999
            },
            "location_type" : "ROOFTOP",
            "viewport" : {
               "northeast" : {
                  "lat" : 32.0818472302915,
                  "lng" : 72.36703203029151
               },
               "southwest" : {
                  "lat" : 32.0791492697085,
                  "lng" : 72.36433406970851
               }
            }
         },
         "place_id" : "ChIJ7VPXjpBpITkR725hx9wrMnU",
         "types" : [ "premise" ]
      },
      {
         "address_components" : [
            {
               "long_name" : "Shahpur Sahiwal Road",
               "short_name" : "Shahpur Sahiwal Rd",
               "types" : [ "route" ]
            },
            {
               "long_name" : "Shahpur",
               "short_name" : "Shahpur",
               "types" : [ "administrative_area_level_3", "political" ]
            },
            {
               "long_name" : "Sargodha",
               "short_name" : "Sargodha",
               "types" : [ "administrative_area_level_2", "political" ]
            },
            {
               "long_name" : "Punjab",
               "short_name" : "Punjab",
               "types" : [ "administrative_area_level_1", "political" ]
            },
            {
               "long_name" : "Pakistan",
               "short_name" : "PK",
               "types" : [ "country", "political" ]
            }
         ],
         "formatted_address" : "Shahpur Sahiwal Rd, Sargodha, Punjab, Pakistan",
         "geometry" : {
            "bounds" : {
               "northeast" : {
                  "lat" : 32.0833412,
                  "lng" : 72.3668005
               },
               "southwest" : {
                  "lat" : 32.0793184,
                  "lng" : 72.3655916
               }
            },
            "location" : {
               "lat" : 32.0813332,
               "lng" : 72.3661796
            },
            "location_type" : "GEOMETRIC_CENTER",
            "viewport" : {
               "northeast" : {
                  "lat" : 32.0833412,
                  "lng" : 72.36754503029151
               },
               "southwest" : {
                  "lat" : 32.0793184,
                  "lng" : 72.36484706970849
               }
            }
         },
         "place_id" : "ChIJ31Mil5BpITkRMrnkPV_j5l0",
         "types" : [ "route" ]
      },
      {
         "address_components" : [
            {
               "long_name" : "Mangowal Khu",
               "short_name" : "Mangowal Khu",
               "types" : [ "administrative_area_level_5", "political" ]
            },
            {
               "long_name" : "Shahpur",
               "short_name" : "Shahpur",
               "types" : [ "administrative_area_level_3", "political" ]
            },
            {
               "long_name" : "Sargodha",
               "short_name" : "Sargodha",
               "types" : [ "administrative_area_level_2", "political" ]
            },
            {
               "long_name" : "Punjab",
               "short_name" : "Punjab",
               "types" : [ "administrative_area_level_1", "political" ]
            },
            {
               "long_name" : "Pakistan",
               "short_name" : "PK",
               "types" : [ "country", "political" ]
            }
         ],
         "formatted_address" : "Mangowal Khu, Sargodha, Punjab, Pakistan",
         "geometry" : {
            "bounds" : {
               "northeast" : {
                  "lat" : 32.1271815,
                  "lng" : 72.41777499999999
               },
               "southwest" : {
                  "lat" : 32.0716868,
                  "lng" : 72.32545229999999
               }
            },
            "location" : {
               "lat" : 32.1057699,
               "lng" : 72.36663
            },
            "location_type" : "APPROXIMATE",
            "viewport" : {
               "northeast" : {
                  "lat" : 32.1271815,
                  "lng" : 72.41777499999999
               },
               "southwest" : {
                  "lat" : 32.0716868,
                  "lng" : 72.32545229999999
               }
            }
         },
         "place_id" : "ChIJ83wAaSlqITkRKi4bsmcynzg",
         "types" : [ "administrative_area_level_5", "political" ]
      },
      {
         "address_components" : [
            {
               "long_name" : "Shahpur",
               "short_name" : "Shahpur",
               "types" : [ "administrative_area_level_3", "political" ]
            },
            {
               "long_name" : "Sargodha",
               "short_name" : "Sargodha",
               "types" : [ "administrative_area_level_2", "political" ]
            },
            {
               "long_name" : "Punjab",
               "short_name" : "Punjab",
               "types" : [ "administrative_area_level_1", "political" ]
            },
            {
               "long_name" : "Pakistan",
               "short_name" : "PK",
               "types" : [ "country", "political" ]
            }
         ],
         "formatted_address" : "Shahpur, Sargodha, Punjab, Pakistan",
         "geometry" : {
            "bounds" : {
               "northeast" : {
                  "lat" : 32.398447,
                  "lng" : 72.732675
               },
               "southwest" : {
                  "lat" : 32.002398,
                  "lng" : 72.325019
               }
            },
            "location" : {
               "lat" : 32.2553728,
               "lng" : 72.5678041
            },
            "location_type" : "APPROXIMATE",
            "viewport" : {
               "northeast" : {
                  "lat" : 32.398447,
                  "lng" : 72.732675
               },
               "southwest" : {
                  "lat" : 32.002398,
                  "lng" : 72.325019
               }
            }
         },
         "place_id" : "ChIJrYvPKaxyITkRdgBDrQkvuUY",
         "types" : [ "administrative_area_level_3", "political" ]
      },
      {
         "address_components" : [
            {
               "long_name" : "Sargodha",
               "short_name" : "Sargodha",
               "types" : [ "administrative_area_level_2", "political" ]
            },
            {
               "long_name" : "Punjab",
               "short_name" : "Punjab",
               "types" : [ "administrative_area_level_1", "political" ]
            },
            {
               "long_name" : "Pakistan",
               "short_name" : "PK",
               "types" : [ "country", "political" ]
            }
         ],
         "formatted_address" : "Sargodha, Punjab, Pakistan",
         "geometry" : {
            "bounds" : {
               "northeast" : {
                  "lat" : 32.5712785,
                  "lng" : 73.31019239999999
               },
               "southwest" : {
                  "lat" : 31.5566249,
                  "lng" : 72.21704679999999
               }
            },
            "location" : {
               "lat" : 32.156592,
               "lng" : 72.8042797
            },
            "location_type" : "APPROXIMATE",
            "viewport" : {
               "northeast" : {
                  "lat" : 32.5712785,
                  "lng" : 73.31019239999999
               },
               "southwest" : {
                  "lat" : 31.5566249,
                  "lng" : 72.21704679999999
               }
            }
         },
         "place_id" : "ChIJ0S6JJZadITkRmlmemFkTNjk",
         "types" : [ "administrative_area_level_2", "political" ]
      },
      {
         "address_components" : [
            {
               "long_name" : "Punjab",
               "short_name" : "Punjab",
               "types" : [ "administrative_area_level_1", "political" ]
            },
            {
               "long_name" : "Pakistan",
               "short_name" : "PK",
               "types" : [ "country", "political" ]
            }
         ],
         "formatted_address" : "Punjab, Pakistan",
         "geometry" : {
            "bounds" : {
               "northeast" : {
                  "lat" : 34.0434647,
                  "lng" : 75.3796504
               },
               "southwest" : {
                  "lat" : 27.7056256,
                  "lng" : 69.3288726
               }
            },
            "location" : {
               "lat" : 31.1704063,
               "lng" : 72.70971609999999
            },
            "location_type" : "APPROXIMATE",
            "viewport" : {
               "northeast" : {
                  "lat" : 34.0434647,
                  "lng" : 75.3796504
               },
               "southwest" : {
                  "lat" : 27.7056256,
                  "lng" : 69.3288726
               }
            }
         },
         "place_id" : "ChIJy5pBdImU3zgRoOxO0hgwnjo",
         "types" : [ "administrative_area_level_1", "political" ]
      },
      {
         "address_components" : [
            {
               "long_name" : "Pakistan",
               "short_name" : "PK",
               "types" : [ "country", "political" ]
            }
         ],
         "formatted_address" : "Pakistan",
         "geometry" : {
            "bounds" : {
               "northeast" : {
                  "lat" : 37.0841069,
                  "lng" : 77.1204247
               },
               "southwest" : {
                  "lat" : 23.6344999,
                  "lng" : 60.8729721
               }
            },
            "location" : {
               "lat" : 30.375321,
               "lng" : 69.34511599999999
            },
            "location_type" : "APPROXIMATE",
            "viewport" : {
               "northeast" : {
                  "lat" : 37.0841069,
                  "lng" : 77.1204247
               },
               "southwest" : {
                  "lat" : 23.6344999,
                  "lng" : 60.8729721
               }
            }
         },
         "place_id" : "ChIJH3X9-NJS2zgRXJIU5veht0Y",
         "types" : [ "country", "political" ]
      }
   ],
   "status" : "OK"
}
