{
   "plus_code" : {
      "compound_code" : "H9W7+M66 Lahore, Pakistan",
      "global_code" : "8J3PH9W7+M66"
   },
   "results" : [
      {
         "address_components" : [
            {
               "long_name" : "H9W7+JFW",
               "short_name" : "H9W7+JFW",
               "types" : [ "plus_code" ]
            },
            {
               "long_name" : "Tariq Shaheed Road",
               "short_name" : "Tariq Shaheed Rd",
               "types" : [ "route" ]
            },
            {
               "long_name" : "Gujjar Pura",
               "short_name" : "Gujjar Pura",
               "types" : [ "neighborhood", "political" ]
            },
            {
               "long_name" : "Gujjar Pura",
               "short_name" : "Gujjar Pura",
               "types" : [ "political", "sublocality", "sublocality_level_2" ]
            },
            {
               "long_name" : "Kot Khawaja Saeed",
               "short_name" : "Kot Khawaja Saeed",
               "types" : [ "political", "sublocality", "sublocality_level_1" ]
            },
            {
               "long_name" : "Lahore",
               "short_name" : "Lahore",
               "types" : [ "locality", "political" ]
            },
            {
               "long_name" : "Lahore Cantt",
               "short_name" : "Lahore Cantt",
               "types" : [ "administrative_area_level_3", "political" ]
            },
            {
               "long_name" : "Lahore",
               "short_name" : "Lahore",
               "types" : [ "administrative_area_level_2", "political" ]
            },
            {
               "long_name" : "Punjab",
               "short_name" : "Punjab",
               "types" : [ "administrative_area_level_1", "political" ]
            },
            {
               "long_name" : "Pakistan",
               "short_name" : "PK",
               "types" : [ "country", "political" ]
            },
            {
               "long_name" : "54000",
               "short_name" : "54000",
               "types" : [ "postal_code" ]
            }
         ],
         "formatted_address" : "H9W7+JFW, Tariq Shaheed Rd, Gujjar Pura Kot Khawaja Saeed, Lahore, Punjab 54000, Pakistan",
         "geometry" : {
            "location" : {
               "lat" : 31.5966112,
               "lng" : 74.3637071
            },
            "location_type" : "GEOMETRIC_CENTER",
            "viewport" : {
               "northeast" : {
                  "lat" : 31.5979601802915,
                  "lng" : 74.36505608029151
               },
               "southwest" : {
                  "lat" : 31.5952622197085,
                  "lng" : 74.3623581197085
               }
            }
         },
         "place_id" : "ChIJydYebeMaGTkRUvfIepkBV_0",
         "types" : [ "establishment", "point_of_interest", "university" ]
      },
      {
         "address_components" : [
            {
               "long_name" : "H9W7+M6",
               "short_name" : "H9W7+M6",
               "types" : [ "plus_code" ]
            },
            {
               "long_name" : "Lahore",
               "short_name" : "Lahore",
               "types" : [ "locality", "political" ]
            },
            {
               "long_name" : "Lahore",
               "short_name" : "Lahore",
               "types" : [ "administrative_area_level_2", "political" ]
            },
            {
               "long_name" : "Punjab",
               "short_name" : "Punjab",
               "types" : [ "administrative_area_level_1", "political" ]
            },
            {
               "long_name" : "Pakistan",
               "short_name" : "PK",
               "types" : [ "country", "political" ]
            }
         ],
         "formatted_address" : "H9W7+M6 Lahore, Pakistan",
         "geometry" : {
            "bounds" : {
               "northeast" : {
                  "lat" : 31.59675,
                  "lng" : 74.363125
               },
               "southwest" : {
                  "lat" : 31.596625,
                  "lng" : 74.363
               }
            },
            "location" : {
               "lat" : 31.5966677,
               "lng" : 74.3630218
            },
            "location_type" : "GEOMETRIC_CENTER",
            "viewport" : {
               "northeast" : {
                  "lat" : 31.5980364802915,
                  "lng" : 74.36441148029149
               },
               "southwest" : {
                  "lat" : 31.5953385197085,
                  "lng" : 74.36171351970849
               }
            }
         },
         "place_id" : "GhIJXBTiNr-YP0ARC6_JvzuXUkA",
         "plus_code" : {
            "compound_code" : "H9W7+M6 Lahore, Pakistan",
            "global_code" : "8J3PH9W7+M6"
         },
         "types" : [ "plus_code" ]
      },
      {
         "address_components" : [
            {
               "long_name" : "Tariq Shaheed Road",
               "short_name" : "Tariq Shaheed Rd",
               "types" : [ "route" ]
            },
            {
               "long_name" : "Gujjar Pura",
               "short_name" : "Gujjar Pura",
               "types" : [ "political", "sublocality", "sublocality_level_2" ]
            },
            {
               "long_name" : "Kot Khawaja Saeed",
               "short_name" : "Kot Khawaja Saeed",
               "types" : [ "political", "sublocality", "sublocality_level_1" ]
            },
            {
               "long_name" : "Lahore",
               "short_name" : "Lahore",
               "types" : [ "locality", "political" ]
            },
            {
               "long_name" : "Lahore Cantt",
               "short_name" : "Lahore Cantt",
               "types" : [ "administrative_area_level_3", "political" ]
            },
            {
               "long_name" : "Lahore",
               "short_name" : "Lahore",
               "types" : [ "administrative_area_level_2", "political" ]
            },
            {
               "long_name" : "Punjab",
               "short_name" : "Punjab",
               "types" : [ "administrative_area_level_1", "political" ]
            },
            {
               "long_name" : "Pakistan",
               "short_name" : "PK",
               "types" : [ "country", "political" ]
            },
            {
               "long_name" : "54000",
               "short_name" : "54000",
               "types" : [ "postal_code" ]
            }
         ],
         "formatted_address" : "Tariq Shaheed Rd, Gujjar Pura Kot Khawaja Saeed, Lahore, Punjab 54000, Pakistan",
         "geometry" : {
            "bounds" : {
               "northeast" : {
                  "lat" : 31.5976996,
                  "lng" : 74.36417730000001
               },
               "southwest" : {
                  "lat" : 31.596581,
                  "lng" : 74.36209049999999
               }
            },
            "location" : {
               "lat" : 31.5971403,
               "lng" : 74.36313389999999
            },
            "location_type" : "GEOMETRIC_CENTER",
            "viewport" : {
               "northeast" : {
                  "lat" : 31.5984892802915,
                  "lng" : 74.36448288029152
               },
               "southwest" : {
                  "lat" : 31.5957913197085,
                  "lng" : 74.3617849197085
               }
            }
         },
         "place_id" : "ChIJ2WpeE-MaGTkRoAwL7zluv0g",
         "types" : [ "route" ]
      },
      {
         "address_components" : [
            {
               "long_name" : "Gujjar Pura",
               "short_name" : "Gujjar Pura",
               "types" : [ "neighborhood", "political" ]
            },
            {
               "long_name" : "Gujjar Pura",
               "short_name" : "Gujjar Pura",
               "types" : [ "political", "sublocality", "sublocality_level_2" ]
            },
            {
               "long_name" : "China Scheme",
               "short_name" : "China Scheme",
               "types" : [ "political", "sublocality", "sublocality_level_1" ]
            },
            {
               "long_name" : "Lahore",
               "short_name" : "Lahore",
               "types" : [ "locality", "political" ]
            },
            {
               "long_name" : "Lahore Cantt",
               "short_name" : "Lahore Cantt",
               "types" : [ "administrative_area_level_3", "political" ]
            },
            {
               "long_name" : "Lahore",
               "short_name" : "Lahore",
               "types" : [ "administrative_area_level_2", "political" ]
            },
            {
               "long_name" : "Punjab",
               "short_name" : "Punjab",
               "types" : [ "administrative_area_level_1", "political" ]
            },
            {
               "long_name" : "Pakistan",
               "short_name" : "PK",
               "types" : [ "country", "political" ]
            },
            {
               "long_name" : "54000",
               "short_name" : "54000",
               "types" : [ "postal_code" ]
            }
         ],
         "formatted_address" : "Gujjar Pura China Scheme, Lahore, Punjab 54000, Pakistan",
         "geometry" : {
            "bounds" : {
               "northeast" : {
                  "lat" : 31.5976228,
                  "lng" : 74.3643254
               },
               "southwest" : {
                  "lat" : 31.5930854,
                  "lng" : 74.3599212
               }
            },
            "location" : {
               "lat" : 31.5952569,
               "lng" : 74.3624129
            },
            "location_type" : "APPROXIMATE",
            "viewport" : {
               "northeast" : {
                  "lat" : 31.5976228,
                  "lng" : 74.3643254
               },
               "southwest" : {
                  "lat" : 31.5930854,
                  "lng" : 74.3599212
               }
            }
         },
         "place_id" : "ChIJqWSTsOMaGTkRmTX8D1DLbCU",
         "types" : [ "neighborhood", "political" ]
      },
      {
         "address_components" : [
            {
               "long_name" : "Gujjar Pura",
               "short_name" : "Gujjar Pura",
               "types" : [ "political", "sublocality", "sublocality_level_2" ]
            },
            {
               "long_name" : "Kot Khawaja Saeed",
               "short_name" : "Kot Khawaja Saeed",
               "types" : [ "political", "sublocality", "sublocality_level_1" ]
            },
            {
               "long_name" : "Lahore",
               "short_name" : "Lahore",
               "types" : [ "locality", "political" ]
            },
            {
               "long_name" : "Lahore Cantt",
               "short_name" : "Lahore Cantt",
               "types" : [ "administrative_area_level_3", "political" ]
            },
            {
               "long_name" : "Lahore",
               "short_name" : "Lahore",
               "types" : [ "administrative_area_level_2", "political" ]
            },
            {
               "long_name" : "Punjab",
               "short_name" : "Punjab",
               "types" : [ "administrative_area_level_1", "political" ]
            },
            {
               "long_name" : "Pakistan",
               "short_name" : "PK",
               "types" : [ "country", "political" ]
            },
            {
               "long_name" : "54000",
               "short_name" : "54000",
               "types" : [ "postal_code" ]
            }
         ],
         "formatted_address" : "Gujjar Pura Kot Khawaja Saeed, Lahore, Punjab 54000, Pakistan",
         "geometry" : {
            "bounds" : {
               "northeast" : {
                  "lat" : 31.5979753,
                  "lng" : 74.3643625
               },
               "southwest" : {
                  "lat" : 31.5930841,
                  "lng" : 74.35978609999999
               }
            },
            "location" : {
               "lat" : 31.5952569,
               "lng" : 74.3624129
            },
            "location_type" : "APPROXIMATE",
            "viewport" : {
               "northeast" : {
                  "lat" : 31.5979753,
                  "lng" : 74.3643625
               },
               "southwest" : {
                  "lat" : 31.5930841,
                  "lng" : 74.35978609999999
               }
            }
         },
         "place_id" : "ChIJe9-uruMaGTkR6g6Dg_azkTk",
         "types" : [ "political", "sublocality", "sublocality_level_2" ]
      },
      {
         "address_components" : [
            {
               "long_name" : "Kot Khawaja Saeed",
               "short_name" : "Kot Khawaja Saeed",
               "types" : [ "political", "sublocality", "sublocality_level_1" ]
            },
            {
               "long_name" : "Lahore",
               "short_name" : "Lahore",
               "types" : [ "locality", "political" ]
            },
            {
               "long_name" : "Lahore",
               "short_name" : "Lahore",
               "types" : [ "administrative_area_level_2", "political" ]
            },
            {
               "long_name" : "Punjab",
               "short_name" : "Punjab",
               "types" : [ "administrative_area_level_1", "political" ]
            },
            {
               "long_name" : "Pakistan",
               "short_name" : "PK",
               "types" : [ "country", "political" ]
            }
         ],
         "formatted_address" : "Kot Khawaja Saeed, Lahore, Punjab, Pakistan",
         "geometry" : {
            "bounds" : {
               "northeast" : {
                  "lat" : 31.6000339,
                  "lng" : 74.36941139999999
               },
               "southwest" : {
                  "lat" : 31.5817977,
                  "lng" : 74.3504751
               }
            },
            "location" : {
               "lat" : 31.5902975,
               "lng" : 74.36167979999999
            },
            "location_type" : "APPROXIMATE",
            "viewport" : {
               "northeast" : {
                  "lat" : 31.6000339,
                  "lng" : 74.36941139999999
               },
               "southwest" : {
                  "lat" : 31.5817977,
                  "lng" : 74.3504751
               }
            }
         },
         "place_id" : "ChIJu3jXAx8bGTkREncHB7meb7M",
         "types" : [ "political", "sublocality", "sublocality_level_1" ]
      },
      {
         "address_components" : [
            {
               "long_name" : "Gujjar Pura",
               "short_name" : "Gujjar Pura",
               "types" : [ "administrative_area_level_5", "political" ]
            },
            {
               "long_name" : "Lahore",
               "short_name" : "Lahore",
               "types" : [ "locality", "political" ]
            },
            {
               "long_name" : "Lahore",
               "short_name" : "Lahore",
               "types" : [ "administrative_area_level_2", "political" ]
            },
            {
               "long_name" : "Punjab",
               "short_name" : "Punjab",
               "types" : [ "administrative_area_level_1", "political" ]
            },
            {
               "long_name" : "Pakistan",
               "short_name" : "PK",
               "types" : [ "country", "political" ]
            }
         ],
         "formatted_address" : "Gujjar Pura, Lahore, Punjab, Pakistan",
         "geometry" : {
            "bounds" : {
               "northeast" : {
                  "lat" : 31.6540466,
                  "lng" : 74.36853619999999
               },
               "southwest" : {
                  "lat" : 31.59270979999999,
                  "lng" : 74.3444837
               }
            },
            "location" : {
               "lat" : 31.6229393,
               "lng" : 74.35581479999999
            },
            "location_type" : "APPROXIMATE",
            "viewport" : {
               "northeast" : {
                  "lat" : 31.6540466,
                  "lng" : 74.36853619999999
               },
               "southwest" : {
                  "lat" : 31.59270979999999,
                  "lng" : 74.3444837
               }
            }
         },
         "place_id" : "ChIJdTmoBLMbGTkRtoTo3n5GhD4",
         "types" : [ "administrative_area_level_5", "political" ]
      },
      {
         "address_components" : [
            {
               "long_name" : "54000",
               "short_name" : "54000",
               "types" : [ "postal_code" ]
            },
            {
               "long_name" : "Lahore",
               "short_name" : "Lahore",
               "types" : [ "locality", "political" ]
            },
            {
               "long_name" : "Lahore",
               "short_name" : "Lahore",
               "types" : [ "administrative_area_level_2", "political" ]
            },
            {
               "long_name" : "Punjab",
               "short_name" : "Punjab",
               "types" : [ "administrative_area_level_1", "political" ]
            },
            {
               "long_name" : "Pakistan",
               "short_name" : "PK",
               "types" : [ "country", "political" ]
            }
         ],
         "formatted_address" : "Lahore, Punjab 54000, Pakistan",
         "geometry" : {
            "bounds" : {
               "northeast" : {
                  "lat" : 31.60925569999999,
                  "lng" : 74.408593
               },
               "southwest" : {
                  "lat" : 31.472901,
                  "lng" : 74.264883
               }
            },
            "location" : {
               "lat" : 31.5440886,
               "lng" : 74.3839007
            },
            "location_type" : "APPROXIMATE",
            "viewport" : {
               "northeast" : {
                  "lat" : 31.60925569999999,
                  "lng" : 74.408593
               },
               "southwest" : {
                  "lat" : 31.472901,
                  "lng" : 74.264883
               }
            }
         },
         "place_id" : "ChIJRX3P62oFGTkRBviLWHxBNe0",
         "types" : [ "postal_code" ]
      },
      {
         "address_components" : [
            {
               "long_name" : "Lahore Cantt",
               "short_name" : "Lahore Cantt",
               "types" : [ "administrative_area_level_3", "political" ]
            },
            {
               "long_name" : "Lahore",
               "short_name" : "Lahore",
               "types" : [ "administrative_area_level_2", "political" ]
            },
            {
               "long_name" : "Punjab",
               "short_name" : "Punjab",
               "types" : [ "administrative_area_level_1", "political" ]
            },
            {
               "long_name" : "Pakistan",
               "short_name" : "PK",
               "types" : [ "country", "political" ]
            }
         ],
         "formatted_address" : "Lahore Cantt, Lahore, Punjab, Pakistan",
         "geometry" : {
            "bounds" : {
               "northeast" : {
                  "lat" : 31.7326737,
                  "lng" : 74.64111319999999
               },
               "southwest" : {
                  "lat" : 31.281605,
                  "lng" : 74.2479031
               }
            },
            "location" : {
               "lat" : 31.53204,
               "lng" : 74.4525627
            },
            "location_type" : "APPROXIMATE",
            "viewport" : {
               "northeast" : {
                  "lat" : 31.7326737,
                  "lng" : 74.64111319999999
               },
               "southwest" : {
                  "lat" : 31.281605,
                  "lng" : 74.2479031
               }
            }
         },
         "place_id" : "ChIJJ75MHRkPGTkRJIDFq6b2v2k",
         "types" : [ "administrative_area_level_3", "political" ]
      },
      {
         "address_components" : [
            {
               "long_name" : "Lahore",
               "short_name" : "Lahore",
               "types" : [ "locality", "political" ]
            },
            {
               "long_name" : "Lahore",
               "short_name" : "Lahore",
               "types" : [ "administrative_area_level_2", "political" ]
            },
            {
               "long_name" : "Punjab",
               "short_name" : "Punjab",
               "types" : [ "administrative_area_level_1", "political" ]
            },
            {
               "long_name" : "Pakistan",
               "short_name" : "PK",
               "types" : [ "country", "political" ]
            }
         ],
         "formatted_address" : "Lahore, Punjab, Pakistan",
         "geometry" : {
            "bounds" : {
               "northeast" : {
                  "lat" : 31.69848649999999,
                  "lng" : 74.55323989999999
               },
               "southwest" : {
                  "lat" : 31.2673942,
                  "lng" : 74.1155387
               }
            },
            "location" : {
               "lat" : 31.5203696,
               "lng" : 74.35874729999999
            },
            "location_type" : "APPROXIMATE",
            "viewport" : {
               "northeast" : {
                  "lat" : 31.69848649999999,
                  "lng" : 74.55323989999999
               },
               "southwest" : {
                  "lat" : 31.2673942,
                  "lng" : 74.1155387
               }
            }
         },
         "place_id" : "ChIJ2QeB5YMEGTkRYiR-zGy-OsI",
         "types" : [ "locality", "political" ]
      },
      {
         "address_components" : [
            {
               "long_name" : "Lahore",
               "short_name" : "Lahore",
               "types" : [ "administrative_area_level_2", "political" ]
            },
            {
               "long_name" : "Punjab",
               "short_name" : "Punjab",
               "types" : [ "administrative_area_level_1", "political" ]
            },
            {
               "long_name" : "Pakistan",
               "short_name" : "PK",
               "types" : [ "country", "political" ]
            }
         ],
         "formatted_address" : "Lahore, Punjab, Pakistan",
         "geometry" : {
            "bounds" : {
               "northeast" : {
                  "lat" : 31.7326739,
                  "lng" : 74.64111319999999
               },
               "southwest" : {
                  "lat" : 31.2543339,
                  "lng" : 74.0068495
               }
            },
            "location" : {
               "lat" : 31.4312704,
               "lng" : 74.35874729999999
            },
            "location_type" : "APPROXIMATE",
            "viewport" : {
               "northeast" : {
                  "lat" : 31.7326739,
                  "lng" : 74.64111319999999
               },
               "southwest" : {
                  "lat" : 31.2543339,
                  "lng" : 74.0068495
               }
            }
         },
         "place_id" : "ChIJNfyfu-sDGTkRca4X8W4UGb4",
         "types" : [ "administrative_area_level_2", "political" ]
      },
      {
         "address_components" : [
            {
               "long_name" : "Punjab",
               "short_name" : "Punjab",
               "types" : [ "administrative_area_level_1", "political" ]
            },
            {
               "long_name" : "Pakistan",
               "short_name" : "PK",
               "types" : [ "country", "political" ]
            }
         ],
         "formatted_address" : "Punjab, Pakistan",
         "geometry" : {
            "bounds" : {
               "northeast" : {
                  "lat" : 34.0434647,
                  "lng" : 75.3796504
               },
               "southwest" : {
                  "lat" : 27.7056256,
                  "lng" : 69.3288726
               }
            },
            "location" : {
               "lat" : 31.1704063,
               "lng" : 72.70971609999999
            },
            "location_type" : "APPROXIMATE",
            "viewport" : {
               "northeast" : {
                  "lat" : 34.0434647,
                  "lng" : 75.3796504
               },
               "southwest" : {
                  "lat" : 27.7056256,
                  "lng" : 69.3288726
               }
            }
         },
         "place_id" : "ChIJy5pBdImU3zgRoOxO0hgwnjo",
         "types" : [ "administrative_area_level_1", "political" ]
      },
      {
         "address_components" : [
            {
               "long_name" : "Pakistan",
               "short_name" : "PK",
               "types" : [ "country", "political" ]
            }
         ],
         "formatted_address" : "Pakistan",
         "geometry" : {
            "bounds" : {
               "northeast" : {
                  "lat" : 37.0841069,
                  "lng" : 77.1204247
               },
               "southwest" : {
                  "lat" : 23.6344999,
                  "lng" : 60.8729721
               }
            },
            "location" : {
               "lat" : 30.375321,
               "lng" : 69.34511599999999
            },
            "location_type" : "APPROXIMATE",
            "viewport" : {
               "northeast" : {
                  "lat" : 37.0841069,
                  "lng" : 77.1204247
               },
               "southwest" : {
                  "lat" : 23.6344999,
                  "lng" : 60.8729721
               }
            }
         },
         "place_id" : "ChIJH3X9-NJS2zgRXJIU5veht0Y",
         "types" : [ "country", "political" ]
      }
   ],
   "status" : "OK"
}
