{
   "plus_code" : {
      "compound_code" : "XF74+22G Dera Qadeem, Pakistan",
      "global_code" : "8J3JXF74+22G"
   },
   "results" : [
      {
         "address_components" : [
            {
               "long_name" : "XF74+22",
               "short_name" : "XF74+22",
               "types" : [ "plus_code" ]
            },
            {
               "long_name" : "Dera Qadeem",
               "short_name" : "Dera Qadeem",
               "types" : [ "locality", "political" ]
            },
            {
               "long_name" : "Sahiwal (Sardogha)",
               "short_name" : "Sahiwal (Sardogha)",
               "types" : [ "administrative_area_level_3", "political" ]
            },
            {
               "long_name" : "Sargodha",
               "short_name" : "Sargodha",
               "types" : [ "administrative_area_level_2", "political" ]
            },
            {
               "long_name" : "Punjab",
               "short_name" : "Punjab",
               "types" : [ "administrative_area_level_1", "political" ]
            },
            {
               "long_name" : "Pakistan",
               "short_name" : "PK",
               "types" : [ "country", "political" ]
            }
         ],
         "formatted_address" : "XF74+22 Dera Qadeem, Pakistan",
         "geometry" : {
            "bounds" : {
               "northeast" : {
                  "lat" : 31.962625,
                  "lng" : 72.455125
               },
               "southwest" : {
                  "lat" : 31.9625,
                  "lng" : 72.455
               }
            },
            "location" : {
               "lat" : 31.9625746,
               "lng" : 72.45507809999999
            },
            "location_type" : "GEOMETRIC_CENTER",
            "viewport" : {
               "northeast" : {
                  "lat" : 31.9639114802915,
                  "lng" : 72.45641148029151
               },
               "southwest" : {
                  "lat" : 31.9612135197085,
                  "lng" : 72.4537135197085
               }
            }
         },
         "place_id" : "GhIJ1vX6SWv2P0ARDSjl_x8dUkA",
         "plus_code" : {
            "compound_code" : "XF74+22 Dera Qadeem, Pakistan",
            "global_code" : "8J3JXF74+22"
         },
         "types" : [ "plus_code" ]
      },
      {
         "address_components" : [
            {
               "long_name" : "Unnamed Road",
               "short_name" : "Unnamed Road",
               "types" : [ "route" ]
            },
            {
               "long_name" : "Sahiwal (Sardogha)",
               "short_name" : "Sahiwal (Sardogha)",
               "types" : [ "administrative_area_level_3", "political" ]
            },
            {
               "long_name" : "Sargodha",
               "short_name" : "Sargodha",
               "types" : [ "administrative_area_level_2", "political" ]
            },
            {
               "long_name" : "Punjab",
               "short_name" : "Punjab",
               "types" : [ "administrative_area_level_1", "political" ]
            },
            {
               "long_name" : "Pakistan",
               "short_name" : "PK",
               "types" : [ "country", "political" ]
            }
         ],
         "formatted_address" : "Unnamed Road, Sargodha, Punjab, Pakistan",
         "geometry" : {
            "bounds" : {
               "northeast" : {
                  "lat" : 31.9648591,
                  "lng" : 72.45779600000002
               },
               "southwest" : {
                  "lat" : 31.9610541,
                  "lng" : 72.45395549999999
               }
            },
            "location" : {
               "lat" : 31.9629605,
               "lng" : 72.45588669999999
            },
            "location_type" : "GEOMETRIC_CENTER",
            "viewport" : {
               "northeast" : {
                  "lat" : 31.9648591,
                  "lng" : 72.45779600000002
               },
               "southwest" : {
                  "lat" : 31.9610541,
                  "lng" : 72.45395549999999
               }
            }
         },
         "place_id" : "ChIJlQ3l3UVkITkR6N0VS9Ug6-M",
         "types" : [ "route" ]
      },
      {
         "address_components" : [
            {
               "long_name" : "Wijh",
               "short_name" : "Wijh",
               "types" : [ "administrative_area_level_5", "political" ]
            },
            {
               "long_name" : "Sargodha",
               "short_name" : "Sargodha",
               "types" : [ "administrative_area_level_2", "political" ]
            },
            {
               "long_name" : "Punjab",
               "short_name" : "Punjab",
               "types" : [ "administrative_area_level_1", "political" ]
            },
            {
               "long_name" : "Pakistan",
               "short_name" : "PK",
               "types" : [ "country", "political" ]
            }
         ],
         "formatted_address" : "Wijh, Sargodha, Punjab, Pakistan",
         "geometry" : {
            "bounds" : {
               "northeast" : {
                  "lat" : 31.9894656,
                  "lng" : 72.56897579999999
               },
               "southwest" : {
                  "lat" : 31.9252582,
                  "lng" : 72.39936539999999
               }
            },
            "location" : {
               "lat" : 31.9617904,
               "lng" : 72.4376499
            },
            "location_type" : "APPROXIMATE",
            "viewport" : {
               "northeast" : {
                  "lat" : 31.9894656,
                  "lng" : 72.56897579999999
               },
               "southwest" : {
                  "lat" : 31.9252582,
                  "lng" : 72.39936539999999
               }
            }
         },
         "place_id" : "ChIJ5bxLTY1kITkRdndIGw78EpE",
         "types" : [ "administrative_area_level_5", "political" ]
      },
      {
         "address_components" : [
            {
               "long_name" : "Sahiwal (Sardogha)",
               "short_name" : "Sahiwal (Sardogha)",
               "types" : [ "administrative_area_level_3", "political" ]
            },
            {
               "long_name" : "Sargodha",
               "short_name" : "Sargodha",
               "types" : [ "administrative_area_level_2", "political" ]
            },
            {
               "long_name" : "Punjab",
               "short_name" : "Punjab",
               "types" : [ "administrative_area_level_1", "political" ]
            },
            {
               "long_name" : "Pakistan",
               "short_name" : "PK",
               "types" : [ "country", "political" ]
            }
         ],
         "formatted_address" : "Sahiwal (Sardogha), Sargodha, Punjab, Pakistan",
         "geometry" : {
            "bounds" : {
               "northeast" : {
                  "lat" : 32.0559859,
                  "lng" : 72.5619361
               },
               "southwest" : {
                  "lat" : 31.70946499999999,
                  "lng" : 72.21704679999999
               }
            },
            "location" : {
               "lat" : 31.8762345,
               "lng" : 72.37846789999999
            },
            "location_type" : "APPROXIMATE",
            "viewport" : {
               "northeast" : {
                  "lat" : 32.0559859,
                  "lng" : 72.5619361
               },
               "southwest" : {
                  "lat" : 31.70946499999999,
                  "lng" : 72.21704679999999
               }
            }
         },
         "place_id" : "ChIJZ2aUDwZhITkRcdXKna13vVE",
         "types" : [ "administrative_area_level_3", "political" ]
      },
      {
         "address_components" : [
            {
               "long_name" : "Sargodha",
               "short_name" : "Sargodha",
               "types" : [ "administrative_area_level_2", "political" ]
            },
            {
               "long_name" : "Punjab",
               "short_name" : "Punjab",
               "types" : [ "administrative_area_level_1", "political" ]
            },
            {
               "long_name" : "Pakistan",
               "short_name" : "PK",
               "types" : [ "country", "political" ]
            }
         ],
         "formatted_address" : "Sargodha, Punjab, Pakistan",
         "geometry" : {
            "bounds" : {
               "northeast" : {
                  "lat" : 32.5712785,
                  "lng" : 73.31019239999999
               },
               "southwest" : {
                  "lat" : 31.5566249,
                  "lng" : 72.21704679999999
               }
            },
            "location" : {
               "lat" : 32.156592,
               "lng" : 72.8042797
            },
            "location_type" : "APPROXIMATE",
            "viewport" : {
               "northeast" : {
                  "lat" : 32.5712785,
                  "lng" : 73.31019239999999
               },
               "southwest" : {
                  "lat" : 31.5566249,
                  "lng" : 72.21704679999999
               }
            }
         },
         "place_id" : "ChIJ0S6JJZadITkRmlmemFkTNjk",
         "types" : [ "administrative_area_level_2", "political" ]
      },
      {
         "address_components" : [
            {
               "long_name" : "Punjab",
               "short_name" : "Punjab",
               "types" : [ "administrative_area_level_1", "political" ]
            },
            {
               "long_name" : "Pakistan",
               "short_name" : "PK",
               "types" : [ "country", "political" ]
            }
         ],
         "formatted_address" : "Punjab, Pakistan",
         "geometry" : {
            "bounds" : {
               "northeast" : {
                  "lat" : 34.0434647,
                  "lng" : 75.3796504
               },
               "southwest" : {
                  "lat" : 27.7056256,
                  "lng" : 69.3288726
               }
            },
            "location" : {
               "lat" : 31.1704063,
               "lng" : 72.70971609999999
            },
            "location_type" : "APPROXIMATE",
            "viewport" : {
               "northeast" : {
                  "lat" : 34.0434647,
                  "lng" : 75.3796504
               },
               "southwest" : {
                  "lat" : 27.7056256,
                  "lng" : 69.3288726
               }
            }
         },
         "place_id" : "ChIJy5pBdImU3zgRoOxO0hgwnjo",
         "types" : [ "administrative_area_level_1", "political" ]
      },
      {
         "address_components" : [
            {
               "long_name" : "Pakistan",
               "short_name" : "PK",
               "types" : [ "country", "political" ]
            }
         ],
         "formatted_address" : "Pakistan",
         "geometry" : {
            "bounds" : {
               "northeast" : {
                  "lat" : 37.0841069,
                  "lng" : 77.1204247
               },
               "southwest" : {
                  "lat" : 23.6344999,
                  "lng" : 60.8729721
               }
            },
            "location" : {
               "lat" : 30.375321,
               "lng" : 69.34511599999999
            },
            "location_type" : "APPROXIMATE",
            "viewport" : {
               "northeast" : {
                  "lat" : 37.0841069,
                  "lng" : 77.1204247
               },
               "southwest" : {
                  "lat" : 23.6344999,
                  "lng" : 60.8729721
               }
            }
         },
         "place_id" : "ChIJH3X9-NJS2zgRXJIU5veht0Y",
         "types" : [ "country", "political" ]
      }
   ],
   "status" : "OK"
}
