{
   "plus_code" : {
      "compound_code" : "3MMG+22G Sargodha, Pakistan",
      "global_code" : "8J4J3MMG+22G"
   },
   "results" : [
      {
         "address_components" : [
            {
               "long_name" : "3MJF+XPH",
               "short_name" : "3MJF+XPH",
               "types" : [ "plus_code" ]
            },
            {
               "long_name" : "Sargodha",
               "short_name" : "Sargodha",
               "types" : [ "locality", "political" ]
            },
            {
               "long_name" : "Sargodha",
               "short_name" : "Sargodha",
               "types" : [ "administrative_area_level_3", "political" ]
            },
            {
               "long_name" : "Sargodha",
               "short_name" : "Sargodha",
               "types" : [ "administrative_area_level_2", "political" ]
            },
            {
               "long_name" : "Punjab",
               "short_name" : "Punjab",
               "types" : [ "administrative_area_level_1", "political" ]
            },
            {
               "long_name" : "Pakistan",
               "short_name" : "PK",
               "types" : [ "country", "political" ]
            }
         ],
         "formatted_address" : "3MJF+XPH, Sargodha, Punjab, Pakistan",
         "geometry" : {
            "bounds" : {
               "northeast" : {
                  "lat" : 32.0825639,
                  "lng" : 72.67461279999999
               },
               "southwest" : {
                  "lat" : 32.082275,
                  "lng" : 72.67420989999999
               }
            },
            "location" : {
               "lat" : 32.08245,
               "lng" : 72.6743841
            },
            "location_type" : "ROOFTOP",
            "viewport" : {
               "northeast" : {
                  "lat" : 32.08376843029149,
                  "lng" : 72.6757603302915
               },
               "southwest" : {
                  "lat" : 32.0810704697085,
                  "lng" : 72.67306236970848
               }
            }
         },
         "place_id" : "ChIJm2Was7p3ITkR8UgDYechu9g",
         "types" : [ "premise" ]
      },
      {
         "address_components" : [
            {
               "long_name" : "3MJF+XPH",
               "short_name" : "3MJF+XPH",
               "types" : [ "plus_code" ]
            },
            {
               "long_name" : "Sargodha",
               "short_name" : "Sargodha",
               "types" : [ "locality", "political" ]
            },
            {
               "long_name" : "Sargodha",
               "short_name" : "Sargodha",
               "types" : [ "administrative_area_level_3", "political" ]
            },
            {
               "long_name" : "Sargodha",
               "short_name" : "Sargodha",
               "types" : [ "administrative_area_level_2", "political" ]
            },
            {
               "long_name" : "Punjab",
               "short_name" : "Punjab",
               "types" : [ "administrative_area_level_1", "political" ]
            },
            {
               "long_name" : "Pakistan",
               "short_name" : "PK",
               "types" : [ "country", "political" ]
            }
         ],
         "formatted_address" : "3MJF+XPH, Sargodha, Punjab, Pakistan",
         "geometry" : {
            "location" : {
               "lat" : 32.0824322,
               "lng" : 72.6743645
            },
            "location_type" : "GEOMETRIC_CENTER",
            "viewport" : {
               "northeast" : {
                  "lat" : 32.0837811802915,
                  "lng" : 72.67571348029151
               },
               "southwest" : {
                  "lat" : 32.0810832197085,
                  "lng" : 72.6730155197085
               }
            }
         },
         "place_id" : "ChIJnTkRs7p3ITkRB5sJ8Tf9HD0",
         "types" : [ "establishment", "health", "hospital", "point_of_interest" ]
      },
      {
         "address_components" : [
            {
               "long_name" : "Sargodha Railway Station",
               "short_name" : "Sargodha Railway Station",
               "types" : [
                  "establishment",
                  "point_of_interest",
                  "train_station",
                  "transit_station"
               ]
            },
            {
               "long_name" : "Sargodha",
               "short_name" : "Sargodha",
               "types" : [ "locality", "political" ]
            },
            {
               "long_name" : "Sargodha",
               "short_name" : "Sargodha",
               "types" : [ "administrative_area_level_3", "political" ]
            },
            {
               "long_name" : "Sargodha",
               "short_name" : "Sargodha",
               "types" : [ "administrative_area_level_2", "political" ]
            },
            {
               "long_name" : "Punjab",
               "short_name" : "Punjab",
               "types" : [ "administrative_area_level_1", "political" ]
            },
            {
               "long_name" : "Pakistan",
               "short_name" : "PK",
               "types" : [ "country", "political" ]
            }
         ],
         "formatted_address" : "Sargodha Railway Station, Sargodha, Punjab, Pakistan",
         "geometry" : {
            "location" : {
               "lat" : 32.0835891,
               "lng" : 72.67637189999999
            },
            "location_type" : "GEOMETRIC_CENTER",
            "viewport" : {
               "northeast" : {
                  "lat" : 32.0849380802915,
                  "lng" : 72.6777208802915
               },
               "southwest" : {
                  "lat" : 32.0822401197085,
                  "lng" : 72.67502291970848
               }
            }
         },
         "place_id" : "ChIJp2J8dbB3ITkRhR-cigkXrrk",
         "plus_code" : {
            "compound_code" : "3MMG+CG Sargodha, Pakistan",
            "global_code" : "8J4J3MMG+CG"
         },
         "types" : [
            "establishment",
            "point_of_interest",
            "train_station",
            "transit_station"
         ]
      },
      {
         "address_components" : [
            {
               "long_name" : "3MMG+22",
               "short_name" : "3MMG+22",
               "types" : [ "plus_code" ]
            },
            {
               "long_name" : "Sargodha",
               "short_name" : "Sargodha",
               "types" : [ "locality", "political" ]
            },
            {
               "long_name" : "Sargodha",
               "short_name" : "Sargodha",
               "types" : [ "administrative_area_level_3", "political" ]
            },
            {
               "long_name" : "Sargodha",
               "short_name" : "Sargodha",
               "types" : [ "administrative_area_level_2", "political" ]
            },
            {
               "long_name" : "Punjab",
               "short_name" : "Punjab",
               "types" : [ "administrative_area_level_1", "political" ]
            },
            {
               "long_name" : "Pakistan",
               "short_name" : "PK",
               "types" : [ "country", "political" ]
            }
         ],
         "formatted_address" : "3MMG+22 Sargodha, Pakistan",
         "geometry" : {
            "bounds" : {
               "northeast" : {
                  "lat" : 32.082625,
                  "lng" : 72.67512499999999
               },
               "southwest" : {
                  "lat" : 32.0825,
                  "lng" : 72.675
               }
            },
            "location" : {
               "lat" : 32.0825746,
               "lng" : 72.67507809999999
            },
            "location_type" : "GEOMETRIC_CENTER",
            "viewport" : {
               "northeast" : {
                  "lat" : 32.08391148029149,
                  "lng" : 72.67641148029149
               },
               "southwest" : {
                  "lat" : 32.0812135197085,
                  "lng" : 72.67371351970849
               }
            }
         },
         "place_id" : "GhIJej3zzZEKQEARu2_GejQrUkA",
         "plus_code" : {
            "compound_code" : "3MMG+22 Sargodha, Pakistan",
            "global_code" : "8J4J3MMG+22"
         },
         "types" : [ "plus_code" ]
      },
      {
         "address_components" : [
            {
               "long_name" : "Unnamed Road",
               "short_name" : "Unnamed Road",
               "types" : [ "route" ]
            },
            {
               "long_name" : "Sargodha",
               "short_name" : "Sargodha",
               "types" : [ "locality", "political" ]
            },
            {
               "long_name" : "Sargodha",
               "short_name" : "Sargodha",
               "types" : [ "administrative_area_level_3", "political" ]
            },
            {
               "long_name" : "Sargodha",
               "short_name" : "Sargodha",
               "types" : [ "administrative_area_level_2", "political" ]
            },
            {
               "long_name" : "Punjab",
               "short_name" : "Punjab",
               "types" : [ "administrative_area_level_1", "political" ]
            },
            {
               "long_name" : "Pakistan",
               "short_name" : "PK",
               "types" : [ "country", "political" ]
            }
         ],
         "formatted_address" : "Unnamed Road, Sargodha, Punjab, Pakistan",
         "geometry" : {
            "bounds" : {
               "northeast" : {
                  "lat" : 32.0830432,
                  "lng" : 72.67580199999999
               },
               "southwest" : {
                  "lat" : 32.0821251,
                  "lng" : 72.6731432
               }
            },
            "location" : {
               "lat" : 32.0826625,
               "lng" : 72.6744427
            },
            "location_type" : "GEOMETRIC_CENTER",
            "viewport" : {
               "northeast" : {
                  "lat" : 32.0839331302915,
                  "lng" : 72.6758215802915
               },
               "southwest" : {
                  "lat" : 32.0812351697085,
                  "lng" : 72.67312361970849
               }
            }
         },
         "place_id" : "ChIJM15bsrp3ITkRXI20Pw4_zhk",
         "types" : [ "route" ]
      },
      {
         "address_components" : [
            {
               "long_name" : "Chak 52 SB",
               "short_name" : "Chak 52 SB",
               "types" : [ "administrative_area_level_5", "political" ]
            },
            {
               "long_name" : "Sargodha",
               "short_name" : "Sargodha",
               "types" : [ "administrative_area_level_3", "political" ]
            },
            {
               "long_name" : "Sargodha",
               "short_name" : "Sargodha",
               "types" : [ "administrative_area_level_2", "political" ]
            },
            {
               "long_name" : "Punjab",
               "short_name" : "Punjab",
               "types" : [ "administrative_area_level_1", "political" ]
            },
            {
               "long_name" : "Pakistan",
               "short_name" : "PK",
               "types" : [ "country", "political" ]
            }
         ],
         "formatted_address" : "Chak 52 SB, Sargodha, Punjab, Pakistan",
         "geometry" : {
            "bounds" : {
               "northeast" : {
                  "lat" : 32.1249291,
                  "lng" : 72.7098565
               },
               "southwest" : {
                  "lat" : 32.0689001,
                  "lng" : 72.6333451
               }
            },
            "location" : {
               "lat" : 32.0990231,
               "lng" : 72.6683333
            },
            "location_type" : "APPROXIMATE",
            "viewport" : {
               "northeast" : {
                  "lat" : 32.1249291,
                  "lng" : 72.7098565
               },
               "southwest" : {
                  "lat" : 32.0689001,
                  "lng" : 72.6333451
               }
            }
         },
         "place_id" : "ChIJobIzVFJ2ITkRCSZaMzpJWCc",
         "types" : [ "administrative_area_level_5", "political" ]
      },
      {
         "address_components" : [
            {
               "long_name" : "Sargodha",
               "short_name" : "Sargodha",
               "types" : [ "locality", "political" ]
            },
            {
               "long_name" : "Sargodha",
               "short_name" : "Sargodha",
               "types" : [ "administrative_area_level_3", "political" ]
            },
            {
               "long_name" : "Sargodha",
               "short_name" : "Sargodha",
               "types" : [ "administrative_area_level_2", "political" ]
            },
            {
               "long_name" : "Punjab",
               "short_name" : "Punjab",
               "types" : [ "administrative_area_level_1", "political" ]
            },
            {
               "long_name" : "Pakistan",
               "short_name" : "PK",
               "types" : [ "country", "political" ]
            }
         ],
         "formatted_address" : "Sargodha, Punjab, Pakistan",
         "geometry" : {
            "bounds" : {
               "northeast" : {
                  "lat" : 32.1301621,
                  "lng" : 72.77598019999999
               },
               "southwest" : {
                  "lat" : 31.979758,
                  "lng" : 72.6180858
               }
            },
            "location" : {
               "lat" : 32.0739787,
               "lng" : 72.6860696
            },
            "location_type" : "APPROXIMATE",
            "viewport" : {
               "northeast" : {
                  "lat" : 32.1301621,
                  "lng" : 72.77598019999999
               },
               "southwest" : {
                  "lat" : 31.979758,
                  "lng" : 72.6180858
               }
            }
         },
         "place_id" : "ChIJ45QmUDl0ITkRcLzL7da64VU",
         "types" : [ "locality", "political" ]
      },
      {
         "address_components" : [
            {
               "long_name" : "Sargodha",
               "short_name" : "Sargodha",
               "types" : [ "administrative_area_level_3", "political" ]
            },
            {
               "long_name" : "Sargodha",
               "short_name" : "Sargodha",
               "types" : [ "administrative_area_level_2", "political" ]
            },
            {
               "long_name" : "Punjab",
               "short_name" : "Punjab",
               "types" : [ "administrative_area_level_1", "political" ]
            },
            {
               "long_name" : "Pakistan",
               "short_name" : "PK",
               "types" : [ "country", "political" ]
            }
         ],
         "formatted_address" : "Sargodha, Punjab, Pakistan",
         "geometry" : {
            "bounds" : {
               "northeast" : {
                  "lat" : 32.286783,
                  "lng" : 73.050966
               },
               "southwest" : {
                  "lat" : 31.818546,
                  "lng" : 72.44248899999999
               }
            },
            "location" : {
               "lat" : 32.0177852,
               "lng" : 72.7570024
            },
            "location_type" : "APPROXIMATE",
            "viewport" : {
               "northeast" : {
                  "lat" : 32.286783,
                  "lng" : 73.050966
               },
               "southwest" : {
                  "lat" : 31.818546,
                  "lng" : 72.44248899999999
               }
            }
         },
         "place_id" : "ChIJtVMxttGCITkRergQwfHo5yw",
         "types" : [ "administrative_area_level_3", "political" ]
      },
      {
         "address_components" : [
            {
               "long_name" : "Sargodha",
               "short_name" : "Sargodha",
               "types" : [ "administrative_area_level_2", "political" ]
            },
            {
               "long_name" : "Punjab",
               "short_name" : "Punjab",
               "types" : [ "administrative_area_level_1", "political" ]
            },
            {
               "long_name" : "Pakistan",
               "short_name" : "PK",
               "types" : [ "country", "political" ]
            }
         ],
         "formatted_address" : "Sargodha, Punjab, Pakistan",
         "geometry" : {
            "bounds" : {
               "northeast" : {
                  "lat" : 32.5712785,
                  "lng" : 73.31019239999999
               },
               "southwest" : {
                  "lat" : 31.5566249,
                  "lng" : 72.21704679999999
               }
            },
            "location" : {
               "lat" : 32.156592,
               "lng" : 72.8042797
            },
            "location_type" : "APPROXIMATE",
            "viewport" : {
               "northeast" : {
                  "lat" : 32.5712785,
                  "lng" : 73.31019239999999
               },
               "southwest" : {
                  "lat" : 31.5566249,
                  "lng" : 72.21704679999999
               }
            }
         },
         "place_id" : "ChIJ0S6JJZadITkRmlmemFkTNjk",
         "types" : [ "administrative_area_level_2", "political" ]
      },
      {
         "address_components" : [
            {
               "long_name" : "Punjab",
               "short_name" : "Punjab",
               "types" : [ "administrative_area_level_1", "political" ]
            },
            {
               "long_name" : "Pakistan",
               "short_name" : "PK",
               "types" : [ "country", "political" ]
            }
         ],
         "formatted_address" : "Punjab, Pakistan",
         "geometry" : {
            "bounds" : {
               "northeast" : {
                  "lat" : 34.0434647,
                  "lng" : 75.3796504
               },
               "southwest" : {
                  "lat" : 27.7056256,
                  "lng" : 69.3288726
               }
            },
            "location" : {
               "lat" : 31.1704063,
               "lng" : 72.70971609999999
            },
            "location_type" : "APPROXIMATE",
            "viewport" : {
               "northeast" : {
                  "lat" : 34.0434647,
                  "lng" : 75.3796504
               },
               "southwest" : {
                  "lat" : 27.7056256,
                  "lng" : 69.3288726
               }
            }
         },
         "place_id" : "ChIJy5pBdImU3zgRoOxO0hgwnjo",
         "types" : [ "administrative_area_level_1", "political" ]
      },
      {
         "address_components" : [
            {
               "long_name" : "Pakistan",
               "short_name" : "PK",
               "types" : [ "country", "political" ]
            }
         ],
         "formatted_address" : "Pakistan",
         "geometry" : {
            "bounds" : {
               "northeast" : {
                  "lat" : 37.0841069,
                  "lng" : 77.1204247
               },
               "southwest" : {
                  "lat" : 23.6344999,
                  "lng" : 60.8729721
               }
            },
            "location" : {
               "lat" : 30.375321,
               "lng" : 69.34511599999999
            },
            "location_type" : "APPROXIMATE",
            "viewport" : {
               "northeast" : {
                  "lat" : 37.0841069,
                  "lng" : 77.1204247
               },
               "southwest" : {
                  "lat" : 23.6344999,
                  "lng" : 60.8729721
               }
            }
         },
         "place_id" : "ChIJH3X9-NJS2zgRXJIU5veht0Y",
         "types" : [ "country", "political" ]
      }
   ],
   "status" : "OK"
}
