{
   "plus_code" : {
      "compound_code" : "XWV8+22G Baland, Pakistan",
      "global_code" : "8J3HXWV8+22G"
   },
   "results" : [
      {
         "address_components" : [
            {
               "long_name" : "XWV8+22",
               "short_name" : "XWV8+22",
               "types" : [ "plus_code" ]
            },
            {
               "long_name" : "Baland",
               "short_name" : "Baland",
               "types" : [ "locality", "political" ]
            },
            {
               "long_name" : "Nurpur",
               "short_name" : "Nurpur",
               "types" : [ "administrative_area_level_3", "political" ]
            },
            {
               "long_name" : "Khushab",
               "short_name" : "Khushab",
               "types" : [ "administrative_area_level_2", "political" ]
            },
            {
               "long_name" : "Punjab",
               "short_name" : "Punjab",
               "types" : [ "administrative_area_level_1", "political" ]
            },
            {
               "long_name" : "Pakistan",
               "short_name" : "PK",
               "types" : [ "country", "political" ]
            }
         ],
         "formatted_address" : "XWV8+22 Baland, Pakistan",
         "geometry" : {
            "bounds" : {
               "northeast" : {
                  "lat" : 31.992625,
                  "lng" : 71.915125
               },
               "southwest" : {
                  "lat" : 31.9925,
                  "lng" : 71.91499999999999
               }
            },
            "location" : {
               "lat" : 31.9925746,
               "lng" : 71.9150781
            },
            "location_type" : "GEOMETRIC_CENTER",
            "viewport" : {
               "northeast" : {
                  "lat" : 31.9939114802915,
                  "lng" : 71.9164114802915
               },
               "southwest" : {
                  "lat" : 31.9912135197085,
                  "lng" : 71.91371351970849
               }
            }
         },
         "place_id" : "GhIJHdd1Xhn-P0ARSzK8o5D6UUA",
         "plus_code" : {
            "compound_code" : "XWV8+22 Baland, Pakistan",
            "global_code" : "8J3HXWV8+22"
         },
         "types" : [ "plus_code" ]
      },
      {
         "address_components" : [
            {
               "long_name" : "Unnamed Road",
               "short_name" : "Unnamed Road",
               "types" : [ "route" ]
            },
            {
               "long_name" : "Baland",
               "short_name" : "Baland",
               "types" : [ "locality", "political" ]
            },
            {
               "long_name" : "Nurpur",
               "short_name" : "Nurpur",
               "types" : [ "administrative_area_level_3", "political" ]
            },
            {
               "long_name" : "Khushab",
               "short_name" : "Khushab",
               "types" : [ "administrative_area_level_2", "political" ]
            },
            {
               "long_name" : "Punjab",
               "short_name" : "Punjab",
               "types" : [ "administrative_area_level_1", "political" ]
            },
            {
               "long_name" : "Pakistan",
               "short_name" : "PK",
               "types" : [ "country", "political" ]
            }
         ],
         "formatted_address" : "Unnamed Road, Baland, Khushab, Punjab, Pakistan",
         "geometry" : {
            "bounds" : {
               "northeast" : {
                  "lat" : 31.9929462,
                  "lng" : 71.9155598
               },
               "southwest" : {
                  "lat" : 31.9927059,
                  "lng" : 71.9152412
               }
            },
            "location" : {
               "lat" : 31.9929112,
               "lng" : 71.9152441
            },
            "location_type" : "GEOMETRIC_CENTER",
            "viewport" : {
               "northeast" : {
                  "lat" : 31.9941750302915,
                  "lng" : 71.9167494802915
               },
               "southwest" : {
                  "lat" : 31.9914770697085,
                  "lng" : 71.91405151970849
               }
            }
         },
         "place_id" : "ChIJMwImxQSzJjkRWGqn_7FKe5Y",
         "types" : [ "route" ]
      },
      {
         "address_components" : [
            {
               "long_name" : "Baland",
               "short_name" : "Baland",
               "types" : [ "locality", "political" ]
            },
            {
               "long_name" : "Nurpur",
               "short_name" : "Nurpur",
               "types" : [ "administrative_area_level_3", "political" ]
            },
            {
               "long_name" : "Khushab",
               "short_name" : "Khushab",
               "types" : [ "administrative_area_level_2", "political" ]
            },
            {
               "long_name" : "Punjab",
               "short_name" : "Punjab",
               "types" : [ "administrative_area_level_1", "political" ]
            },
            {
               "long_name" : "Pakistan",
               "short_name" : "PK",
               "types" : [ "country", "political" ]
            }
         ],
         "formatted_address" : "Baland, Khushab, Punjab, Pakistan",
         "geometry" : {
            "bounds" : {
               "northeast" : {
                  "lat" : 32.0007763,
                  "lng" : 71.9353447
               },
               "southwest" : {
                  "lat" : 31.9804167,
                  "lng" : 71.90558489999999
               }
            },
            "location" : {
               "lat" : 31.98873639999999,
               "lng" : 71.91938589999999
            },
            "location_type" : "APPROXIMATE",
            "viewport" : {
               "northeast" : {
                  "lat" : 32.0007763,
                  "lng" : 71.9353447
               },
               "southwest" : {
                  "lat" : 31.9804167,
                  "lng" : 71.90558489999999
               }
            }
         },
         "place_id" : "ChIJV3qx0-KyJjkRrU6G8345AQg",
         "types" : [ "locality", "political" ]
      },
      {
         "address_components" : [
            {
               "long_name" : "Pelowance",
               "short_name" : "Pelowance",
               "types" : [ "administrative_area_level_5", "political" ]
            },
            {
               "long_name" : "Nurpur",
               "short_name" : "Nurpur",
               "types" : [ "administrative_area_level_3", "political" ]
            },
            {
               "long_name" : "Khushab",
               "short_name" : "Khushab",
               "types" : [ "administrative_area_level_2", "political" ]
            },
            {
               "long_name" : "Punjab",
               "short_name" : "Punjab",
               "types" : [ "administrative_area_level_1", "political" ]
            },
            {
               "long_name" : "Pakistan",
               "short_name" : "PK",
               "types" : [ "country", "political" ]
            }
         ],
         "formatted_address" : "Pelowance, Khushab, Punjab, Pakistan",
         "geometry" : {
            "bounds" : {
               "northeast" : {
                  "lat" : 32.1012128,
                  "lng" : 72.078637
               },
               "southwest" : {
                  "lat" : 31.9157846,
                  "lng" : 71.86595389999999
               }
            },
            "location" : {
               "lat" : 32.0162212,
               "lng" : 71.97569899999999
            },
            "location_type" : "APPROXIMATE",
            "viewport" : {
               "northeast" : {
                  "lat" : 32.1012128,
                  "lng" : 72.078637
               },
               "southwest" : {
                  "lat" : 31.9157846,
                  "lng" : 71.86595389999999
               }
            }
         },
         "place_id" : "ChIJCYBLscNMITkRic3fywCsBAw",
         "types" : [ "administrative_area_level_5", "political" ]
      },
      {
         "address_components" : [
            {
               "long_name" : "Nurpur",
               "short_name" : "Nurpur",
               "types" : [ "administrative_area_level_3", "political" ]
            },
            {
               "long_name" : "Khushab",
               "short_name" : "Khushab",
               "types" : [ "administrative_area_level_2", "political" ]
            },
            {
               "long_name" : "Punjab",
               "short_name" : "Punjab",
               "types" : [ "administrative_area_level_1", "political" ]
            },
            {
               "long_name" : "Pakistan",
               "short_name" : "PK",
               "types" : [ "country", "political" ]
            }
         ],
         "formatted_address" : "Nurpur, Khushab, Punjab, Pakistan",
         "geometry" : {
            "bounds" : {
               "northeast" : {
                  "lat" : 32.2134421,
                  "lng" : 72.28814199999999
               },
               "southwest" : {
                  "lat" : 31.5302101,
                  "lng" : 71.62501139999999
               }
            },
            "location" : {
               "lat" : 31.84487399999999,
               "lng" : 71.8571331
            },
            "location_type" : "APPROXIMATE",
            "viewport" : {
               "northeast" : {
                  "lat" : 32.2134421,
                  "lng" : 72.28814199999999
               },
               "southwest" : {
                  "lat" : 31.5302101,
                  "lng" : 71.62501139999999
               }
            }
         },
         "place_id" : "ChIJG3IowE1TITkRolpo_M8cxgo",
         "types" : [ "administrative_area_level_3", "political" ]
      },
      {
         "address_components" : [
            {
               "long_name" : "Khushab",
               "short_name" : "Khushab",
               "types" : [ "administrative_area_level_2", "political" ]
            },
            {
               "long_name" : "Punjab",
               "short_name" : "Punjab",
               "types" : [ "administrative_area_level_1", "political" ]
            },
            {
               "long_name" : "Pakistan",
               "short_name" : "PK",
               "types" : [ "country", "political" ]
            }
         ],
         "formatted_address" : "Khushab, Punjab, Pakistan",
         "geometry" : {
            "bounds" : {
               "northeast" : {
                  "lat" : 32.7130681,
                  "lng" : 72.6641959
               },
               "southwest" : {
                  "lat" : 31.5302101,
                  "lng" : 71.62501139999999
               }
            },
            "location" : {
               "lat" : 32.3259122,
               "lng" : 72.14161319999999
            },
            "location_type" : "APPROXIMATE",
            "viewport" : {
               "northeast" : {
                  "lat" : 32.7130681,
                  "lng" : 72.6641959
               },
               "southwest" : {
                  "lat" : 31.5302101,
                  "lng" : 71.62501139999999
               }
            }
         },
         "place_id" : "ChIJLxN-009IITkRkCg_bdeC5GU",
         "types" : [ "administrative_area_level_2", "political" ]
      },
      {
         "address_components" : [
            {
               "long_name" : "Punjab",
               "short_name" : "Punjab",
               "types" : [ "administrative_area_level_1", "political" ]
            },
            {
               "long_name" : "Pakistan",
               "short_name" : "PK",
               "types" : [ "country", "political" ]
            }
         ],
         "formatted_address" : "Punjab, Pakistan",
         "geometry" : {
            "bounds" : {
               "northeast" : {
                  "lat" : 34.0434647,
                  "lng" : 75.3796504
               },
               "southwest" : {
                  "lat" : 27.7056256,
                  "lng" : 69.3288726
               }
            },
            "location" : {
               "lat" : 31.1704063,
               "lng" : 72.70971609999999
            },
            "location_type" : "APPROXIMATE",
            "viewport" : {
               "northeast" : {
                  "lat" : 34.0434647,
                  "lng" : 75.3796504
               },
               "southwest" : {
                  "lat" : 27.7056256,
                  "lng" : 69.3288726
               }
            }
         },
         "place_id" : "ChIJy5pBdImU3zgRoOxO0hgwnjo",
         "types" : [ "administrative_area_level_1", "political" ]
      },
      {
         "address_components" : [
            {
               "long_name" : "Pakistan",
               "short_name" : "PK",
               "types" : [ "country", "political" ]
            }
         ],
         "formatted_address" : "Pakistan",
         "geometry" : {
            "bounds" : {
               "northeast" : {
                  "lat" : 37.0841069,
                  "lng" : 77.1204247
               },
               "southwest" : {
                  "lat" : 23.6344999,
                  "lng" : 60.8729721
               }
            },
            "location" : {
               "lat" : 30.375321,
               "lng" : 69.34511599999999
            },
            "location_type" : "APPROXIMATE",
            "viewport" : {
               "northeast" : {
                  "lat" : 37.0841069,
                  "lng" : 77.1204247
               },
               "southwest" : {
                  "lat" : 23.6344999,
                  "lng" : 60.8729721
               }
            }
         },
         "place_id" : "ChIJH3X9-NJS2zgRXJIU5veht0Y",
         "types" : [ "country", "political" ]
      }
   ],
   "status" : "OK"
}
