{
   "plus_code" : {
      "compound_code" : "GC32+JMC Lahore, Pakistan",
      "global_code" : "8J3PGC32+JMC"
   },
   "results" : [
      {
         "address_components" : [
            {
               "long_name" : "GC32+HF2",
               "short_name" : "GC32+HF2",
               "types" : [ "plus_code" ]
            },
            {
               "long_name" : "Cantt",
               "short_name" : "Cantt",
               "types" : [ "political", "sublocality", "sublocality_level_1" ]
            },
            {
               "long_name" : "Lahore",
               "short_name" : "Lahore",
               "types" : [ "locality", "political" ]
            },
            {
               "long_name" : "Lahore Cantt",
               "short_name" : "Lahore Cantt",
               "types" : [ "administrative_area_level_3", "political" ]
            },
            {
               "long_name" : "Lahore",
               "short_name" : "Lahore",
               "types" : [ "administrative_area_level_2", "political" ]
            },
            {
               "long_name" : "Punjab",
               "short_name" : "Punjab",
               "types" : [ "administrative_area_level_1", "political" ]
            },
            {
               "long_name" : "Pakistan",
               "short_name" : "PK",
               "types" : [ "country", "political" ]
            }
         ],
         "formatted_address" : "GC32+HF2, Cantt, Lahore, Punjab, Pakistan",
         "geometry" : {
            "location" : {
               "lat" : 31.5038883,
               "lng" : 74.4011481
            },
            "location_type" : "GEOMETRIC_CENTER",
            "viewport" : {
               "northeast" : {
                  "lat" : 31.5052372802915,
                  "lng" : 74.40249708029151
               },
               "southwest" : {
                  "lat" : 31.5025393197085,
                  "lng" : 74.39979911970849
               }
            }
         },
         "place_id" : "ChIJMYuzSYsFGTkRTHHK9r10InY",
         "types" : [ "cemetery", "establishment", "point_of_interest" ]
      },
      {
         "address_components" : [
            {
               "long_name" : "GC32+JM",
               "short_name" : "GC32+JM",
               "types" : [ "plus_code" ]
            },
            {
               "long_name" : "Lahore",
               "short_name" : "Lahore",
               "types" : [ "locality", "political" ]
            },
            {
               "long_name" : "Lahore",
               "short_name" : "Lahore",
               "types" : [ "administrative_area_level_2", "political" ]
            },
            {
               "long_name" : "Punjab",
               "short_name" : "Punjab",
               "types" : [ "administrative_area_level_1", "political" ]
            },
            {
               "long_name" : "Pakistan",
               "short_name" : "PK",
               "types" : [ "country", "political" ]
            }
         ],
         "formatted_address" : "GC32+JM Lahore, Pakistan",
         "geometry" : {
            "bounds" : {
               "northeast" : {
                  "lat" : 31.504125,
                  "lng" : 74.40174999999999
               },
               "southwest" : {
                  "lat" : 31.50399999999999,
                  "lng" : 74.401625
               }
            },
            "location" : {
               "lat" : 31.50406839999999,
               "lng" : 74.4016457
            },
            "location_type" : "GEOMETRIC_CENTER",
            "viewport" : {
               "northeast" : {
                  "lat" : 31.50541148029149,
                  "lng" : 74.4030364802915
               },
               "southwest" : {
                  "lat" : 31.5027135197085,
                  "lng" : 74.40033851970848
               }
            }
         },
         "place_id" : "GhIJcPJsoAqBP0ARD4UqkLSZUkA",
         "plus_code" : {
            "compound_code" : "GC32+JM Lahore, Pakistan",
            "global_code" : "8J3PGC32+JM"
         },
         "types" : [ "plus_code" ]
      },
      {
         "address_components" : [
            {
               "long_name" : "Unnamed Road",
               "short_name" : "Unnamed Road",
               "types" : [ "route" ]
            },
            {
               "long_name" : "Cantt",
               "short_name" : "Cantt",
               "types" : [ "political", "sublocality", "sublocality_level_1" ]
            },
            {
               "long_name" : "Lahore",
               "short_name" : "Lahore",
               "types" : [ "locality", "political" ]
            },
            {
               "long_name" : "Lahore Cantt",
               "short_name" : "Lahore Cantt",
               "types" : [ "administrative_area_level_3", "political" ]
            },
            {
               "long_name" : "Lahore",
               "short_name" : "Lahore",
               "types" : [ "administrative_area_level_2", "political" ]
            },
            {
               "long_name" : "Punjab",
               "short_name" : "Punjab",
               "types" : [ "administrative_area_level_1", "political" ]
            },
            {
               "long_name" : "Pakistan",
               "short_name" : "PK",
               "types" : [ "country", "political" ]
            }
         ],
         "formatted_address" : "Unnamed Road, Cantt, Lahore, Punjab, Pakistan",
         "geometry" : {
            "bounds" : {
               "northeast" : {
                  "lat" : 31.5042163,
                  "lng" : 74.4033321
               },
               "southwest" : {
                  "lat" : 31.5040266,
                  "lng" : 74.4009585
               }
            },
            "location" : {
               "lat" : 31.5040859,
               "lng" : 74.4021417
            },
            "location_type" : "GEOMETRIC_CENTER",
            "viewport" : {
               "northeast" : {
                  "lat" : 31.5054704302915,
                  "lng" : 74.40349428029151
               },
               "southwest" : {
                  "lat" : 31.5027724697085,
                  "lng" : 74.4007963197085
               }
            }
         },
         "place_id" : "ChIJw_PcRYsFGTkRqOBJmZsLEIw",
         "types" : [ "route" ]
      },
      {
         "address_components" : [
            {
               "long_name" : "Allama Iqbal International Airport",
               "short_name" : "Allama Iqbal International Airport",
               "types" : [ "airport", "establishment", "point_of_interest" ]
            },
            {
               "long_name" : "Airport Road",
               "short_name" : "Airport Rd",
               "types" : [ "route" ]
            },
            {
               "long_name" : "Cantt",
               "short_name" : "Cantt",
               "types" : [ "political", "sublocality", "sublocality_level_1" ]
            },
            {
               "long_name" : "Lahore",
               "short_name" : "Lahore",
               "types" : [ "locality", "political" ]
            },
            {
               "long_name" : "Lahore Cantt",
               "short_name" : "Lahore Cantt",
               "types" : [ "administrative_area_level_3", "political" ]
            },
            {
               "long_name" : "Lahore",
               "short_name" : "Lahore",
               "types" : [ "administrative_area_level_2", "political" ]
            },
            {
               "long_name" : "Punjab",
               "short_name" : "Punjab",
               "types" : [ "administrative_area_level_1", "political" ]
            },
            {
               "long_name" : "Pakistan",
               "short_name" : "PK",
               "types" : [ "country", "political" ]
            },
            {
               "long_name" : "54000",
               "short_name" : "54000",
               "types" : [ "postal_code" ]
            }
         ],
         "formatted_address" : "Allama Iqbal International Airport, Airport Rd, Cantt, Lahore, Punjab 54000, Pakistan",
         "geometry" : {
            "location" : {
               "lat" : 31.5203274,
               "lng" : 74.4103575
            },
            "location_type" : "GEOMETRIC_CENTER",
            "viewport" : {
               "northeast" : {
                  "lat" : 31.5216763802915,
                  "lng" : 74.41170648029151
               },
               "southwest" : {
                  "lat" : 31.5189784197085,
                  "lng" : 74.40900851970849
               }
            }
         },
         "place_id" : "ChIJ5z8s8n0PGTkRA2uqQNr_140",
         "plus_code" : {
            "compound_code" : "GCC6+44 Lahore, Pakistan",
            "global_code" : "8J3PGCC6+44"
         },
         "types" : [ "airport", "establishment", "point_of_interest" ]
      },
      {
         "address_components" : [
            {
               "long_name" : "Cantt",
               "short_name" : "Cantt",
               "types" : [ "political", "sublocality", "sublocality_level_1" ]
            },
            {
               "long_name" : "Lahore",
               "short_name" : "Lahore",
               "types" : [ "locality", "political" ]
            },
            {
               "long_name" : "Lahore Cantt",
               "short_name" : "Lahore Cantt",
               "types" : [ "administrative_area_level_3", "political" ]
            },
            {
               "long_name" : "Lahore",
               "short_name" : "Lahore",
               "types" : [ "administrative_area_level_2", "political" ]
            },
            {
               "long_name" : "Punjab",
               "short_name" : "Punjab",
               "types" : [ "administrative_area_level_1", "political" ]
            },
            {
               "long_name" : "Pakistan",
               "short_name" : "PK",
               "types" : [ "country", "political" ]
            }
         ],
         "formatted_address" : "Cantt, Lahore, Punjab, Pakistan",
         "geometry" : {
            "bounds" : {
               "northeast" : {
                  "lat" : 31.5525784,
                  "lng" : 74.4353742
               },
               "southwest" : {
                  "lat" : 31.4958426,
                  "lng" : 74.36848879999999
               }
            },
            "location" : {
               "lat" : 31.5196113,
               "lng" : 74.388925
            },
            "location_type" : "APPROXIMATE",
            "viewport" : {
               "northeast" : {
                  "lat" : 31.5525784,
                  "lng" : 74.4353742
               },
               "southwest" : {
                  "lat" : 31.4958426,
                  "lng" : 74.36848879999999
               }
            }
         },
         "place_id" : "ChIJKUQxuIEFGTkRrUMO1ndJddw",
         "types" : [ "political", "sublocality", "sublocality_level_1" ]
      },
      {
         "address_components" : [
            {
               "long_name" : "Cantonment",
               "short_name" : "Cantonment",
               "types" : [ "administrative_area_level_5", "political" ]
            },
            {
               "long_name" : "Lahore",
               "short_name" : "Lahore",
               "types" : [ "locality", "political" ]
            },
            {
               "long_name" : "Lahore Cantt",
               "short_name" : "Lahore Cantt",
               "types" : [ "administrative_area_level_3", "political" ]
            },
            {
               "long_name" : "Lahore",
               "short_name" : "Lahore",
               "types" : [ "administrative_area_level_2", "political" ]
            },
            {
               "long_name" : "Punjab",
               "short_name" : "Punjab",
               "types" : [ "administrative_area_level_1", "political" ]
            },
            {
               "long_name" : "Pakistan",
               "short_name" : "PK",
               "types" : [ "country", "political" ]
            }
         ],
         "formatted_address" : "Cantonment, Lahore, Punjab, Pakistan",
         "geometry" : {
            "bounds" : {
               "northeast" : {
                  "lat" : 31.5641622,
                  "lng" : 74.48560909999999
               },
               "southwest" : {
                  "lat" : 31.4526631,
                  "lng" : 74.34548340000001
               }
            },
            "location" : {
               "lat" : 31.4942641,
               "lng" : 74.41738769999999
            },
            "location_type" : "APPROXIMATE",
            "viewport" : {
               "northeast" : {
                  "lat" : 31.5641622,
                  "lng" : 74.48560909999999
               },
               "southwest" : {
                  "lat" : 31.4526631,
                  "lng" : 74.34548340000001
               }
            }
         },
         "place_id" : "ChIJV3zLTmYPGTkRLrK1jCi4UH4",
         "types" : [ "administrative_area_level_5", "political" ]
      },
      {
         "address_components" : [
            {
               "long_name" : "Lahore Cantt",
               "short_name" : "Lahore Cantt",
               "types" : [ "administrative_area_level_3", "political" ]
            },
            {
               "long_name" : "Lahore",
               "short_name" : "Lahore",
               "types" : [ "administrative_area_level_2", "political" ]
            },
            {
               "long_name" : "Punjab",
               "short_name" : "Punjab",
               "types" : [ "administrative_area_level_1", "political" ]
            },
            {
               "long_name" : "Pakistan",
               "short_name" : "PK",
               "types" : [ "country", "political" ]
            }
         ],
         "formatted_address" : "Lahore Cantt, Lahore, Punjab, Pakistan",
         "geometry" : {
            "bounds" : {
               "northeast" : {
                  "lat" : 31.7326737,
                  "lng" : 74.64111319999999
               },
               "southwest" : {
                  "lat" : 31.281605,
                  "lng" : 74.2479031
               }
            },
            "location" : {
               "lat" : 31.53204,
               "lng" : 74.4525627
            },
            "location_type" : "APPROXIMATE",
            "viewport" : {
               "northeast" : {
                  "lat" : 31.7326737,
                  "lng" : 74.64111319999999
               },
               "southwest" : {
                  "lat" : 31.281605,
                  "lng" : 74.2479031
               }
            }
         },
         "place_id" : "ChIJJ75MHRkPGTkRJIDFq6b2v2k",
         "types" : [ "administrative_area_level_3", "political" ]
      },
      {
         "address_components" : [
            {
               "long_name" : "Lahore",
               "short_name" : "Lahore",
               "types" : [ "locality", "political" ]
            },
            {
               "long_name" : "Lahore",
               "short_name" : "Lahore",
               "types" : [ "administrative_area_level_2", "political" ]
            },
            {
               "long_name" : "Punjab",
               "short_name" : "Punjab",
               "types" : [ "administrative_area_level_1", "political" ]
            },
            {
               "long_name" : "Pakistan",
               "short_name" : "PK",
               "types" : [ "country", "political" ]
            }
         ],
         "formatted_address" : "Lahore, Punjab, Pakistan",
         "geometry" : {
            "bounds" : {
               "northeast" : {
                  "lat" : 31.69848649999999,
                  "lng" : 74.55323989999999
               },
               "southwest" : {
                  "lat" : 31.2673942,
                  "lng" : 74.1155387
               }
            },
            "location" : {
               "lat" : 31.5203696,
               "lng" : 74.35874729999999
            },
            "location_type" : "APPROXIMATE",
            "viewport" : {
               "northeast" : {
                  "lat" : 31.69848649999999,
                  "lng" : 74.55323989999999
               },
               "southwest" : {
                  "lat" : 31.2673942,
                  "lng" : 74.1155387
               }
            }
         },
         "place_id" : "ChIJ2QeB5YMEGTkRYiR-zGy-OsI",
         "types" : [ "locality", "political" ]
      },
      {
         "address_components" : [
            {
               "long_name" : "Lahore",
               "short_name" : "Lahore",
               "types" : [ "administrative_area_level_2", "political" ]
            },
            {
               "long_name" : "Punjab",
               "short_name" : "Punjab",
               "types" : [ "administrative_area_level_1", "political" ]
            },
            {
               "long_name" : "Pakistan",
               "short_name" : "PK",
               "types" : [ "country", "political" ]
            }
         ],
         "formatted_address" : "Lahore, Punjab, Pakistan",
         "geometry" : {
            "bounds" : {
               "northeast" : {
                  "lat" : 31.7326739,
                  "lng" : 74.64111319999999
               },
               "southwest" : {
                  "lat" : 31.2543339,
                  "lng" : 74.0068495
               }
            },
            "location" : {
               "lat" : 31.4312704,
               "lng" : 74.35874729999999
            },
            "location_type" : "APPROXIMATE",
            "viewport" : {
               "northeast" : {
                  "lat" : 31.7326739,
                  "lng" : 74.64111319999999
               },
               "southwest" : {
                  "lat" : 31.2543339,
                  "lng" : 74.0068495
               }
            }
         },
         "place_id" : "ChIJNfyfu-sDGTkRca4X8W4UGb4",
         "types" : [ "administrative_area_level_2", "political" ]
      },
      {
         "address_components" : [
            {
               "long_name" : "Punjab",
               "short_name" : "Punjab",
               "types" : [ "administrative_area_level_1", "political" ]
            },
            {
               "long_name" : "Pakistan",
               "short_name" : "PK",
               "types" : [ "country", "political" ]
            }
         ],
         "formatted_address" : "Punjab, Pakistan",
         "geometry" : {
            "bounds" : {
               "northeast" : {
                  "lat" : 34.0434647,
                  "lng" : 75.3796504
               },
               "southwest" : {
                  "lat" : 27.7056256,
                  "lng" : 69.3288726
               }
            },
            "location" : {
               "lat" : 31.1704063,
               "lng" : 72.70971609999999
            },
            "location_type" : "APPROXIMATE",
            "viewport" : {
               "northeast" : {
                  "lat" : 34.0434647,
                  "lng" : 75.3796504
               },
               "southwest" : {
                  "lat" : 27.7056256,
                  "lng" : 69.3288726
               }
            }
         },
         "place_id" : "ChIJy5pBdImU3zgRoOxO0hgwnjo",
         "types" : [ "administrative_area_level_1", "political" ]
      },
      {
         "address_components" : [
            {
               "long_name" : "Pakistan",
               "short_name" : "PK",
               "types" : [ "country", "political" ]
            }
         ],
         "formatted_address" : "Pakistan",
         "geometry" : {
            "bounds" : {
               "northeast" : {
                  "lat" : 37.0841069,
                  "lng" : 77.1204247
               },
               "southwest" : {
                  "lat" : 23.6344999,
                  "lng" : 60.8729721
               }
            },
            "location" : {
               "lat" : 30.375321,
               "lng" : 69.34511599999999
            },
            "location_type" : "APPROXIMATE",
            "viewport" : {
               "northeast" : {
                  "lat" : 37.0841069,
                  "lng" : 77.1204247
               },
               "southwest" : {
                  "lat" : 23.6344999,
                  "lng" : 60.8729721
               }
            }
         },
         "place_id" : "ChIJH3X9-NJS2zgRXJIU5veht0Y",
         "types" : [ "country", "political" ]
      }
   ],
   "status" : "OK"
}
