{
   "plus_code" : {
      "compound_code" : "W9FW+22G Jandoki, Pakistan",
      "global_code" : "8J3MW9FW+22G"
   },
   "results" : [
      {
         "address_components" : [
            {
               "long_name" : "W9FW+22",
               "short_name" : "W9FW+22",
               "types" : [ "plus_code" ]
            },
            {
               "long_name" : "Jandoki",
               "short_name" : "Jandoki",
               "types" : [ "locality", "political" ]
            },
            {
               "long_name" : "Pindi Bhattian",
               "short_name" : "Pindi Bhattian",
               "types" : [ "administrative_area_level_3", "political" ]
            },
            {
               "long_name" : "Hafizabad",
               "short_name" : "Hafizabad",
               "types" : [ "administrative_area_level_2", "political" ]
            },
            {
               "long_name" : "Punjab",
               "short_name" : "Punjab",
               "types" : [ "administrative_area_level_1", "political" ]
            },
            {
               "long_name" : "Pakistan",
               "short_name" : "PK",
               "types" : [ "country", "political" ]
            }
         ],
         "formatted_address" : "W9FW+22 Jandoki, Pakistan",
         "geometry" : {
            "bounds" : {
               "northeast" : {
                  "lat" : 31.922625,
                  "lng" : 73.39512499999999
               },
               "southwest" : {
                  "lat" : 31.9225,
                  "lng" : 73.395
               }
            },
            "location" : {
               "lat" : 31.9225746,
               "lng" : 73.39507809999999
            },
            "location_type" : "GEOMETRIC_CENTER",
            "viewport" : {
               "northeast" : {
                  "lat" : 31.9239114802915,
                  "lng" : 73.3964114802915
               },
               "southwest" : {
                  "lat" : 31.92121351970851,
                  "lng" : 73.39371351970848
               }
            }
         },
         "place_id" : "GhIJyh5X2S3sP0ARaben9UhZUkA",
         "plus_code" : {
            "compound_code" : "W9FW+22 Jandoki, Pakistan",
            "global_code" : "8J3MW9FW+22"
         },
         "types" : [ "plus_code" ]
      },
      {
         "address_components" : [
            {
               "long_name" : "Hafizabad",
               "short_name" : "Hafizabad",
               "types" : [ "administrative_area_level_2", "political" ]
            },
            {
               "long_name" : "Pindi Bhattian",
               "short_name" : "Pindi Bhattian",
               "types" : [ "administrative_area_level_3", "political" ]
            },
            {
               "long_name" : "Punjab",
               "short_name" : "Punjab",
               "types" : [ "administrative_area_level_1", "political" ]
            },
            {
               "long_name" : "Pakistan",
               "short_name" : "PK",
               "types" : [ "country", "political" ]
            }
         ],
         "formatted_address" : "AH1, Hafizabad, Punjab, Pakistan",
         "geometry" : {
            "location" : {
               "lat" : 31.9211429,
               "lng" : 73.3931887
            },
            "location_type" : "GEOMETRIC_CENTER",
            "viewport" : {
               "northeast" : {
                  "lat" : 31.9224918802915,
                  "lng" : 73.39453768029151
               },
               "southwest" : {
                  "lat" : 31.9197939197085,
                  "lng" : 73.39183971970849
               }
            }
         },
         "place_id" : "ChIJIeuyIAABIjkRkRu3ww9AuIc",
         "plus_code" : {
            "compound_code" : "W9CV+F7 Jandoki, Pakistan",
            "global_code" : "8J3MW9CV+F7"
         },
         "types" : [ "establishment", "mosque", "place_of_worship", "point_of_interest" ]
      },
      {
         "address_components" : [
            {
               "long_name" : "Lahore-Islamabad Motorway",
               "short_name" : "AH1",
               "types" : [ "route" ]
            },
            {
               "long_name" : "Pindi Bhattian",
               "short_name" : "Pindi Bhattian",
               "types" : [ "administrative_area_level_3", "political" ]
            },
            {
               "long_name" : "Hafizabad",
               "short_name" : "Hafizabad",
               "types" : [ "administrative_area_level_2", "political" ]
            },
            {
               "long_name" : "Punjab",
               "short_name" : "Punjab",
               "types" : [ "administrative_area_level_1", "political" ]
            },
            {
               "long_name" : "Pakistan",
               "short_name" : "PK",
               "types" : [ "country", "political" ]
            }
         ],
         "formatted_address" : "AH1, Hafizabad, Punjab, Pakistan",
         "geometry" : {
            "bounds" : {
               "northeast" : {
                  "lat" : 31.9213033,
                  "lng" : 73.39590939999999
               },
               "southwest" : {
                  "lat" : 31.9209042,
                  "lng" : 73.38749299999999
               }
            },
            "location" : {
               "lat" : 31.9210842,
               "lng" : 73.39170009999999
            },
            "location_type" : "GEOMETRIC_CENTER",
            "viewport" : {
               "northeast" : {
                  "lat" : 31.9224527302915,
                  "lng" : 73.39590939999999
               },
               "southwest" : {
                  "lat" : 31.9197547697085,
                  "lng" : 73.38749299999999
               }
            }
         },
         "place_id" : "ChIJpXfadHMBIjkRvgmJ0rLo-Hw",
         "types" : [ "route" ]
      },
      {
         "address_components" : [
            {
               "long_name" : "Thatha Kheru",
               "short_name" : "Thatha Kheru",
               "types" : [ "administrative_area_level_5", "political" ]
            },
            {
               "long_name" : "Pindi Bhattian",
               "short_name" : "Pindi Bhattian",
               "types" : [ "administrative_area_level_3", "political" ]
            },
            {
               "long_name" : "Hafizabad",
               "short_name" : "Hafizabad",
               "types" : [ "administrative_area_level_2", "political" ]
            },
            {
               "long_name" : "Punjab",
               "short_name" : "Punjab",
               "types" : [ "administrative_area_level_1", "political" ]
            },
            {
               "long_name" : "Pakistan",
               "short_name" : "PK",
               "types" : [ "country", "political" ]
            }
         ],
         "formatted_address" : "Thatha Kheru, Hafizabad, Punjab, Pakistan",
         "geometry" : {
            "bounds" : {
               "northeast" : {
                  "lat" : 31.9616745,
                  "lng" : 73.46182659999999
               },
               "southwest" : {
                  "lat" : 31.8199639,
                  "lng" : 73.3186396
               }
            },
            "location" : {
               "lat" : 31.8745397,
               "lng" : 73.4062342
            },
            "location_type" : "APPROXIMATE",
            "viewport" : {
               "northeast" : {
                  "lat" : 31.9616745,
                  "lng" : 73.46182659999999
               },
               "southwest" : {
                  "lat" : 31.8199639,
                  "lng" : 73.3186396
               }
            }
         },
         "place_id" : "ChIJkX_0FkkBIjkRco0VuqPyEE8",
         "types" : [ "administrative_area_level_5", "political" ]
      },
      {
         "address_components" : [
            {
               "long_name" : "Pindi Bhattian",
               "short_name" : "Pindi Bhattian",
               "types" : [ "administrative_area_level_3", "political" ]
            },
            {
               "long_name" : "Hafizabad",
               "short_name" : "Hafizabad",
               "types" : [ "administrative_area_level_2", "political" ]
            },
            {
               "long_name" : "Punjab",
               "short_name" : "Punjab",
               "types" : [ "administrative_area_level_1", "political" ]
            },
            {
               "long_name" : "Pakistan",
               "short_name" : "PK",
               "types" : [ "country", "political" ]
            }
         ],
         "formatted_address" : "Pindi Bhattian, Hafizabad, Punjab, Pakistan",
         "geometry" : {
            "bounds" : {
               "northeast" : {
                  "lat" : 32.1827314,
                  "lng" : 73.62347389999999
               },
               "southwest" : {
                  "lat" : 31.7615505,
                  "lng" : 73.1597093
               }
            },
            "location" : {
               "lat" : 31.9314181,
               "lng" : 73.4180211
            },
            "location_type" : "APPROXIMATE",
            "viewport" : {
               "northeast" : {
                  "lat" : 32.1827314,
                  "lng" : 73.62347389999999
               },
               "southwest" : {
                  "lat" : 31.7615505,
                  "lng" : 73.1597093
               }
            }
         },
         "place_id" : "ChIJMzUNgF__ITkRY7TazMQ7j_w",
         "types" : [ "administrative_area_level_3", "political" ]
      },
      {
         "address_components" : [
            {
               "long_name" : "Hafizabad",
               "short_name" : "Hafizabad",
               "types" : [ "administrative_area_level_2", "political" ]
            },
            {
               "long_name" : "Punjab",
               "short_name" : "Punjab",
               "types" : [ "administrative_area_level_1", "political" ]
            },
            {
               "long_name" : "Pakistan",
               "short_name" : "PK",
               "types" : [ "country", "political" ]
            }
         ],
         "formatted_address" : "Hafizabad, Punjab, Pakistan",
         "geometry" : {
            "bounds" : {
               "northeast" : {
                  "lat" : 32.3421286,
                  "lng" : 73.8308619
               },
               "southwest" : {
                  "lat" : 31.7615504,
                  "lng" : 73.1597093
               }
            },
            "location" : {
               "lat" : 32.0828952,
               "lng" : 73.55941279999999
            },
            "location_type" : "APPROXIMATE",
            "viewport" : {
               "northeast" : {
                  "lat" : 32.3421286,
                  "lng" : 73.8308619
               },
               "southwest" : {
                  "lat" : 31.7615504,
                  "lng" : 73.1597093
               }
            }
         },
         "place_id" : "ChIJU5BQC_pZHzkRw9KtQn0CiZQ",
         "types" : [ "administrative_area_level_2", "political" ]
      },
      {
         "address_components" : [
            {
               "long_name" : "Punjab",
               "short_name" : "Punjab",
               "types" : [ "administrative_area_level_1", "political" ]
            },
            {
               "long_name" : "Pakistan",
               "short_name" : "PK",
               "types" : [ "country", "political" ]
            }
         ],
         "formatted_address" : "Punjab, Pakistan",
         "geometry" : {
            "bounds" : {
               "northeast" : {
                  "lat" : 34.0434647,
                  "lng" : 75.3796504
               },
               "southwest" : {
                  "lat" : 27.7056256,
                  "lng" : 69.3288726
               }
            },
            "location" : {
               "lat" : 31.1704063,
               "lng" : 72.70971609999999
            },
            "location_type" : "APPROXIMATE",
            "viewport" : {
               "northeast" : {
                  "lat" : 34.0434647,
                  "lng" : 75.3796504
               },
               "southwest" : {
                  "lat" : 27.7056256,
                  "lng" : 69.3288726
               }
            }
         },
         "place_id" : "ChIJy5pBdImU3zgRoOxO0hgwnjo",
         "types" : [ "administrative_area_level_1", "political" ]
      },
      {
         "address_components" : [
            {
               "long_name" : "Pakistan",
               "short_name" : "PK",
               "types" : [ "country", "political" ]
            }
         ],
         "formatted_address" : "Pakistan",
         "geometry" : {
            "bounds" : {
               "northeast" : {
                  "lat" : 37.0841069,
                  "lng" : 77.1204247
               },
               "southwest" : {
                  "lat" : 23.6344999,
                  "lng" : 60.8729721
               }
            },
            "location" : {
               "lat" : 30.375321,
               "lng" : 69.34511599999999
            },
            "location_type" : "APPROXIMATE",
            "viewport" : {
               "northeast" : {
                  "lat" : 37.0841069,
                  "lng" : 77.1204247
               },
               "southwest" : {
                  "lat" : 23.6344999,
                  "lng" : 60.8729721
               }
            }
         },
         "place_id" : "ChIJH3X9-NJS2zgRXJIU5veht0Y",
         "types" : [ "country", "political" ]
      }
   ],
   "status" : "OK"
}
