{
   "plus_code" : {
      "compound_code" : "WJFW+22G Chak 118 SB, Pakistan",
      "global_code" : "8J3JWJFW+22G"
   },
   "results" : [
      {
         "address_components" : [
            {
               "long_name" : "WJFW+22",
               "short_name" : "WJFW+22",
               "types" : [ "plus_code" ]
            },
            {
               "long_name" : "Chak 118 SB",
               "short_name" : "Chak 118 SB",
               "types" : [ "locality", "political" ]
            },
            {
               "long_name" : "Sillanwali",
               "short_name" : "Sillanwali",
               "types" : [ "administrative_area_level_3", "political" ]
            },
            {
               "long_name" : "Sargodha",
               "short_name" : "Sargodha",
               "types" : [ "administrative_area_level_2", "political" ]
            },
            {
               "long_name" : "Punjab",
               "short_name" : "Punjab",
               "types" : [ "administrative_area_level_1", "political" ]
            },
            {
               "long_name" : "Pakistan",
               "short_name" : "PK",
               "types" : [ "country", "political" ]
            }
         ],
         "formatted_address" : "WJFW+22 Chak 118 SB, Pakistan",
         "geometry" : {
            "bounds" : {
               "northeast" : {
                  "lat" : 31.922625,
                  "lng" : 72.64512499999999
               },
               "southwest" : {
                  "lat" : 31.9225,
                  "lng" : 72.645
               }
            },
            "location" : {
               "lat" : 31.9225746,
               "lng" : 72.64507809999999
            },
            "location_type" : "GEOMETRIC_CENTER",
            "viewport" : {
               "northeast" : {
                  "lat" : 31.9239114802915,
                  "lng" : 72.64641148029149
               },
               "southwest" : {
                  "lat" : 31.92121351970851,
                  "lng" : 72.64371351970848
               }
            }
         },
         "place_id" : "GhIJyh5X2S3sP0ARaben9UgpUkA",
         "plus_code" : {
            "compound_code" : "WJFW+22 Chak 118 SB, Pakistan",
            "global_code" : "8J3JWJFW+22"
         },
         "types" : [ "plus_code" ]
      },
      {
         "address_components" : [
            {
               "long_name" : "WJFV+HX",
               "short_name" : "WJFV+HX",
               "types" : [ "plus_code" ]
            },
            {
               "long_name" : "Chak 118 SB",
               "short_name" : "Chak 118 SB",
               "types" : [ "locality", "political" ]
            },
            {
               "long_name" : "Sillanwali",
               "short_name" : "Sillanwali",
               "types" : [ "administrative_area_level_3", "political" ]
            },
            {
               "long_name" : "Sargodha",
               "short_name" : "Sargodha",
               "types" : [ "administrative_area_level_2", "political" ]
            },
            {
               "long_name" : "Punjab",
               "short_name" : "Punjab",
               "types" : [ "administrative_area_level_1", "political" ]
            },
            {
               "long_name" : "Pakistan",
               "short_name" : "PK",
               "types" : [ "country", "political" ]
            }
         ],
         "formatted_address" : "WJFV+HX, Chak 118 SB, Sargodha, Punjab, Pakistan",
         "geometry" : {
            "location" : {
               "lat" : 31.9240332,
               "lng" : 72.6448661
            },
            "location_type" : "GEOMETRIC_CENTER",
            "viewport" : {
               "northeast" : {
                  "lat" : 31.9253821802915,
                  "lng" : 72.64621508029151
               },
               "southwest" : {
                  "lat" : 31.9226842197085,
                  "lng" : 72.64351711970849
               }
            }
         },
         "place_id" : "ChIJgYrcCYt_ITkRHRrXC3HnfLg",
         "types" : [ "establishment", "point_of_interest", "primary_school", "school" ]
      },
      {
         "address_components" : [
            {
               "long_name" : "WJFV+HX",
               "short_name" : "WJFV+HX",
               "types" : [ "plus_code" ]
            },
            {
               "long_name" : "Chak 118 SB",
               "short_name" : "Chak 118 SB",
               "types" : [ "locality", "political" ]
            },
            {
               "long_name" : "Sillanwali",
               "short_name" : "Sillanwali",
               "types" : [ "administrative_area_level_3", "political" ]
            },
            {
               "long_name" : "Sargodha",
               "short_name" : "Sargodha",
               "types" : [ "administrative_area_level_2", "political" ]
            },
            {
               "long_name" : "Punjab",
               "short_name" : "Punjab",
               "types" : [ "administrative_area_level_1", "political" ]
            },
            {
               "long_name" : "Pakistan",
               "short_name" : "PK",
               "types" : [ "country", "political" ]
            }
         ],
         "formatted_address" : "WJFV+HX, Chak 118 SB, Sargodha, Punjab, Pakistan",
         "geometry" : {
            "bounds" : {
               "northeast" : {
                  "lat" : 31.9241336,
                  "lng" : 72.6449252
               },
               "southwest" : {
                  "lat" : 31.92400919999999,
                  "lng" : 72.64478509999999
               }
            },
            "location" : {
               "lat" : 31.924073,
               "lng" : 72.6448446
            },
            "location_type" : "ROOFTOP",
            "viewport" : {
               "northeast" : {
                  "lat" : 31.92542038029149,
                  "lng" : 72.64620413029149
               },
               "southwest" : {
                  "lat" : 31.9227224197085,
                  "lng" : 72.64350616970849
               }
            }
         },
         "place_id" : "ChIJSzkL9_F-ITkRzuCK7VzRS9s",
         "types" : [ "premise" ]
      },
      {
         "address_components" : [
            {
               "long_name" : "Unnamed Road",
               "short_name" : "Unnamed Road",
               "types" : [ "route" ]
            },
            {
               "long_name" : "Chak 118 SB",
               "short_name" : "Chak 118 SB",
               "types" : [ "locality", "political" ]
            },
            {
               "long_name" : "Sillanwali",
               "short_name" : "Sillanwali",
               "types" : [ "administrative_area_level_3", "political" ]
            },
            {
               "long_name" : "Sargodha",
               "short_name" : "Sargodha",
               "types" : [ "administrative_area_level_2", "political" ]
            },
            {
               "long_name" : "Punjab",
               "short_name" : "Punjab",
               "types" : [ "administrative_area_level_1", "political" ]
            },
            {
               "long_name" : "Pakistan",
               "short_name" : "PK",
               "types" : [ "country", "political" ]
            }
         ],
         "formatted_address" : "Unnamed Road, Chak 118 SB, Sargodha, Punjab, Pakistan",
         "geometry" : {
            "bounds" : {
               "northeast" : {
                  "lat" : 31.9229955,
                  "lng" : 72.6463844
               },
               "southwest" : {
                  "lat" : 31.9227128,
                  "lng" : 72.64616079999999
               }
            },
            "location" : {
               "lat" : 31.9228542,
               "lng" : 72.6462726
            },
            "location_type" : "GEOMETRIC_CENTER",
            "viewport" : {
               "northeast" : {
                  "lat" : 31.9242031302915,
                  "lng" : 72.6476215802915
               },
               "southwest" : {
                  "lat" : 31.9215051697085,
                  "lng" : 72.64492361970848
               }
            }
         },
         "place_id" : "ChIJcTJZovF-ITkRitPLS1h0xNs",
         "types" : [ "route" ]
      },
      {
         "address_components" : [
            {
               "long_name" : "Chak 97 NB",
               "short_name" : "Chak 97 NB",
               "types" : [ "administrative_area_level_5", "political" ]
            },
            {
               "long_name" : "Sargodha",
               "short_name" : "Sargodha",
               "types" : [ "administrative_area_level_2", "political" ]
            },
            {
               "long_name" : "Punjab",
               "short_name" : "Punjab",
               "types" : [ "administrative_area_level_1", "political" ]
            },
            {
               "long_name" : "Pakistan",
               "short_name" : "PK",
               "types" : [ "country", "political" ]
            }
         ],
         "formatted_address" : "Chak 97 NB, Sargodha, Punjab, Pakistan",
         "geometry" : {
            "bounds" : {
               "northeast" : {
                  "lat" : 31.9534422,
                  "lng" : 72.68980479999999
               },
               "southwest" : {
                  "lat" : 31.87215,
                  "lng" : 72.5707377
               }
            },
            "location" : {
               "lat" : 31.9224009,
               "lng" : 72.6269437
            },
            "location_type" : "APPROXIMATE",
            "viewport" : {
               "northeast" : {
                  "lat" : 31.9534422,
                  "lng" : 72.68980479999999
               },
               "southwest" : {
                  "lat" : 31.87215,
                  "lng" : 72.5707377
               }
            }
         },
         "place_id" : "ChIJh3mgzol-ITkR1HNO2yidOOo",
         "types" : [ "administrative_area_level_5", "political" ]
      },
      {
         "address_components" : [
            {
               "long_name" : "Sillanwali",
               "short_name" : "Sillanwali",
               "types" : [ "administrative_area_level_3", "political" ]
            },
            {
               "long_name" : "Sargodha",
               "short_name" : "Sargodha",
               "types" : [ "administrative_area_level_2", "political" ]
            },
            {
               "long_name" : "Punjab",
               "short_name" : "Punjab",
               "types" : [ "administrative_area_level_1", "political" ]
            },
            {
               "long_name" : "Pakistan",
               "short_name" : "PK",
               "types" : [ "country", "political" ]
            }
         ],
         "formatted_address" : "Sillanwali, Sargodha, Punjab, Pakistan",
         "geometry" : {
            "bounds" : {
               "northeast" : {
                  "lat" : 31.9683651,
                  "lng" : 72.76137179999999
               },
               "southwest" : {
                  "lat" : 31.5566251,
                  "lng" : 72.2457739
               }
            },
            "location" : {
               "lat" : 31.7893998,
               "lng" : 72.5441445
            },
            "location_type" : "APPROXIMATE",
            "viewport" : {
               "northeast" : {
                  "lat" : 31.9683651,
                  "lng" : 72.76137179999999
               },
               "southwest" : {
                  "lat" : 31.5566251,
                  "lng" : 72.2457739
               }
            }
         },
         "place_id" : "ChIJHUC2EfbZIzkR5MStrq6VSMo",
         "types" : [ "administrative_area_level_3", "political" ]
      },
      {
         "address_components" : [
            {
               "long_name" : "Sargodha",
               "short_name" : "Sargodha",
               "types" : [ "administrative_area_level_2", "political" ]
            },
            {
               "long_name" : "Punjab",
               "short_name" : "Punjab",
               "types" : [ "administrative_area_level_1", "political" ]
            },
            {
               "long_name" : "Pakistan",
               "short_name" : "PK",
               "types" : [ "country", "political" ]
            }
         ],
         "formatted_address" : "Sargodha, Punjab, Pakistan",
         "geometry" : {
            "bounds" : {
               "northeast" : {
                  "lat" : 32.5712785,
                  "lng" : 73.31019239999999
               },
               "southwest" : {
                  "lat" : 31.5566249,
                  "lng" : 72.21704679999999
               }
            },
            "location" : {
               "lat" : 32.156592,
               "lng" : 72.8042797
            },
            "location_type" : "APPROXIMATE",
            "viewport" : {
               "northeast" : {
                  "lat" : 32.5712785,
                  "lng" : 73.31019239999999
               },
               "southwest" : {
                  "lat" : 31.5566249,
                  "lng" : 72.21704679999999
               }
            }
         },
         "place_id" : "ChIJ0S6JJZadITkRmlmemFkTNjk",
         "types" : [ "administrative_area_level_2", "political" ]
      },
      {
         "address_components" : [
            {
               "long_name" : "Punjab",
               "short_name" : "Punjab",
               "types" : [ "administrative_area_level_1", "political" ]
            },
            {
               "long_name" : "Pakistan",
               "short_name" : "PK",
               "types" : [ "country", "political" ]
            }
         ],
         "formatted_address" : "Punjab, Pakistan",
         "geometry" : {
            "bounds" : {
               "northeast" : {
                  "lat" : 34.0434647,
                  "lng" : 75.3796504
               },
               "southwest" : {
                  "lat" : 27.7056256,
                  "lng" : 69.3288726
               }
            },
            "location" : {
               "lat" : 31.1704063,
               "lng" : 72.70971609999999
            },
            "location_type" : "APPROXIMATE",
            "viewport" : {
               "northeast" : {
                  "lat" : 34.0434647,
                  "lng" : 75.3796504
               },
               "southwest" : {
                  "lat" : 27.7056256,
                  "lng" : 69.3288726
               }
            }
         },
         "place_id" : "ChIJy5pBdImU3zgRoOxO0hgwnjo",
         "types" : [ "administrative_area_level_1", "political" ]
      },
      {
         "address_components" : [
            {
               "long_name" : "Pakistan",
               "short_name" : "PK",
               "types" : [ "country", "political" ]
            }
         ],
         "formatted_address" : "Pakistan",
         "geometry" : {
            "bounds" : {
               "northeast" : {
                  "lat" : 37.0841069,
                  "lng" : 77.1204247
               },
               "southwest" : {
                  "lat" : 23.6344999,
                  "lng" : 60.8729721
               }
            },
            "location" : {
               "lat" : 30.375321,
               "lng" : 69.34511599999999
            },
            "location_type" : "APPROXIMATE",
            "viewport" : {
               "northeast" : {
                  "lat" : 37.0841069,
                  "lng" : 77.1204247
               },
               "southwest" : {
                  "lat" : 23.6344999,
                  "lng" : 60.8729721
               }
            }
         },
         "place_id" : "ChIJH3X9-NJS2zgRXJIU5veht0Y",
         "types" : [ "country", "political" ]
      }
   ],
   "status" : "OK"
}
