{
   "plus_code" : {
      "compound_code" : "283W+22G Thatha Jahid Amir Wala, Pakistan",
      "global_code" : "8J4M283W+22G"
   },
   "results" : [
      {
         "address_components" : [
            {
               "long_name" : "283W+22",
               "short_name" : "283W+22",
               "types" : [ "plus_code" ]
            },
            {
               "long_name" : "Thatha Jahid Amir Wala",
               "short_name" : "Thatha Jahid Amir Wala",
               "types" : [ "locality", "political" ]
            },
            {
               "long_name" : "Pindi Bhattian",
               "short_name" : "Pindi Bhattian",
               "types" : [ "administrative_area_level_3", "political" ]
            },
            {
               "long_name" : "Hafizabad",
               "short_name" : "Hafizabad",
               "types" : [ "administrative_area_level_2", "political" ]
            },
            {
               "long_name" : "Punjab",
               "short_name" : "Punjab",
               "types" : [ "administrative_area_level_1", "political" ]
            },
            {
               "long_name" : "Pakistan",
               "short_name" : "PK",
               "types" : [ "country", "political" ]
            }
         ],
         "formatted_address" : "283W+22 Thatha Jahid Amir Wala, Pakistan",
         "geometry" : {
            "bounds" : {
               "northeast" : {
                  "lat" : 32.002625,
                  "lng" : 73.34512500000001
               },
               "southwest" : {
                  "lat" : 32.0025,
                  "lng" : 73.345
               }
            },
            "location" : {
               "lat" : 32.0025746,
               "lng" : 73.34507809999999
            },
            "location_type" : "GEOMETRIC_CENTER",
            "viewport" : {
               "northeast" : {
                  "lat" : 32.0039114802915,
                  "lng" : 73.34641148029152
               },
               "southwest" : {
                  "lat" : 32.0012135197085,
                  "lng" : 73.3437135197085
               }
            }
         },
         "place_id" : "GhIJb2ZPXVQAQEARNoR0whVWUkA",
         "plus_code" : {
            "compound_code" : "283W+22 Thatha Jahid Amir Wala, Pakistan",
            "global_code" : "8J4M283W+22"
         },
         "types" : [ "plus_code" ]
      },
      {
         "address_components" : [
            {
               "long_name" : "283V+P3M",
               "short_name" : "283V+P3M",
               "types" : [ "plus_code" ]
            },
            {
               "long_name" : "Pindi Bhattian",
               "short_name" : "Pindi Bhattian",
               "types" : [ "administrative_area_level_3", "political" ]
            },
            {
               "long_name" : "Hafizabad",
               "short_name" : "Hafizabad",
               "types" : [ "administrative_area_level_2", "political" ]
            },
            {
               "long_name" : "Punjab",
               "short_name" : "Punjab",
               "types" : [ "administrative_area_level_1", "political" ]
            },
            {
               "long_name" : "Pakistan",
               "short_name" : "PK",
               "types" : [ "country", "political" ]
            }
         ],
         "formatted_address" : "283V+P3M, Hafizabad, Punjab, Pakistan",
         "geometry" : {
            "bounds" : {
               "northeast" : {
                  "lat" : 32.0043877,
                  "lng" : 73.34272369999999
               },
               "southwest" : {
                  "lat" : 32.0043029,
                  "lng" : 73.3425785
               }
            },
            "location" : {
               "lat" : 32.0043515,
               "lng" : 73.3426499
            },
            "location_type" : "ROOFTOP",
            "viewport" : {
               "northeast" : {
                  "lat" : 32.0056942802915,
                  "lng" : 73.34400008029149
               },
               "southwest" : {
                  "lat" : 32.0029963197085,
                  "lng" : 73.34130211970849
               }
            }
         },
         "place_id" : "ChIJl94ES-H4ITkRkrBaBp0G6sY",
         "types" : [ "premise" ]
      },
      {
         "address_components" : [
            {
               "long_name" : "Unnamed Road",
               "short_name" : "Unnamed Road",
               "types" : [ "route" ]
            },
            {
               "long_name" : "Pindi Bhattian",
               "short_name" : "Pindi Bhattian",
               "types" : [ "administrative_area_level_3", "political" ]
            },
            {
               "long_name" : "Hafizabad",
               "short_name" : "Hafizabad",
               "types" : [ "administrative_area_level_2", "political" ]
            },
            {
               "long_name" : "Punjab",
               "short_name" : "Punjab",
               "types" : [ "administrative_area_level_1", "political" ]
            },
            {
               "long_name" : "Pakistan",
               "short_name" : "PK",
               "types" : [ "country", "political" ]
            }
         ],
         "formatted_address" : "Unnamed Road, Hafizabad, Punjab, Pakistan",
         "geometry" : {
            "bounds" : {
               "northeast" : {
                  "lat" : 32.0046896,
                  "lng" : 73.3441287
               },
               "southwest" : {
                  "lat" : 32.0041089,
                  "lng" : 73.3431963
               }
            },
            "location" : {
               "lat" : 32.0041246,
               "lng" : 73.3439054
            },
            "location_type" : "GEOMETRIC_CENTER",
            "viewport" : {
               "northeast" : {
                  "lat" : 32.00574823029149,
                  "lng" : 73.34501148029152
               },
               "southwest" : {
                  "lat" : 32.0030502697085,
                  "lng" : 73.3423135197085
               }
            }
         },
         "place_id" : "ChIJ4xxrM-H4ITkRLk2PjV7hoqs",
         "types" : [ "route" ]
      },
      {
         "address_components" : [
            {
               "long_name" : "Sadhoke",
               "short_name" : "Sadhoke",
               "types" : [ "administrative_area_level_5", "political" ]
            },
            {
               "long_name" : "Pindi Bhattian",
               "short_name" : "Pindi Bhattian",
               "types" : [ "administrative_area_level_3", "political" ]
            },
            {
               "long_name" : "Hafizabad",
               "short_name" : "Hafizabad",
               "types" : [ "administrative_area_level_2", "political" ]
            },
            {
               "long_name" : "Punjab",
               "short_name" : "Punjab",
               "types" : [ "administrative_area_level_1", "political" ]
            },
            {
               "long_name" : "Pakistan",
               "short_name" : "PK",
               "types" : [ "country", "political" ]
            }
         ],
         "formatted_address" : "Sadhoke, Hafizabad, Punjab, Pakistan",
         "geometry" : {
            "bounds" : {
               "northeast" : {
                  "lat" : 32.1646336,
                  "lng" : 73.40759709999999
               },
               "southwest" : {
                  "lat" : 31.9927903,
                  "lng" : 73.253501
               }
            },
            "location" : {
               "lat" : 32.0702669,
               "lng" : 73.3001233
            },
            "location_type" : "APPROXIMATE",
            "viewport" : {
               "northeast" : {
                  "lat" : 32.1646336,
                  "lng" : 73.40759709999999
               },
               "southwest" : {
                  "lat" : 31.9927903,
                  "lng" : 73.253501
               }
            }
         },
         "place_id" : "ChIJPzJRvLb7ITkRcO2yZzHJXlE",
         "types" : [ "administrative_area_level_5", "political" ]
      },
      {
         "address_components" : [
            {
               "long_name" : "Pindi Bhattian",
               "short_name" : "Pindi Bhattian",
               "types" : [ "administrative_area_level_3", "political" ]
            },
            {
               "long_name" : "Hafizabad",
               "short_name" : "Hafizabad",
               "types" : [ "administrative_area_level_2", "political" ]
            },
            {
               "long_name" : "Punjab",
               "short_name" : "Punjab",
               "types" : [ "administrative_area_level_1", "political" ]
            },
            {
               "long_name" : "Pakistan",
               "short_name" : "PK",
               "types" : [ "country", "political" ]
            }
         ],
         "formatted_address" : "Pindi Bhattian, Hafizabad, Punjab, Pakistan",
         "geometry" : {
            "bounds" : {
               "northeast" : {
                  "lat" : 32.1827314,
                  "lng" : 73.62347389999999
               },
               "southwest" : {
                  "lat" : 31.7615505,
                  "lng" : 73.1597093
               }
            },
            "location" : {
               "lat" : 31.9314181,
               "lng" : 73.4180211
            },
            "location_type" : "APPROXIMATE",
            "viewport" : {
               "northeast" : {
                  "lat" : 32.1827314,
                  "lng" : 73.62347389999999
               },
               "southwest" : {
                  "lat" : 31.7615505,
                  "lng" : 73.1597093
               }
            }
         },
         "place_id" : "ChIJMzUNgF__ITkRY7TazMQ7j_w",
         "types" : [ "administrative_area_level_3", "political" ]
      },
      {
         "address_components" : [
            {
               "long_name" : "Hafizabad",
               "short_name" : "Hafizabad",
               "types" : [ "administrative_area_level_2", "political" ]
            },
            {
               "long_name" : "Punjab",
               "short_name" : "Punjab",
               "types" : [ "administrative_area_level_1", "political" ]
            },
            {
               "long_name" : "Pakistan",
               "short_name" : "PK",
               "types" : [ "country", "political" ]
            }
         ],
         "formatted_address" : "Hafizabad, Punjab, Pakistan",
         "geometry" : {
            "bounds" : {
               "northeast" : {
                  "lat" : 32.3421286,
                  "lng" : 73.8308619
               },
               "southwest" : {
                  "lat" : 31.7615504,
                  "lng" : 73.1597093
               }
            },
            "location" : {
               "lat" : 32.0828952,
               "lng" : 73.55941279999999
            },
            "location_type" : "APPROXIMATE",
            "viewport" : {
               "northeast" : {
                  "lat" : 32.3421286,
                  "lng" : 73.8308619
               },
               "southwest" : {
                  "lat" : 31.7615504,
                  "lng" : 73.1597093
               }
            }
         },
         "place_id" : "ChIJU5BQC_pZHzkRw9KtQn0CiZQ",
         "types" : [ "administrative_area_level_2", "political" ]
      },
      {
         "address_components" : [
            {
               "long_name" : "Punjab",
               "short_name" : "Punjab",
               "types" : [ "administrative_area_level_1", "political" ]
            },
            {
               "long_name" : "Pakistan",
               "short_name" : "PK",
               "types" : [ "country", "political" ]
            }
         ],
         "formatted_address" : "Punjab, Pakistan",
         "geometry" : {
            "bounds" : {
               "northeast" : {
                  "lat" : 34.0434647,
                  "lng" : 75.3796504
               },
               "southwest" : {
                  "lat" : 27.7056256,
                  "lng" : 69.3288726
               }
            },
            "location" : {
               "lat" : 31.1704063,
               "lng" : 72.70971609999999
            },
            "location_type" : "APPROXIMATE",
            "viewport" : {
               "northeast" : {
                  "lat" : 34.0434647,
                  "lng" : 75.3796504
               },
               "southwest" : {
                  "lat" : 27.7056256,
                  "lng" : 69.3288726
               }
            }
         },
         "place_id" : "ChIJy5pBdImU3zgRoOxO0hgwnjo",
         "types" : [ "administrative_area_level_1", "political" ]
      },
      {
         "address_components" : [
            {
               "long_name" : "Pakistan",
               "short_name" : "PK",
               "types" : [ "country", "political" ]
            }
         ],
         "formatted_address" : "Pakistan",
         "geometry" : {
            "bounds" : {
               "northeast" : {
                  "lat" : 37.0841069,
                  "lng" : 77.1204247
               },
               "southwest" : {
                  "lat" : 23.6344999,
                  "lng" : 60.8729721
               }
            },
            "location" : {
               "lat" : 30.375321,
               "lng" : 69.34511599999999
            },
            "location_type" : "APPROXIMATE",
            "viewport" : {
               "northeast" : {
                  "lat" : 37.0841069,
                  "lng" : 77.1204247
               },
               "southwest" : {
                  "lat" : 23.6344999,
                  "lng" : 60.8729721
               }
            }
         },
         "place_id" : "ChIJH3X9-NJS2zgRXJIU5veht0Y",
         "types" : [ "country", "political" ]
      }
   ],
   "status" : "OK"
}
