{
   "plus_code" : {
      "compound_code" : "XXMW+22G Peelo Wains, Pakistan",
      "global_code" : "8J3HXXMW+22G"
   },
   "results" : [
      {
         "address_components" : [
            {
               "long_name" : "XXJV+QPJ",
               "short_name" : "XXJV+QPJ",
               "types" : [ "plus_code" ]
            },
            {
               "long_name" : "Rooda Noorpur Thal Road",
               "short_name" : "Rooda Noorpur Thal Rd",
               "types" : [ "route" ]
            },
            {
               "long_name" : "Peelo Wains",
               "short_name" : "Peelo Wains",
               "types" : [ "locality", "political" ]
            },
            {
               "long_name" : "Nurpur",
               "short_name" : "Nurpur",
               "types" : [ "administrative_area_level_3", "political" ]
            },
            {
               "long_name" : "Khushab",
               "short_name" : "Khushab",
               "types" : [ "administrative_area_level_2", "political" ]
            },
            {
               "long_name" : "Punjab",
               "short_name" : "Punjab",
               "types" : [ "administrative_area_level_1", "political" ]
            },
            {
               "long_name" : "Pakistan",
               "short_name" : "PK",
               "types" : [ "country", "political" ]
            }
         ],
         "formatted_address" : "XXJV+QPJ, Rooda Noorpur Thal Rd, Peelo Wains, Khushab, Punjab, Pakistan",
         "geometry" : {
            "location" : {
               "lat" : 31.9819701,
               "lng" : 71.99426319999999
            },
            "location_type" : "GEOMETRIC_CENTER",
            "viewport" : {
               "northeast" : {
                  "lat" : 31.98331908029149,
                  "lng" : 71.9956121802915
               },
               "southwest" : {
                  "lat" : 31.9806211197085,
                  "lng" : 71.9929142197085
               }
            }
         },
         "place_id" : "ChIJ9SEWYphNITkRPhn5glxoVm8",
         "types" : [ "establishment", "point_of_interest", "school" ]
      },
      {
         "address_components" : [
            {
               "long_name" : "XXMW+22",
               "short_name" : "XXMW+22",
               "types" : [ "plus_code" ]
            },
            {
               "long_name" : "Peelo Wains",
               "short_name" : "Peelo Wains",
               "types" : [ "locality", "political" ]
            },
            {
               "long_name" : "Nurpur",
               "short_name" : "Nurpur",
               "types" : [ "administrative_area_level_3", "political" ]
            },
            {
               "long_name" : "Khushab",
               "short_name" : "Khushab",
               "types" : [ "administrative_area_level_2", "political" ]
            },
            {
               "long_name" : "Punjab",
               "short_name" : "Punjab",
               "types" : [ "administrative_area_level_1", "political" ]
            },
            {
               "long_name" : "Pakistan",
               "short_name" : "PK",
               "types" : [ "country", "political" ]
            }
         ],
         "formatted_address" : "XXMW+22 Peelo Wains, Pakistan",
         "geometry" : {
            "bounds" : {
               "northeast" : {
                  "lat" : 31.982625,
                  "lng" : 71.995125
               },
               "southwest" : {
                  "lat" : 31.9825,
                  "lng" : 71.99499999999999
               }
            },
            "location" : {
               "lat" : 31.9825746,
               "lng" : 71.9950781
            },
            "location_type" : "GEOMETRIC_CENTER",
            "viewport" : {
               "northeast" : {
                  "lat" : 31.9839114802915,
                  "lng" : 71.9964114802915
               },
               "southwest" : {
                  "lat" : 31.9812135197085,
                  "lng" : 71.99371351970849
               }
            }
         },
         "place_id" : "GhIJW-FMAor7P0AR0B0OXK__UUA",
         "plus_code" : {
            "compound_code" : "XXMW+22 Peelo Wains, Pakistan",
            "global_code" : "8J3HXXMW+22"
         },
         "types" : [ "plus_code" ]
      },
      {
         "address_components" : [
            {
               "long_name" : "XXMV+344",
               "short_name" : "XXMV+344",
               "types" : [ "plus_code" ]
            },
            {
               "long_name" : "Peelo Wains",
               "short_name" : "Peelo Wains",
               "types" : [ "locality", "political" ]
            },
            {
               "long_name" : "Nurpur",
               "short_name" : "Nurpur",
               "types" : [ "administrative_area_level_3", "political" ]
            },
            {
               "long_name" : "Khushab",
               "short_name" : "Khushab",
               "types" : [ "administrative_area_level_2", "political" ]
            },
            {
               "long_name" : "Punjab",
               "short_name" : "Punjab",
               "types" : [ "administrative_area_level_1", "political" ]
            },
            {
               "long_name" : "Pakistan",
               "short_name" : "PK",
               "types" : [ "country", "political" ]
            }
         ],
         "formatted_address" : "XXMV+344, Peelo Wains, Khushab, Punjab, Pakistan",
         "geometry" : {
            "bounds" : {
               "northeast" : {
                  "lat" : 31.98266719999999,
                  "lng" : 71.9929094
               },
               "southwest" : {
                  "lat" : 31.9825719,
                  "lng" : 71.9927593
               }
            },
            "location" : {
               "lat" : 31.9826175,
               "lng" : 71.9928201
            },
            "location_type" : "ROOFTOP",
            "viewport" : {
               "northeast" : {
                  "lat" : 31.9839685302915,
                  "lng" : 71.99418333029151
               },
               "southwest" : {
                  "lat" : 31.9812705697085,
                  "lng" : 71.9914853697085
               }
            }
         },
         "place_id" : "ChIJTy3I0A5NITkR27uiToEpD6M",
         "types" : [ "premise" ]
      },
      {
         "address_components" : [
            {
               "long_name" : "Unnamed Road",
               "short_name" : "Unnamed Road",
               "types" : [ "route" ]
            },
            {
               "long_name" : "Peelo Wains",
               "short_name" : "Peelo Wains",
               "types" : [ "locality", "political" ]
            },
            {
               "long_name" : "Nurpur",
               "short_name" : "Nurpur",
               "types" : [ "administrative_area_level_3", "political" ]
            },
            {
               "long_name" : "Khushab",
               "short_name" : "Khushab",
               "types" : [ "administrative_area_level_2", "political" ]
            },
            {
               "long_name" : "Punjab",
               "short_name" : "Punjab",
               "types" : [ "administrative_area_level_1", "political" ]
            },
            {
               "long_name" : "Pakistan",
               "short_name" : "PK",
               "types" : [ "country", "political" ]
            }
         ],
         "formatted_address" : "Unnamed Road, Peelo Wains, Khushab, Punjab, Pakistan",
         "geometry" : {
            "bounds" : {
               "northeast" : {
                  "lat" : 31.983213,
                  "lng" : 71.994984
               },
               "southwest" : {
                  "lat" : 31.9829521,
                  "lng" : 71.9949805
               }
            },
            "location" : {
               "lat" : 31.9830826,
               "lng" : 71.9949822
            },
            "location_type" : "GEOMETRIC_CENTER",
            "viewport" : {
               "northeast" : {
                  "lat" : 31.9844315302915,
                  "lng" : 71.9963312302915
               },
               "southwest" : {
                  "lat" : 31.9817335697085,
                  "lng" : 71.9936332697085
               }
            }
         },
         "place_id" : "ChIJQ4NjHwlNITkRYieEOBQAwGA",
         "types" : [ "route" ]
      },
      {
         "address_components" : [
            {
               "long_name" : "Peelo Wains",
               "short_name" : "Peelo Wains",
               "types" : [ "locality", "political" ]
            },
            {
               "long_name" : "Nurpur",
               "short_name" : "Nurpur",
               "types" : [ "administrative_area_level_3", "political" ]
            },
            {
               "long_name" : "Khushab",
               "short_name" : "Khushab",
               "types" : [ "administrative_area_level_2", "political" ]
            },
            {
               "long_name" : "Punjab",
               "short_name" : "Punjab",
               "types" : [ "administrative_area_level_1", "political" ]
            },
            {
               "long_name" : "Pakistan",
               "short_name" : "PK",
               "types" : [ "country", "political" ]
            }
         ],
         "formatted_address" : "Peelo Wains, Khushab, Punjab, Pakistan",
         "geometry" : {
            "bounds" : {
               "northeast" : {
                  "lat" : 31.9944283,
                  "lng" : 72.0053815
               },
               "southwest" : {
                  "lat" : 31.9781212,
                  "lng" : 71.97924619999999
               }
            },
            "location" : {
               "lat" : 31.9881547,
               "lng" : 71.9905165
            },
            "location_type" : "APPROXIMATE",
            "viewport" : {
               "northeast" : {
                  "lat" : 31.9944283,
                  "lng" : 72.0053815
               },
               "southwest" : {
                  "lat" : 31.9781212,
                  "lng" : 71.97924619999999
               }
            }
         },
         "place_id" : "ChIJYeej8gVNITkRq0WhtYU0Mi0",
         "types" : [ "locality", "political" ]
      },
      {
         "address_components" : [
            {
               "long_name" : "Pelowance",
               "short_name" : "Pelowance",
               "types" : [ "administrative_area_level_5", "political" ]
            },
            {
               "long_name" : "Nurpur",
               "short_name" : "Nurpur",
               "types" : [ "administrative_area_level_3", "political" ]
            },
            {
               "long_name" : "Khushab",
               "short_name" : "Khushab",
               "types" : [ "administrative_area_level_2", "political" ]
            },
            {
               "long_name" : "Punjab",
               "short_name" : "Punjab",
               "types" : [ "administrative_area_level_1", "political" ]
            },
            {
               "long_name" : "Pakistan",
               "short_name" : "PK",
               "types" : [ "country", "political" ]
            }
         ],
         "formatted_address" : "Pelowance, Khushab, Punjab, Pakistan",
         "geometry" : {
            "bounds" : {
               "northeast" : {
                  "lat" : 32.1012128,
                  "lng" : 72.078637
               },
               "southwest" : {
                  "lat" : 31.9157846,
                  "lng" : 71.86595389999999
               }
            },
            "location" : {
               "lat" : 32.0162212,
               "lng" : 71.97569899999999
            },
            "location_type" : "APPROXIMATE",
            "viewport" : {
               "northeast" : {
                  "lat" : 32.1012128,
                  "lng" : 72.078637
               },
               "southwest" : {
                  "lat" : 31.9157846,
                  "lng" : 71.86595389999999
               }
            }
         },
         "place_id" : "ChIJCYBLscNMITkRic3fywCsBAw",
         "types" : [ "administrative_area_level_5", "political" ]
      },
      {
         "address_components" : [
            {
               "long_name" : "Nurpur",
               "short_name" : "Nurpur",
               "types" : [ "administrative_area_level_3", "political" ]
            },
            {
               "long_name" : "Khushab",
               "short_name" : "Khushab",
               "types" : [ "administrative_area_level_2", "political" ]
            },
            {
               "long_name" : "Punjab",
               "short_name" : "Punjab",
               "types" : [ "administrative_area_level_1", "political" ]
            },
            {
               "long_name" : "Pakistan",
               "short_name" : "PK",
               "types" : [ "country", "political" ]
            }
         ],
         "formatted_address" : "Nurpur, Khushab, Punjab, Pakistan",
         "geometry" : {
            "bounds" : {
               "northeast" : {
                  "lat" : 32.2134421,
                  "lng" : 72.28814199999999
               },
               "southwest" : {
                  "lat" : 31.5302101,
                  "lng" : 71.62501139999999
               }
            },
            "location" : {
               "lat" : 31.84487399999999,
               "lng" : 71.8571331
            },
            "location_type" : "APPROXIMATE",
            "viewport" : {
               "northeast" : {
                  "lat" : 32.2134421,
                  "lng" : 72.28814199999999
               },
               "southwest" : {
                  "lat" : 31.5302101,
                  "lng" : 71.62501139999999
               }
            }
         },
         "place_id" : "ChIJG3IowE1TITkRolpo_M8cxgo",
         "types" : [ "administrative_area_level_3", "political" ]
      },
      {
         "address_components" : [
            {
               "long_name" : "Khushab",
               "short_name" : "Khushab",
               "types" : [ "administrative_area_level_2", "political" ]
            },
            {
               "long_name" : "Punjab",
               "short_name" : "Punjab",
               "types" : [ "administrative_area_level_1", "political" ]
            },
            {
               "long_name" : "Pakistan",
               "short_name" : "PK",
               "types" : [ "country", "political" ]
            }
         ],
         "formatted_address" : "Khushab, Punjab, Pakistan",
         "geometry" : {
            "bounds" : {
               "northeast" : {
                  "lat" : 32.7130681,
                  "lng" : 72.6641959
               },
               "southwest" : {
                  "lat" : 31.5302101,
                  "lng" : 71.62501139999999
               }
            },
            "location" : {
               "lat" : 32.3259122,
               "lng" : 72.14161319999999
            },
            "location_type" : "APPROXIMATE",
            "viewport" : {
               "northeast" : {
                  "lat" : 32.7130681,
                  "lng" : 72.6641959
               },
               "southwest" : {
                  "lat" : 31.5302101,
                  "lng" : 71.62501139999999
               }
            }
         },
         "place_id" : "ChIJLxN-009IITkRkCg_bdeC5GU",
         "types" : [ "administrative_area_level_2", "political" ]
      },
      {
         "address_components" : [
            {
               "long_name" : "Punjab",
               "short_name" : "Punjab",
               "types" : [ "administrative_area_level_1", "political" ]
            },
            {
               "long_name" : "Pakistan",
               "short_name" : "PK",
               "types" : [ "country", "political" ]
            }
         ],
         "formatted_address" : "Punjab, Pakistan",
         "geometry" : {
            "bounds" : {
               "northeast" : {
                  "lat" : 34.0434647,
                  "lng" : 75.3796504
               },
               "southwest" : {
                  "lat" : 27.7056256,
                  "lng" : 69.3288726
               }
            },
            "location" : {
               "lat" : 31.1704063,
               "lng" : 72.70971609999999
            },
            "location_type" : "APPROXIMATE",
            "viewport" : {
               "northeast" : {
                  "lat" : 34.0434647,
                  "lng" : 75.3796504
               },
               "southwest" : {
                  "lat" : 27.7056256,
                  "lng" : 69.3288726
               }
            }
         },
         "place_id" : "ChIJy5pBdImU3zgRoOxO0hgwnjo",
         "types" : [ "administrative_area_level_1", "political" ]
      },
      {
         "address_components" : [
            {
               "long_name" : "Pakistan",
               "short_name" : "PK",
               "types" : [ "country", "political" ]
            }
         ],
         "formatted_address" : "Pakistan",
         "geometry" : {
            "bounds" : {
               "northeast" : {
                  "lat" : 37.0841069,
                  "lng" : 77.1204247
               },
               "southwest" : {
                  "lat" : 23.6344999,
                  "lng" : 60.8729721
               }
            },
            "location" : {
               "lat" : 30.375321,
               "lng" : 69.34511599999999
            },
            "location_type" : "APPROXIMATE",
            "viewport" : {
               "northeast" : {
                  "lat" : 37.0841069,
                  "lng" : 77.1204247
               },
               "southwest" : {
                  "lat" : 23.6344999,
                  "lng" : 60.8729721
               }
            }
         },
         "place_id" : "ChIJH3X9-NJS2zgRXJIU5veht0Y",
         "types" : [ "country", "political" ]
      }
   ],
   "status" : "OK"
}
