{
   "plus_code" : {
      "compound_code" : "X6F8+22G Thathi Bahloolpur, Pakistan",
      "global_code" : "8J3MX6F8+22G"
   },
   "results" : [
      {
         "address_components" : [
            {
               "long_name" : "X6F8+22",
               "short_name" : "X6F8+22",
               "types" : [ "plus_code" ]
            },
            {
               "long_name" : "Thathi Bahloolpur",
               "short_name" : "Thathi Bahloolpur",
               "types" : [ "locality", "political" ]
            },
            {
               "long_name" : "Pindi Bhattian",
               "short_name" : "Pindi Bhattian",
               "types" : [ "administrative_area_level_3", "political" ]
            },
            {
               "long_name" : "Hafizabad",
               "short_name" : "Hafizabad",
               "types" : [ "administrative_area_level_2", "political" ]
            },
            {
               "long_name" : "Punjab",
               "short_name" : "Punjab",
               "types" : [ "administrative_area_level_1", "political" ]
            },
            {
               "long_name" : "Pakistan",
               "short_name" : "PK",
               "types" : [ "country", "political" ]
            }
         ],
         "formatted_address" : "X6F8+22 Thathi Bahloolpur, Pakistan",
         "geometry" : {
            "bounds" : {
               "northeast" : {
                  "lat" : 31.972625,
                  "lng" : 73.215125
               },
               "southwest" : {
                  "lat" : 31.9725,
                  "lng" : 73.215
               }
            },
            "location" : {
               "lat" : 31.97257459999999,
               "lng" : 73.2150781
            },
            "location_type" : "GEOMETRIC_CENTER",
            "viewport" : {
               "northeast" : {
                  "lat" : 31.9739114802915,
                  "lng" : 73.21641148029151
               },
               "southwest" : {
                  "lat" : 31.9712135197085,
                  "lng" : 73.21371351970851
               }
            }
         },
         "place_id" : "GhIJlusjpvr4P0ARfmXv1sNNUkA",
         "plus_code" : {
            "compound_code" : "X6F8+22 Thathi Bahloolpur, Pakistan",
            "global_code" : "8J3MX6F8+22"
         },
         "types" : [ "plus_code" ]
      },
      {
         "address_components" : [
            {
               "long_name" : "Unnamed Road",
               "short_name" : "Unnamed Road",
               "types" : [ "route" ]
            },
            {
               "long_name" : "Pindi Bhattian",
               "short_name" : "Pindi Bhattian",
               "types" : [ "administrative_area_level_3", "political" ]
            },
            {
               "long_name" : "Hafizabad",
               "short_name" : "Hafizabad",
               "types" : [ "administrative_area_level_2", "political" ]
            },
            {
               "long_name" : "Punjab",
               "short_name" : "Punjab",
               "types" : [ "administrative_area_level_1", "political" ]
            },
            {
               "long_name" : "Pakistan",
               "short_name" : "PK",
               "types" : [ "country", "political" ]
            }
         ],
         "formatted_address" : "Unnamed Road, Hafizabad, Punjab, Pakistan",
         "geometry" : {
            "bounds" : {
               "northeast" : {
                  "lat" : 31.9761715,
                  "lng" : 73.2245326
               },
               "southwest" : {
                  "lat" : 31.971032,
                  "lng" : 73.2204642
               }
            },
            "location" : {
               "lat" : 31.9736016,
               "lng" : 73.2224932
            },
            "location_type" : "GEOMETRIC_CENTER",
            "viewport" : {
               "northeast" : {
                  "lat" : 31.9761715,
                  "lng" : 73.2245326
               },
               "southwest" : {
                  "lat" : 31.971032,
                  "lng" : 73.2204642
               }
            }
         },
         "place_id" : "ChIJ8Zd5F0n2ITkRmEx9OCrYyHs",
         "types" : [ "route" ]
      },
      {
         "address_components" : [
            {
               "long_name" : "Khuram Chore",
               "short_name" : "Khuram Chore",
               "types" : [ "administrative_area_level_5", "political" ]
            },
            {
               "long_name" : "Pindi Bhattian",
               "short_name" : "Pindi Bhattian",
               "types" : [ "administrative_area_level_3", "political" ]
            },
            {
               "long_name" : "Hafizabad",
               "short_name" : "Hafizabad",
               "types" : [ "administrative_area_level_2", "political" ]
            },
            {
               "long_name" : "Punjab",
               "short_name" : "Punjab",
               "types" : [ "administrative_area_level_1", "political" ]
            },
            {
               "long_name" : "Pakistan",
               "short_name" : "PK",
               "types" : [ "country", "political" ]
            }
         ],
         "formatted_address" : "Khuram Chore, Hafizabad, Punjab, Pakistan",
         "geometry" : {
            "bounds" : {
               "northeast" : {
                  "lat" : 32.039849,
                  "lng" : 73.3880475
               },
               "southwest" : {
                  "lat" : 31.9071516,
                  "lng" : 73.19038689999999
               }
            },
            "location" : {
               "lat" : 31.9913712,
               "lng" : 73.28833
            },
            "location_type" : "APPROXIMATE",
            "viewport" : {
               "northeast" : {
                  "lat" : 32.039849,
                  "lng" : 73.3880475
               },
               "southwest" : {
                  "lat" : 31.9071516,
                  "lng" : 73.19038689999999
               }
            }
         },
         "place_id" : "ChIJFbXRlxD4ITkRr6_48o0xAuI",
         "types" : [ "administrative_area_level_5", "political" ]
      },
      {
         "address_components" : [
            {
               "long_name" : "Pindi Bhattian",
               "short_name" : "Pindi Bhattian",
               "types" : [ "administrative_area_level_3", "political" ]
            },
            {
               "long_name" : "Hafizabad",
               "short_name" : "Hafizabad",
               "types" : [ "administrative_area_level_2", "political" ]
            },
            {
               "long_name" : "Punjab",
               "short_name" : "Punjab",
               "types" : [ "administrative_area_level_1", "political" ]
            },
            {
               "long_name" : "Pakistan",
               "short_name" : "PK",
               "types" : [ "country", "political" ]
            }
         ],
         "formatted_address" : "Pindi Bhattian, Hafizabad, Punjab, Pakistan",
         "geometry" : {
            "bounds" : {
               "northeast" : {
                  "lat" : 32.1827314,
                  "lng" : 73.62347389999999
               },
               "southwest" : {
                  "lat" : 31.7615505,
                  "lng" : 73.1597093
               }
            },
            "location" : {
               "lat" : 31.9314181,
               "lng" : 73.4180211
            },
            "location_type" : "APPROXIMATE",
            "viewport" : {
               "northeast" : {
                  "lat" : 32.1827314,
                  "lng" : 73.62347389999999
               },
               "southwest" : {
                  "lat" : 31.7615505,
                  "lng" : 73.1597093
               }
            }
         },
         "place_id" : "ChIJMzUNgF__ITkRY7TazMQ7j_w",
         "types" : [ "administrative_area_level_3", "political" ]
      },
      {
         "address_components" : [
            {
               "long_name" : "Hafizabad",
               "short_name" : "Hafizabad",
               "types" : [ "administrative_area_level_2", "political" ]
            },
            {
               "long_name" : "Punjab",
               "short_name" : "Punjab",
               "types" : [ "administrative_area_level_1", "political" ]
            },
            {
               "long_name" : "Pakistan",
               "short_name" : "PK",
               "types" : [ "country", "political" ]
            }
         ],
         "formatted_address" : "Hafizabad, Punjab, Pakistan",
         "geometry" : {
            "bounds" : {
               "northeast" : {
                  "lat" : 32.3421286,
                  "lng" : 73.8308619
               },
               "southwest" : {
                  "lat" : 31.7615504,
                  "lng" : 73.1597093
               }
            },
            "location" : {
               "lat" : 32.0828952,
               "lng" : 73.55941279999999
            },
            "location_type" : "APPROXIMATE",
            "viewport" : {
               "northeast" : {
                  "lat" : 32.3421286,
                  "lng" : 73.8308619
               },
               "southwest" : {
                  "lat" : 31.7615504,
                  "lng" : 73.1597093
               }
            }
         },
         "place_id" : "ChIJU5BQC_pZHzkRw9KtQn0CiZQ",
         "types" : [ "administrative_area_level_2", "political" ]
      },
      {
         "address_components" : [
            {
               "long_name" : "Punjab",
               "short_name" : "Punjab",
               "types" : [ "administrative_area_level_1", "political" ]
            },
            {
               "long_name" : "Pakistan",
               "short_name" : "PK",
               "types" : [ "country", "political" ]
            }
         ],
         "formatted_address" : "Punjab, Pakistan",
         "geometry" : {
            "bounds" : {
               "northeast" : {
                  "lat" : 34.0434647,
                  "lng" : 75.3796504
               },
               "southwest" : {
                  "lat" : 27.7056256,
                  "lng" : 69.3288726
               }
            },
            "location" : {
               "lat" : 31.1704063,
               "lng" : 72.70971609999999
            },
            "location_type" : "APPROXIMATE",
            "viewport" : {
               "northeast" : {
                  "lat" : 34.0434647,
                  "lng" : 75.3796504
               },
               "southwest" : {
                  "lat" : 27.7056256,
                  "lng" : 69.3288726
               }
            }
         },
         "place_id" : "ChIJy5pBdImU3zgRoOxO0hgwnjo",
         "types" : [ "administrative_area_level_1", "political" ]
      },
      {
         "address_components" : [
            {
               "long_name" : "Pakistan",
               "short_name" : "PK",
               "types" : [ "country", "political" ]
            }
         ],
         "formatted_address" : "Pakistan",
         "geometry" : {
            "bounds" : {
               "northeast" : {
                  "lat" : 37.0841069,
                  "lng" : 77.1204247
               },
               "southwest" : {
                  "lat" : 23.6344999,
                  "lng" : 60.8729721
               }
            },
            "location" : {
               "lat" : 30.375321,
               "lng" : 69.34511599999999
            },
            "location_type" : "APPROXIMATE",
            "viewport" : {
               "northeast" : {
                  "lat" : 37.0841069,
                  "lng" : 77.1204247
               },
               "southwest" : {
                  "lat" : 23.6344999,
                  "lng" : 60.8729721
               }
            }
         },
         "place_id" : "ChIJH3X9-NJS2zgRXJIU5veht0Y",
         "types" : [ "country", "political" ]
      }
   ],
   "status" : "OK"
}
