{
   "plus_code" : {
      "compound_code" : "2JV4+22G Chak No 85 N.B, Pakistan",
      "global_code" : "8J4J2JV4+22G"
   },
   "results" : [
      {
         "address_components" : [
            {
               "long_name" : "2JV4+22",
               "short_name" : "2JV4+22",
               "types" : [ "plus_code" ]
            },
            {
               "long_name" : "Chak No 85 N.B",
               "short_name" : "Chak No 85 N.B",
               "types" : [ "locality", "political" ]
            },
            {
               "long_name" : "Sargodha",
               "short_name" : "Sargodha",
               "types" : [ "administrative_area_level_3", "political" ]
            },
            {
               "long_name" : "Sargodha",
               "short_name" : "Sargodha",
               "types" : [ "administrative_area_level_2", "political" ]
            },
            {
               "long_name" : "Punjab",
               "short_name" : "Punjab",
               "types" : [ "administrative_area_level_1", "political" ]
            },
            {
               "long_name" : "Pakistan",
               "short_name" : "PK",
               "types" : [ "country", "political" ]
            }
         ],
         "formatted_address" : "2JV4+22 Chak No 85 N.B, Pakistan",
         "geometry" : {
            "bounds" : {
               "northeast" : {
                  "lat" : 32.042625,
                  "lng" : 72.605125
               },
               "southwest" : {
                  "lat" : 32.0425,
                  "lng" : 72.60499999999999
               }
            },
            "location" : {
               "lat" : 32.0425746,
               "lng" : 72.6050781
            },
            "location_type" : "GEOMETRIC_CENTER",
            "viewport" : {
               "northeast" : {
                  "lat" : 32.0439114802915,
                  "lng" : 72.6064114802915
               },
               "southwest" : {
                  "lat" : 32.0412135197085,
                  "lng" : 72.60371351970849
               }
            }
         },
         "place_id" : "GhIJ9VGhFXMFQEARp8F-mbkmUkA",
         "plus_code" : {
            "compound_code" : "2JV4+22 Chak No 85 N.B, Pakistan",
            "global_code" : "8J4J2JV4+22"
         },
         "types" : [ "plus_code" ]
      },
      {
         "address_components" : [
            {
               "long_name" : "2JV4+FPF",
               "short_name" : "2JV4+FPF",
               "types" : [ "plus_code" ]
            },
            {
               "long_name" : "Sargodha",
               "short_name" : "Sargodha",
               "types" : [ "locality", "political" ]
            },
            {
               "long_name" : "Sargodha",
               "short_name" : "Sargodha",
               "types" : [ "administrative_area_level_3", "political" ]
            },
            {
               "long_name" : "Sargodha",
               "short_name" : "Sargodha",
               "types" : [ "administrative_area_level_2", "political" ]
            },
            {
               "long_name" : "Punjab",
               "short_name" : "Punjab",
               "types" : [ "administrative_area_level_1", "political" ]
            },
            {
               "long_name" : "Pakistan",
               "short_name" : "PK",
               "types" : [ "country", "political" ]
            }
         ],
         "formatted_address" : "2JV4+FPF, Sargodha, Punjab, Pakistan",
         "geometry" : {
            "bounds" : {
               "northeast" : {
                  "lat" : 32.0437699,
                  "lng" : 72.60689239999999
               },
               "southwest" : {
                  "lat" : 32.0436009,
                  "lng" : 72.606707
               }
            },
            "location" : {
               "lat" : 32.0436635,
               "lng" : 72.60677769999999
            },
            "location_type" : "ROOFTOP",
            "viewport" : {
               "northeast" : {
                  "lat" : 32.0450343802915,
                  "lng" : 72.60814868029151
               },
               "southwest" : {
                  "lat" : 32.0423364197085,
                  "lng" : 72.6054507197085
               }
            }
         },
         "place_id" : "ChIJtZepB6lwITkRb9DTK9TWbH0",
         "types" : [ "premise" ]
      },
      {
         "address_components" : [
            {
               "long_name" : "Unnamed Road",
               "short_name" : "Unnamed Road",
               "types" : [ "route" ]
            },
            {
               "long_name" : "Sargodha",
               "short_name" : "Sargodha",
               "types" : [ "administrative_area_level_3", "political" ]
            },
            {
               "long_name" : "Sargodha",
               "short_name" : "Sargodha",
               "types" : [ "administrative_area_level_2", "political" ]
            },
            {
               "long_name" : "Punjab",
               "short_name" : "Punjab",
               "types" : [ "administrative_area_level_1", "political" ]
            },
            {
               "long_name" : "Pakistan",
               "short_name" : "PK",
               "types" : [ "country", "political" ]
            }
         ],
         "formatted_address" : "Unnamed Road, Sargodha, Punjab, Pakistan",
         "geometry" : {
            "bounds" : {
               "northeast" : {
                  "lat" : 32.0438644,
                  "lng" : 72.60678860000002
               },
               "southwest" : {
                  "lat" : 32.0426423,
                  "lng" : 72.6057038
               }
            },
            "location" : {
               "lat" : 32.04325,
               "lng" : 72.60625159999999
            },
            "location_type" : "GEOMETRIC_CENTER",
            "viewport" : {
               "northeast" : {
                  "lat" : 32.0446023302915,
                  "lng" : 72.60759518029151
               },
               "southwest" : {
                  "lat" : 32.0419043697085,
                  "lng" : 72.6048972197085
               }
            }
         },
         "place_id" : "ChIJVbKfVKhwITkRgNFrHf0AICI",
         "types" : [ "route" ]
      },
      {
         "address_components" : [
            {
               "long_name" : "Haider Abad",
               "short_name" : "Haider Abad",
               "types" : [ "administrative_area_level_5", "political" ]
            },
            {
               "long_name" : "Sargodha",
               "short_name" : "Sargodha",
               "types" : [ "administrative_area_level_3", "political" ]
            },
            {
               "long_name" : "Sargodha",
               "short_name" : "Sargodha",
               "types" : [ "administrative_area_level_2", "political" ]
            },
            {
               "long_name" : "Punjab",
               "short_name" : "Punjab",
               "types" : [ "administrative_area_level_1", "political" ]
            },
            {
               "long_name" : "Pakistan",
               "short_name" : "PK",
               "types" : [ "country", "political" ]
            }
         ],
         "formatted_address" : "Haider Abad, Sargodha, Punjab, Pakistan",
         "geometry" : {
            "bounds" : {
               "northeast" : {
                  "lat" : 32.1020927,
                  "lng" : 72.65264329999999
               },
               "southwest" : {
                  "lat" : 32.0412134,
                  "lng" : 72.5818263
               }
            },
            "location" : {
               "lat" : 32.079691,
               "lng" : 72.6092032
            },
            "location_type" : "APPROXIMATE",
            "viewport" : {
               "northeast" : {
                  "lat" : 32.1020927,
                  "lng" : 72.65264329999999
               },
               "southwest" : {
                  "lat" : 32.0412134,
                  "lng" : 72.5818263
               }
            }
         },
         "place_id" : "ChIJdUS4ETN3ITkRMYsXhDKAmK4",
         "types" : [ "administrative_area_level_5", "political" ]
      },
      {
         "address_components" : [
            {
               "long_name" : "Sargodha",
               "short_name" : "Sargodha",
               "types" : [ "administrative_area_level_3", "political" ]
            },
            {
               "long_name" : "Sargodha",
               "short_name" : "Sargodha",
               "types" : [ "administrative_area_level_2", "political" ]
            },
            {
               "long_name" : "Punjab",
               "short_name" : "Punjab",
               "types" : [ "administrative_area_level_1", "political" ]
            },
            {
               "long_name" : "Pakistan",
               "short_name" : "PK",
               "types" : [ "country", "political" ]
            }
         ],
         "formatted_address" : "Sargodha, Punjab, Pakistan",
         "geometry" : {
            "bounds" : {
               "northeast" : {
                  "lat" : 32.286783,
                  "lng" : 73.050966
               },
               "southwest" : {
                  "lat" : 31.818546,
                  "lng" : 72.44248899999999
               }
            },
            "location" : {
               "lat" : 32.0177852,
               "lng" : 72.7570024
            },
            "location_type" : "APPROXIMATE",
            "viewport" : {
               "northeast" : {
                  "lat" : 32.286783,
                  "lng" : 73.050966
               },
               "southwest" : {
                  "lat" : 31.818546,
                  "lng" : 72.44248899999999
               }
            }
         },
         "place_id" : "ChIJtVMxttGCITkRergQwfHo5yw",
         "types" : [ "administrative_area_level_3", "political" ]
      },
      {
         "address_components" : [
            {
               "long_name" : "Sargodha",
               "short_name" : "Sargodha",
               "types" : [ "administrative_area_level_2", "political" ]
            },
            {
               "long_name" : "Punjab",
               "short_name" : "Punjab",
               "types" : [ "administrative_area_level_1", "political" ]
            },
            {
               "long_name" : "Pakistan",
               "short_name" : "PK",
               "types" : [ "country", "political" ]
            }
         ],
         "formatted_address" : "Sargodha, Punjab, Pakistan",
         "geometry" : {
            "bounds" : {
               "northeast" : {
                  "lat" : 32.5712785,
                  "lng" : 73.31019239999999
               },
               "southwest" : {
                  "lat" : 31.5566249,
                  "lng" : 72.21704679999999
               }
            },
            "location" : {
               "lat" : 32.156592,
               "lng" : 72.8042797
            },
            "location_type" : "APPROXIMATE",
            "viewport" : {
               "northeast" : {
                  "lat" : 32.5712785,
                  "lng" : 73.31019239999999
               },
               "southwest" : {
                  "lat" : 31.5566249,
                  "lng" : 72.21704679999999
               }
            }
         },
         "place_id" : "ChIJ0S6JJZadITkRmlmemFkTNjk",
         "types" : [ "administrative_area_level_2", "political" ]
      },
      {
         "address_components" : [
            {
               "long_name" : "Punjab",
               "short_name" : "Punjab",
               "types" : [ "administrative_area_level_1", "political" ]
            },
            {
               "long_name" : "Pakistan",
               "short_name" : "PK",
               "types" : [ "country", "political" ]
            }
         ],
         "formatted_address" : "Punjab, Pakistan",
         "geometry" : {
            "bounds" : {
               "northeast" : {
                  "lat" : 34.0434647,
                  "lng" : 75.3796504
               },
               "southwest" : {
                  "lat" : 27.7056256,
                  "lng" : 69.3288726
               }
            },
            "location" : {
               "lat" : 31.1704063,
               "lng" : 72.70971609999999
            },
            "location_type" : "APPROXIMATE",
            "viewport" : {
               "northeast" : {
                  "lat" : 34.0434647,
                  "lng" : 75.3796504
               },
               "southwest" : {
                  "lat" : 27.7056256,
                  "lng" : 69.3288726
               }
            }
         },
         "place_id" : "ChIJy5pBdImU3zgRoOxO0hgwnjo",
         "types" : [ "administrative_area_level_1", "political" ]
      },
      {
         "address_components" : [
            {
               "long_name" : "Pakistan",
               "short_name" : "PK",
               "types" : [ "country", "political" ]
            }
         ],
         "formatted_address" : "Pakistan",
         "geometry" : {
            "bounds" : {
               "northeast" : {
                  "lat" : 37.0841069,
                  "lng" : 77.1204247
               },
               "southwest" : {
                  "lat" : 23.6344999,
                  "lng" : 60.8729721
               }
            },
            "location" : {
               "lat" : 30.375321,
               "lng" : 69.34511599999999
            },
            "location_type" : "APPROXIMATE",
            "viewport" : {
               "northeast" : {
                  "lat" : 37.0841069,
                  "lng" : 77.1204247
               },
               "southwest" : {
                  "lat" : 23.6344999,
                  "lng" : 60.8729721
               }
            }
         },
         "place_id" : "ChIJH3X9-NJS2zgRXJIU5veht0Y",
         "types" : [ "country", "political" ]
      }
   ],
   "status" : "OK"
}
