{
   "plus_code" : {
      "compound_code" : "X8M4+22G Lakhiwal, Pakistan",
      "global_code" : "8J3JX8M4+22G"
   },
   "results" : [
      {
         "address_components" : [
            {
               "long_name" : "X8M4+5F9",
               "short_name" : "X8M4+5F9",
               "types" : [ "plus_code" ]
            },
            {
               "long_name" : "لکھیوال روڈ،",
               "short_name" : "لکھیوال روڈ،",
               "types" : [ "route" ]
            },
            {
               "long_name" : "Lakhiwal",
               "short_name" : "Lakhiwal",
               "types" : [ "locality", "political" ]
            },
            {
               "long_name" : "Sahiwal (Sardogha)",
               "short_name" : "Sahiwal (Sardogha)",
               "types" : [ "administrative_area_level_3", "political" ]
            },
            {
               "long_name" : "Sargodha",
               "short_name" : "Sargodha",
               "types" : [ "administrative_area_level_2", "political" ]
            },
            {
               "long_name" : "Punjab",
               "short_name" : "Punjab",
               "types" : [ "administrative_area_level_1", "political" ]
            },
            {
               "long_name" : "Pakistan",
               "short_name" : "PK",
               "types" : [ "country", "political" ]
            }
         ],
         "formatted_address" : "X8M4+5F9, لکھیوال روڈ،, Lakhiwal, Sargodha, Punjab, Pakistan",
         "geometry" : {
            "bounds" : {
               "northeast" : {
                  "lat" : 31.9829775,
                  "lng" : 72.30627290000001
               },
               "southwest" : {
                  "lat" : 31.9828138,
                  "lng" : 72.3060696
               }
            },
            "location" : {
               "lat" : 31.9828786,
               "lng" : 72.3061606
            },
            "location_type" : "ROOFTOP",
            "viewport" : {
               "northeast" : {
                  "lat" : 31.9842446302915,
                  "lng" : 72.3075202302915
               },
               "southwest" : {
                  "lat" : 31.9815466697085,
                  "lng" : 72.3048222697085
               }
            }
         },
         "place_id" : "ChIJr7UxvjhdITkRjO9dSxje4pg",
         "types" : [ "premise" ]
      },
      {
         "address_components" : [
            {
               "long_name" : "X8M4+22",
               "short_name" : "X8M4+22",
               "types" : [ "plus_code" ]
            },
            {
               "long_name" : "Lakhiwal",
               "short_name" : "Lakhiwal",
               "types" : [ "locality", "political" ]
            },
            {
               "long_name" : "Sahiwal (Sardogha)",
               "short_name" : "Sahiwal (Sardogha)",
               "types" : [ "administrative_area_level_3", "political" ]
            },
            {
               "long_name" : "Sargodha",
               "short_name" : "Sargodha",
               "types" : [ "administrative_area_level_2", "political" ]
            },
            {
               "long_name" : "Punjab",
               "short_name" : "Punjab",
               "types" : [ "administrative_area_level_1", "political" ]
            },
            {
               "long_name" : "Pakistan",
               "short_name" : "PK",
               "types" : [ "country", "political" ]
            }
         ],
         "formatted_address" : "X8M4+22 Lakhiwal, Pakistan",
         "geometry" : {
            "bounds" : {
               "northeast" : {
                  "lat" : 31.982625,
                  "lng" : 72.30512499999999
               },
               "southwest" : {
                  "lat" : 31.9825,
                  "lng" : 72.30499999999999
               }
            },
            "location" : {
               "lat" : 31.9825746,
               "lng" : 72.3050781
            },
            "location_type" : "GEOMETRIC_CENTER",
            "viewport" : {
               "northeast" : {
                  "lat" : 31.9839114802915,
                  "lng" : 72.30641148029149
               },
               "southwest" : {
                  "lat" : 31.9812135197085,
                  "lng" : 72.30371351970848
               }
            }
         },
         "place_id" : "GhIJW-FMAor7P0ARdI5LZoYTUkA",
         "plus_code" : {
            "compound_code" : "X8M4+22 Lakhiwal, Pakistan",
            "global_code" : "8J3JX8M4+22"
         },
         "types" : [ "plus_code" ]
      },
      {
         "address_components" : [
            {
               "long_name" : "لکھیوال روڈ",
               "short_name" : "لکھیوال روڈ",
               "types" : [ "route" ]
            },
            {
               "long_name" : "Lakhiwal",
               "short_name" : "Lakhiwal",
               "types" : [ "locality", "political" ]
            },
            {
               "long_name" : "Sahiwal (Sardogha)",
               "short_name" : "Sahiwal (Sardogha)",
               "types" : [ "administrative_area_level_3", "political" ]
            },
            {
               "long_name" : "Sargodha",
               "short_name" : "Sargodha",
               "types" : [ "administrative_area_level_2", "political" ]
            },
            {
               "long_name" : "Punjab",
               "short_name" : "Punjab",
               "types" : [ "administrative_area_level_1", "political" ]
            },
            {
               "long_name" : "Pakistan",
               "short_name" : "PK",
               "types" : [ "country", "political" ]
            }
         ],
         "formatted_address" : "لکھیوال روڈ، Lakhiwal, Sargodha, Punjab, Pakistan",
         "geometry" : {
            "bounds" : {
               "northeast" : {
                  "lat" : 31.9832501,
                  "lng" : 72.305538
               },
               "southwest" : {
                  "lat" : 31.980858,
                  "lng" : 72.3027408
               }
            },
            "location" : {
               "lat" : 31.9820289,
               "lng" : 72.3041733
            },
            "location_type" : "GEOMETRIC_CENTER",
            "viewport" : {
               "northeast" : {
                  "lat" : 31.9834030302915,
                  "lng" : 72.305538
               },
               "southwest" : {
                  "lat" : 31.9807050697085,
                  "lng" : 72.3027408
               }
            }
         },
         "place_id" : "ChIJ4VfhtD5dITkRRDKql5rRzD4",
         "types" : [ "route" ]
      },
      {
         "address_components" : [
            {
               "long_name" : "X8M4+HF8",
               "short_name" : "X8M4+HF8",
               "types" : [ "plus_code" ]
            },
            {
               "long_name" : "Lakhiwal",
               "short_name" : "Lakhiwal",
               "types" : [ "locality", "political" ]
            },
            {
               "long_name" : "Sahiwal (Sardogha)",
               "short_name" : "Sahiwal (Sardogha)",
               "types" : [ "administrative_area_level_3", "political" ]
            },
            {
               "long_name" : "Sargodha",
               "short_name" : "Sargodha",
               "types" : [ "administrative_area_level_2", "political" ]
            },
            {
               "long_name" : "Punjab",
               "short_name" : "Punjab",
               "types" : [ "administrative_area_level_1", "political" ]
            },
            {
               "long_name" : "Pakistan",
               "short_name" : "PK",
               "types" : [ "country", "political" ]
            }
         ],
         "formatted_address" : "X8M4+HF8, Lakhiwal, Sargodha, Punjab, Pakistan",
         "geometry" : {
            "location" : {
               "lat" : 31.9839198,
               "lng" : 72.30619279999999
            },
            "location_type" : "GEOMETRIC_CENTER",
            "viewport" : {
               "northeast" : {
                  "lat" : 31.9852687802915,
                  "lng" : 72.3075417802915
               },
               "southwest" : {
                  "lat" : 31.9825708197085,
                  "lng" : 72.30484381970849
               }
            }
         },
         "place_id" : "ChIJR8kFMUFdITkR0upyD5vQh4E",
         "types" : [ "establishment", "point_of_interest" ]
      },
      {
         "address_components" : [
            {
               "long_name" : "Lakhiwal",
               "short_name" : "Lakhiwal",
               "types" : [ "locality", "political" ]
            },
            {
               "long_name" : "Sahiwal (Sardogha)",
               "short_name" : "Sahiwal (Sardogha)",
               "types" : [ "administrative_area_level_3", "political" ]
            },
            {
               "long_name" : "Sargodha",
               "short_name" : "Sargodha",
               "types" : [ "administrative_area_level_2", "political" ]
            },
            {
               "long_name" : "Punjab",
               "short_name" : "Punjab",
               "types" : [ "administrative_area_level_1", "political" ]
            },
            {
               "long_name" : "Pakistan",
               "short_name" : "PK",
               "types" : [ "country", "political" ]
            }
         ],
         "formatted_address" : "Lakhiwal, Sargodha, Punjab, Pakistan",
         "geometry" : {
            "bounds" : {
               "northeast" : {
                  "lat" : 31.9893097,
                  "lng" : 72.31134590000001
               },
               "southwest" : {
                  "lat" : 31.9814526,
                  "lng" : 72.30185329999999
               }
            },
            "location" : {
               "lat" : 31.9856655,
               "lng" : 72.3059525
            },
            "location_type" : "APPROXIMATE",
            "viewport" : {
               "northeast" : {
                  "lat" : 31.9893097,
                  "lng" : 72.31134590000001
               },
               "southwest" : {
                  "lat" : 31.9814526,
                  "lng" : 72.30185329999999
               }
            }
         },
         "place_id" : "ChIJO0i8XDhdITkR_vMYabqVKMs",
         "types" : [ "locality", "political" ]
      },
      {
         "address_components" : [
            {
               "long_name" : "Lakhiwal",
               "short_name" : "Lakhiwal",
               "types" : [ "administrative_area_level_5", "political" ]
            },
            {
               "long_name" : "Sahiwal (Sardogha)",
               "short_name" : "Sahiwal (Sardogha)",
               "types" : [ "administrative_area_level_3", "political" ]
            },
            {
               "long_name" : "Sargodha",
               "short_name" : "Sargodha",
               "types" : [ "administrative_area_level_2", "political" ]
            },
            {
               "long_name" : "Punjab",
               "short_name" : "Punjab",
               "types" : [ "administrative_area_level_1", "political" ]
            },
            {
               "long_name" : "Pakistan",
               "short_name" : "PK",
               "types" : [ "country", "political" ]
            }
         ],
         "formatted_address" : "Lakhiwal, Sargodha, Punjab, Pakistan",
         "geometry" : {
            "bounds" : {
               "northeast" : {
                  "lat" : 32.0064424,
                  "lng" : 72.3133266
               },
               "southwest" : {
                  "lat" : 31.8729293,
                  "lng" : 72.253541
               }
            },
            "location" : {
               "lat" : 31.95548459999999,
               "lng" : 72.27782909999999
            },
            "location_type" : "APPROXIMATE",
            "viewport" : {
               "northeast" : {
                  "lat" : 32.0064424,
                  "lng" : 72.3133266
               },
               "southwest" : {
                  "lat" : 31.8729293,
                  "lng" : 72.253541
               }
            }
         },
         "place_id" : "ChIJQyfoVU1cITkRtMmQQBpxBSA",
         "types" : [ "administrative_area_level_5", "political" ]
      },
      {
         "address_components" : [
            {
               "long_name" : "Sahiwal (Sardogha)",
               "short_name" : "Sahiwal (Sardogha)",
               "types" : [ "administrative_area_level_3", "political" ]
            },
            {
               "long_name" : "Sargodha",
               "short_name" : "Sargodha",
               "types" : [ "administrative_area_level_2", "political" ]
            },
            {
               "long_name" : "Punjab",
               "short_name" : "Punjab",
               "types" : [ "administrative_area_level_1", "political" ]
            },
            {
               "long_name" : "Pakistan",
               "short_name" : "PK",
               "types" : [ "country", "political" ]
            }
         ],
         "formatted_address" : "Sahiwal (Sardogha), Sargodha, Punjab, Pakistan",
         "geometry" : {
            "bounds" : {
               "northeast" : {
                  "lat" : 32.0559859,
                  "lng" : 72.5619361
               },
               "southwest" : {
                  "lat" : 31.70946499999999,
                  "lng" : 72.21704679999999
               }
            },
            "location" : {
               "lat" : 31.8762345,
               "lng" : 72.37846789999999
            },
            "location_type" : "APPROXIMATE",
            "viewport" : {
               "northeast" : {
                  "lat" : 32.0559859,
                  "lng" : 72.5619361
               },
               "southwest" : {
                  "lat" : 31.70946499999999,
                  "lng" : 72.21704679999999
               }
            }
         },
         "place_id" : "ChIJZ2aUDwZhITkRcdXKna13vVE",
         "types" : [ "administrative_area_level_3", "political" ]
      },
      {
         "address_components" : [
            {
               "long_name" : "Sargodha",
               "short_name" : "Sargodha",
               "types" : [ "administrative_area_level_2", "political" ]
            },
            {
               "long_name" : "Punjab",
               "short_name" : "Punjab",
               "types" : [ "administrative_area_level_1", "political" ]
            },
            {
               "long_name" : "Pakistan",
               "short_name" : "PK",
               "types" : [ "country", "political" ]
            }
         ],
         "formatted_address" : "Sargodha, Punjab, Pakistan",
         "geometry" : {
            "bounds" : {
               "northeast" : {
                  "lat" : 32.5712785,
                  "lng" : 73.31019239999999
               },
               "southwest" : {
                  "lat" : 31.5566249,
                  "lng" : 72.21704679999999
               }
            },
            "location" : {
               "lat" : 32.156592,
               "lng" : 72.8042797
            },
            "location_type" : "APPROXIMATE",
            "viewport" : {
               "northeast" : {
                  "lat" : 32.5712785,
                  "lng" : 73.31019239999999
               },
               "southwest" : {
                  "lat" : 31.5566249,
                  "lng" : 72.21704679999999
               }
            }
         },
         "place_id" : "ChIJ0S6JJZadITkRmlmemFkTNjk",
         "types" : [ "administrative_area_level_2", "political" ]
      },
      {
         "address_components" : [
            {
               "long_name" : "Punjab",
               "short_name" : "Punjab",
               "types" : [ "administrative_area_level_1", "political" ]
            },
            {
               "long_name" : "Pakistan",
               "short_name" : "PK",
               "types" : [ "country", "political" ]
            }
         ],
         "formatted_address" : "Punjab, Pakistan",
         "geometry" : {
            "bounds" : {
               "northeast" : {
                  "lat" : 34.0434647,
                  "lng" : 75.3796504
               },
               "southwest" : {
                  "lat" : 27.7056256,
                  "lng" : 69.3288726
               }
            },
            "location" : {
               "lat" : 31.1704063,
               "lng" : 72.70971609999999
            },
            "location_type" : "APPROXIMATE",
            "viewport" : {
               "northeast" : {
                  "lat" : 34.0434647,
                  "lng" : 75.3796504
               },
               "southwest" : {
                  "lat" : 27.7056256,
                  "lng" : 69.3288726
               }
            }
         },
         "place_id" : "ChIJy5pBdImU3zgRoOxO0hgwnjo",
         "types" : [ "administrative_area_level_1", "political" ]
      },
      {
         "address_components" : [
            {
               "long_name" : "Pakistan",
               "short_name" : "PK",
               "types" : [ "country", "political" ]
            }
         ],
         "formatted_address" : "Pakistan",
         "geometry" : {
            "bounds" : {
               "northeast" : {
                  "lat" : 37.0841069,
                  "lng" : 77.1204247
               },
               "southwest" : {
                  "lat" : 23.6344999,
                  "lng" : 60.8729721
               }
            },
            "location" : {
               "lat" : 30.375321,
               "lng" : 69.34511599999999
            },
            "location_type" : "APPROXIMATE",
            "viewport" : {
               "northeast" : {
                  "lat" : 37.0841069,
                  "lng" : 77.1204247
               },
               "southwest" : {
                  "lat" : 23.6344999,
                  "lng" : 60.8729721
               }
            }
         },
         "place_id" : "ChIJH3X9-NJS2zgRXJIU5veht0Y",
         "types" : [ "country", "political" ]
      }
   ],
   "status" : "OK"
}
