{
   "plus_code" : {
      "compound_code" : "J7HG+388 Lahore, Pakistan",
      "global_code" : "8J3PJ7HG+388"
   },
   "results" : [
      {
         "address_components" : [
            {
               "long_name" : "J7HG+383",
               "short_name" : "J7HG+383",
               "types" : [ "plus_code" ]
            },
            {
               "long_name" : "Shahdara Town",
               "short_name" : "Shahdara Town",
               "types" : [ "political", "sublocality", "sublocality_level_1" ]
            },
            {
               "long_name" : "Lahore",
               "short_name" : "Lahore",
               "types" : [ "locality", "political" ]
            },
            {
               "long_name" : "Lahore City",
               "short_name" : "Lahore City",
               "types" : [ "administrative_area_level_3", "political" ]
            },
            {
               "long_name" : "Lahore",
               "short_name" : "Lahore",
               "types" : [ "administrative_area_level_2", "political" ]
            },
            {
               "long_name" : "Punjab",
               "short_name" : "Punjab",
               "types" : [ "administrative_area_level_1", "political" ]
            },
            {
               "long_name" : "Pakistan",
               "short_name" : "PK",
               "types" : [ "country", "political" ]
            }
         ],
         "formatted_address" : "J7HG+383, Shahdara Town, Lahore, Punjab, Pakistan",
         "geometry" : {
            "location" : {
               "lat" : 31.6276311,
               "lng" : 74.2757857
            },
            "location_type" : "GEOMETRIC_CENTER",
            "viewport" : {
               "northeast" : {
                  "lat" : 31.6289800802915,
                  "lng" : 74.2771346802915
               },
               "southwest" : {
                  "lat" : 31.6262821197085,
                  "lng" : 74.27443671970849
               }
            }
         },
         "place_id" : "ChIJcQhFlxwdGTkRX4lpLnsZhpk",
         "types" : [ "establishment", "point_of_interest", "store" ]
      },
      {
         "address_components" : [
            {
               "long_name" : "J7HG+383",
               "short_name" : "J7HG+383",
               "types" : [ "plus_code" ]
            },
            {
               "long_name" : "Shahdara Town",
               "short_name" : "Shahdara Town",
               "types" : [ "political", "sublocality", "sublocality_level_1" ]
            },
            {
               "long_name" : "Lahore",
               "short_name" : "Lahore",
               "types" : [ "locality", "political" ]
            },
            {
               "long_name" : "Lahore City",
               "short_name" : "Lahore City",
               "types" : [ "administrative_area_level_3", "political" ]
            },
            {
               "long_name" : "Lahore",
               "short_name" : "Lahore",
               "types" : [ "administrative_area_level_2", "political" ]
            },
            {
               "long_name" : "Punjab",
               "short_name" : "Punjab",
               "types" : [ "administrative_area_level_1", "political" ]
            },
            {
               "long_name" : "Pakistan",
               "short_name" : "PK",
               "types" : [ "country", "political" ]
            }
         ],
         "formatted_address" : "J7HG+383, Shahdara Town, Lahore, Punjab, Pakistan",
         "geometry" : {
            "bounds" : {
               "northeast" : {
                  "lat" : 31.6277385,
                  "lng" : 74.27581219999999
               },
               "southwest" : {
                  "lat" : 31.6276011,
                  "lng" : 74.27565950000002
               }
            },
            "location" : {
               "lat" : 31.6276909,
               "lng" : 74.2757247
            },
            "location_type" : "ROOFTOP",
            "viewport" : {
               "northeast" : {
                  "lat" : 31.6290187802915,
                  "lng" : 74.2770848302915
               },
               "southwest" : {
                  "lat" : 31.6263208197085,
                  "lng" : 74.27438686970849
               }
            }
         },
         "place_id" : "ChIJTSJavDAcGTkRkRolxZTf0YM",
         "types" : [ "premise" ]
      },
      {
         "address_components" : [
            {
               "long_name" : "J7HG+38",
               "short_name" : "J7HG+38",
               "types" : [ "plus_code" ]
            },
            {
               "long_name" : "Lahore",
               "short_name" : "Lahore",
               "types" : [ "locality", "political" ]
            },
            {
               "long_name" : "Lahore",
               "short_name" : "Lahore",
               "types" : [ "administrative_area_level_2", "political" ]
            },
            {
               "long_name" : "Punjab",
               "short_name" : "Punjab",
               "types" : [ "administrative_area_level_1", "political" ]
            },
            {
               "long_name" : "Pakistan",
               "short_name" : "PK",
               "types" : [ "country", "political" ]
            }
         ],
         "formatted_address" : "J7HG+38 Lahore, Pakistan",
         "geometry" : {
            "bounds" : {
               "northeast" : {
                  "lat" : 31.62775,
                  "lng" : 74.275875
               },
               "southwest" : {
                  "lat" : 31.62762499999999,
                  "lng" : 74.27575
               }
            },
            "location" : {
               "lat" : 31.6276599,
               "lng" : 74.27581789999999
            },
            "location_type" : "GEOMETRIC_CENTER",
            "viewport" : {
               "northeast" : {
                  "lat" : 31.62903648029149,
                  "lng" : 74.27716148029151
               },
               "southwest" : {
                  "lat" : 31.6263385197085,
                  "lng" : 74.2744635197085
               }
            }
         },
         "place_id" : "GhIJuIK3Ua6gP0ARsAkfAKeRUkA",
         "plus_code" : {
            "compound_code" : "J7HG+38 Lahore, Pakistan",
            "global_code" : "8J3PJ7HG+38"
         },
         "types" : [ "plus_code" ]
      },
      {
         "address_components" : [
            {
               "long_name" : "Hanif Masjid Street",
               "short_name" : "Hanif Masjid St",
               "types" : [ "route" ]
            },
            {
               "long_name" : "Shahdara Town",
               "short_name" : "Shahdara Town",
               "types" : [ "political", "sublocality", "sublocality_level_1" ]
            },
            {
               "long_name" : "Lahore",
               "short_name" : "Lahore",
               "types" : [ "locality", "political" ]
            },
            {
               "long_name" : "Lahore City",
               "short_name" : "Lahore City",
               "types" : [ "administrative_area_level_3", "political" ]
            },
            {
               "long_name" : "Lahore",
               "short_name" : "Lahore",
               "types" : [ "administrative_area_level_2", "political" ]
            },
            {
               "long_name" : "Punjab",
               "short_name" : "Punjab",
               "types" : [ "administrative_area_level_1", "political" ]
            },
            {
               "long_name" : "Pakistan",
               "short_name" : "PK",
               "types" : [ "country", "political" ]
            }
         ],
         "formatted_address" : "Hanif Masjid St, Shahdara Town, Lahore, Punjab, Pakistan",
         "geometry" : {
            "bounds" : {
               "northeast" : {
                  "lat" : 31.6283266,
                  "lng" : 74.27638859999999
               },
               "southwest" : {
                  "lat" : 31.6275952,
                  "lng" : 74.2762996
               }
            },
            "location" : {
               "lat" : 31.6279608,
               "lng" : 74.27634309999999
            },
            "location_type" : "GEOMETRIC_CENTER",
            "viewport" : {
               "northeast" : {
                  "lat" : 31.6293098802915,
                  "lng" : 74.27769308029151
               },
               "southwest" : {
                  "lat" : 31.6266119197085,
                  "lng" : 74.27499511970849
               }
            }
         },
         "place_id" : "ChIJa-tFoTAcGTkR5rcocvLOYtE",
         "types" : [ "route" ]
      },
      {
         "address_components" : [
            {
               "long_name" : "Aziz Colony",
               "short_name" : "Aziz Colony",
               "types" : [ "administrative_area_level_5", "political" ]
            },
            {
               "long_name" : "Shahdara Town",
               "short_name" : "Shahdara Town",
               "types" : [ "political", "sublocality", "sublocality_level_1" ]
            },
            {
               "long_name" : "Shahdara",
               "short_name" : "Shahdara",
               "types" : [ "locality", "political" ]
            },
            {
               "long_name" : "Lahore City",
               "short_name" : "Lahore City",
               "types" : [ "administrative_area_level_3", "political" ]
            },
            {
               "long_name" : "Lahore",
               "short_name" : "Lahore",
               "types" : [ "administrative_area_level_2", "political" ]
            },
            {
               "long_name" : "Punjab",
               "short_name" : "Punjab",
               "types" : [ "administrative_area_level_1", "political" ]
            },
            {
               "long_name" : "Pakistan",
               "short_name" : "PK",
               "types" : [ "country", "political" ]
            }
         ],
         "formatted_address" : "Aziz Colony, Shahdara Town, Shahdara, Lahore, Punjab, Pakistan",
         "geometry" : {
            "bounds" : {
               "northeast" : {
                  "lat" : 31.6410869,
                  "lng" : 74.2871724
               },
               "southwest" : {
                  "lat" : 31.6268687,
                  "lng" : 74.2689833
               }
            },
            "location" : {
               "lat" : 31.6356213,
               "lng" : 74.2795524
            },
            "location_type" : "APPROXIMATE",
            "viewport" : {
               "northeast" : {
                  "lat" : 31.6410869,
                  "lng" : 74.2871724
               },
               "southwest" : {
                  "lat" : 31.6268687,
                  "lng" : 74.2689833
               }
            }
         },
         "place_id" : "ChIJPTsKQCUcGTkRtSR-A6oXIn8",
         "types" : [ "administrative_area_level_5", "political" ]
      },
      {
         "address_components" : [
            {
               "long_name" : "Shahdara",
               "short_name" : "Shahdara",
               "types" : [ "locality", "political" ]
            },
            {
               "long_name" : "Lahore City",
               "short_name" : "Lahore City",
               "types" : [ "administrative_area_level_3", "political" ]
            },
            {
               "long_name" : "Lahore",
               "short_name" : "Lahore",
               "types" : [ "administrative_area_level_2", "political" ]
            },
            {
               "long_name" : "Punjab",
               "short_name" : "Punjab",
               "types" : [ "administrative_area_level_1", "political" ]
            },
            {
               "long_name" : "Pakistan",
               "short_name" : "PK",
               "types" : [ "country", "political" ]
            }
         ],
         "formatted_address" : "Shahdara, Lahore, Punjab, Pakistan",
         "geometry" : {
            "bounds" : {
               "northeast" : {
                  "lat" : 31.6451614,
                  "lng" : 74.31746609999999
               },
               "southwest" : {
                  "lat" : 31.6029909,
                  "lng" : 74.2477512
               }
            },
            "location" : {
               "lat" : 31.6211127,
               "lng" : 74.2823662
            },
            "location_type" : "APPROXIMATE",
            "viewport" : {
               "northeast" : {
                  "lat" : 31.6451614,
                  "lng" : 74.31746609999999
               },
               "southwest" : {
                  "lat" : 31.6029909,
                  "lng" : 74.2477512
               }
            }
         },
         "place_id" : "ChIJ2_xQvkccGTkRtU3UbphB8jw",
         "types" : [ "locality", "political" ]
      },
      {
         "address_components" : [
            {
               "long_name" : "Shahdara Town",
               "short_name" : "Shahdara Town",
               "types" : [ "political", "sublocality", "sublocality_level_1" ]
            },
            {
               "long_name" : "Lahore",
               "short_name" : "Lahore",
               "types" : [ "locality", "political" ]
            },
            {
               "long_name" : "Lahore City",
               "short_name" : "Lahore City",
               "types" : [ "administrative_area_level_3", "political" ]
            },
            {
               "long_name" : "Lahore",
               "short_name" : "Lahore",
               "types" : [ "administrative_area_level_2", "political" ]
            },
            {
               "long_name" : "Punjab",
               "short_name" : "Punjab",
               "types" : [ "administrative_area_level_1", "political" ]
            },
            {
               "long_name" : "Pakistan",
               "short_name" : "PK",
               "types" : [ "country", "political" ]
            }
         ],
         "formatted_address" : "Shahdara Town, Lahore, Punjab, Pakistan",
         "geometry" : {
            "bounds" : {
               "northeast" : {
                  "lat" : 31.6513112,
                  "lng" : 74.31979489999999
               },
               "southwest" : {
                  "lat" : 31.6033549,
                  "lng" : 74.24981439999999
               }
            },
            "location" : {
               "lat" : 31.6276503,
               "lng" : 74.28248619999999
            },
            "location_type" : "APPROXIMATE",
            "viewport" : {
               "northeast" : {
                  "lat" : 31.6513112,
                  "lng" : 74.31979489999999
               },
               "southwest" : {
                  "lat" : 31.6033549,
                  "lng" : 74.24981439999999
               }
            }
         },
         "place_id" : "ChIJ37JshT4cGTkRRlopHP4-eW8",
         "types" : [ "political", "sublocality", "sublocality_level_1" ]
      },
      {
         "address_components" : [
            {
               "long_name" : "Lahore City",
               "short_name" : "Lahore City",
               "types" : [ "administrative_area_level_3", "political" ]
            },
            {
               "long_name" : "Lahore",
               "short_name" : "Lahore",
               "types" : [ "administrative_area_level_2", "political" ]
            },
            {
               "long_name" : "Punjab",
               "short_name" : "Punjab",
               "types" : [ "administrative_area_level_1", "political" ]
            },
            {
               "long_name" : "Pakistan",
               "short_name" : "PK",
               "types" : [ "country", "political" ]
            }
         ],
         "formatted_address" : "Lahore City, Lahore, Punjab, Pakistan",
         "geometry" : {
            "bounds" : {
               "northeast" : {
                  "lat" : 31.669884,
                  "lng" : 74.39582299999999
               },
               "southwest" : {
                  "lat" : 31.2543339,
                  "lng" : 74.0068495
               }
            },
            "location" : {
               "lat" : 31.4329663,
               "lng" : 74.1944529
            },
            "location_type" : "APPROXIMATE",
            "viewport" : {
               "northeast" : {
                  "lat" : 31.669884,
                  "lng" : 74.39582299999999
               },
               "southwest" : {
                  "lat" : 31.2543339,
                  "lng" : 74.0068495
               }
            }
         },
         "place_id" : "ChIJU0eVDuT9GDkReHoSeZ1j6rg",
         "types" : [ "administrative_area_level_3", "political" ]
      },
      {
         "address_components" : [
            {
               "long_name" : "Lahore",
               "short_name" : "Lahore",
               "types" : [ "locality", "political" ]
            },
            {
               "long_name" : "Lahore",
               "short_name" : "Lahore",
               "types" : [ "administrative_area_level_2", "political" ]
            },
            {
               "long_name" : "Punjab",
               "short_name" : "Punjab",
               "types" : [ "administrative_area_level_1", "political" ]
            },
            {
               "long_name" : "Pakistan",
               "short_name" : "PK",
               "types" : [ "country", "political" ]
            }
         ],
         "formatted_address" : "Lahore, Punjab, Pakistan",
         "geometry" : {
            "bounds" : {
               "northeast" : {
                  "lat" : 31.69848649999999,
                  "lng" : 74.55323989999999
               },
               "southwest" : {
                  "lat" : 31.2673942,
                  "lng" : 74.1155387
               }
            },
            "location" : {
               "lat" : 31.5203696,
               "lng" : 74.35874729999999
            },
            "location_type" : "APPROXIMATE",
            "viewport" : {
               "northeast" : {
                  "lat" : 31.69848649999999,
                  "lng" : 74.55323989999999
               },
               "southwest" : {
                  "lat" : 31.2673942,
                  "lng" : 74.1155387
               }
            }
         },
         "place_id" : "ChIJ2QeB5YMEGTkRYiR-zGy-OsI",
         "types" : [ "locality", "political" ]
      },
      {
         "address_components" : [
            {
               "long_name" : "Lahore",
               "short_name" : "Lahore",
               "types" : [ "administrative_area_level_2", "political" ]
            },
            {
               "long_name" : "Punjab",
               "short_name" : "Punjab",
               "types" : [ "administrative_area_level_1", "political" ]
            },
            {
               "long_name" : "Pakistan",
               "short_name" : "PK",
               "types" : [ "country", "political" ]
            }
         ],
         "formatted_address" : "Lahore, Punjab, Pakistan",
         "geometry" : {
            "bounds" : {
               "northeast" : {
                  "lat" : 31.7326739,
                  "lng" : 74.64111319999999
               },
               "southwest" : {
                  "lat" : 31.2543339,
                  "lng" : 74.0068495
               }
            },
            "location" : {
               "lat" : 31.4312704,
               "lng" : 74.35874729999999
            },
            "location_type" : "APPROXIMATE",
            "viewport" : {
               "northeast" : {
                  "lat" : 31.7326739,
                  "lng" : 74.64111319999999
               },
               "southwest" : {
                  "lat" : 31.2543339,
                  "lng" : 74.0068495
               }
            }
         },
         "place_id" : "ChIJNfyfu-sDGTkRca4X8W4UGb4",
         "types" : [ "administrative_area_level_2", "political" ]
      },
      {
         "address_components" : [
            {
               "long_name" : "Punjab",
               "short_name" : "Punjab",
               "types" : [ "administrative_area_level_1", "political" ]
            },
            {
               "long_name" : "Pakistan",
               "short_name" : "PK",
               "types" : [ "country", "political" ]
            }
         ],
         "formatted_address" : "Punjab, Pakistan",
         "geometry" : {
            "bounds" : {
               "northeast" : {
                  "lat" : 34.0434647,
                  "lng" : 75.3796504
               },
               "southwest" : {
                  "lat" : 27.7056256,
                  "lng" : 69.3288726
               }
            },
            "location" : {
               "lat" : 31.1704063,
               "lng" : 72.70971609999999
            },
            "location_type" : "APPROXIMATE",
            "viewport" : {
               "northeast" : {
                  "lat" : 34.0434647,
                  "lng" : 75.3796504
               },
               "southwest" : {
                  "lat" : 27.7056256,
                  "lng" : 69.3288726
               }
            }
         },
         "place_id" : "ChIJy5pBdImU3zgRoOxO0hgwnjo",
         "types" : [ "administrative_area_level_1", "political" ]
      },
      {
         "address_components" : [
            {
               "long_name" : "Pakistan",
               "short_name" : "PK",
               "types" : [ "country", "political" ]
            }
         ],
         "formatted_address" : "Pakistan",
         "geometry" : {
            "bounds" : {
               "northeast" : {
                  "lat" : 37.0841069,
                  "lng" : 77.1204247
               },
               "southwest" : {
                  "lat" : 23.6344999,
                  "lng" : 60.8729721
               }
            },
            "location" : {
               "lat" : 30.375321,
               "lng" : 69.34511599999999
            },
            "location_type" : "APPROXIMATE",
            "viewport" : {
               "northeast" : {
                  "lat" : 37.0841069,
                  "lng" : 77.1204247
               },
               "southwest" : {
                  "lat" : 23.6344999,
                  "lng" : 60.8729721
               }
            }
         },
         "place_id" : "ChIJH3X9-NJS2zgRXJIU5veht0Y",
         "types" : [ "country", "political" ]
      }
   ],
   "status" : "OK"
}
