{
   "plus_code" : {
      "compound_code" : "6F2X+RJR Multan, Pakistan",
      "global_code" : "8J2H6F2X+RJR"
   },
   "results" : [
      {
         "address_components" : [
            {
               "long_name" : "6F2X+WG2",
               "short_name" : "6F2X+WG2",
               "types" : [ "plus_code" ]
            },
            {
               "long_name" : "Muslim Town",
               "short_name" : "Muslim Town",
               "types" : [ "political", "sublocality", "sublocality_level_1" ]
            },
            {
               "long_name" : "Multan",
               "short_name" : "Multan",
               "types" : [ "locality", "political" ]
            },
            {
               "long_name" : "Multan City",
               "short_name" : "Multan City",
               "types" : [ "administrative_area_level_3", "political" ]
            },
            {
               "long_name" : "Multan",
               "short_name" : "Multan",
               "types" : [ "administrative_area_level_2", "political" ]
            },
            {
               "long_name" : "Punjab",
               "short_name" : "Punjab",
               "types" : [ "administrative_area_level_1", "political" ]
            },
            {
               "long_name" : "Pakistan",
               "short_name" : "PK",
               "types" : [ "country", "political" ]
            }
         ],
         "formatted_address" : "6F2X+WG2, Muslim Town, Multan, Punjab, Pakistan",
         "geometry" : {
            "bounds" : {
               "northeast" : {
                  "lat" : 30.2023655,
                  "lng" : 71.4988934
               },
               "southwest" : {
                  "lat" : 30.2022613,
                  "lng" : 71.49870829999999
               }
            },
            "location" : {
               "lat" : 30.2023199,
               "lng" : 71.4987848
            },
            "location_type" : "ROOFTOP",
            "viewport" : {
               "northeast" : {
                  "lat" : 30.2036623802915,
                  "lng" : 71.50014983029151
               },
               "southwest" : {
                  "lat" : 30.2009644197085,
                  "lng" : 71.4974518697085
               }
            }
         },
         "place_id" : "ChIJKUlmGB80OzkRtx0gIaCwd9s",
         "types" : [ "premise" ]
      },
      {
         "address_components" : [
            {
               "long_name" : "6F2X+WG2",
               "short_name" : "6F2X+WG2",
               "types" : [ "plus_code" ]
            },
            {
               "long_name" : "Muslim Town",
               "short_name" : "Muslim Town",
               "types" : [ "political", "sublocality", "sublocality_level_1" ]
            },
            {
               "long_name" : "Multan",
               "short_name" : "Multan",
               "types" : [ "locality", "political" ]
            },
            {
               "long_name" : "Multan City",
               "short_name" : "Multan City",
               "types" : [ "administrative_area_level_3", "political" ]
            },
            {
               "long_name" : "Multan",
               "short_name" : "Multan",
               "types" : [ "administrative_area_level_2", "political" ]
            },
            {
               "long_name" : "Punjab",
               "short_name" : "Punjab",
               "types" : [ "administrative_area_level_1", "political" ]
            },
            {
               "long_name" : "Pakistan",
               "short_name" : "PK",
               "types" : [ "country", "political" ]
            }
         ],
         "formatted_address" : "6F2X+WG2, Muslim Town, Multan, Punjab, Pakistan",
         "geometry" : {
            "location" : {
               "lat" : 30.2022742,
               "lng" : 71.49875249999999
            },
            "location_type" : "GEOMETRIC_CENTER",
            "viewport" : {
               "northeast" : {
                  "lat" : 30.2036231802915,
                  "lng" : 71.50010148029151
               },
               "southwest" : {
                  "lat" : 30.2009252197085,
                  "lng" : 71.49740351970848
               }
            }
         },
         "place_id" : "ChIJ40yTPkE1OzkRw7_Mc1a_XWE",
         "types" : [ "establishment", "food", "point_of_interest", "store" ]
      },
      {
         "address_components" : [
            {
               "long_name" : "6F2X+RJ",
               "short_name" : "6F2X+RJ",
               "types" : [ "plus_code" ]
            },
            {
               "long_name" : "Multan",
               "short_name" : "Multan",
               "types" : [ "locality", "political" ]
            },
            {
               "long_name" : "Multan",
               "short_name" : "Multan",
               "types" : [ "administrative_area_level_2", "political" ]
            },
            {
               "long_name" : "Punjab",
               "short_name" : "Punjab",
               "types" : [ "administrative_area_level_1", "political" ]
            },
            {
               "long_name" : "Pakistan",
               "short_name" : "PK",
               "types" : [ "country", "political" ]
            }
         ],
         "formatted_address" : "6F2X+RJ Multan, Pakistan",
         "geometry" : {
            "bounds" : {
               "northeast" : {
                  "lat" : 30.202125,
                  "lng" : 71.49912499999999
               },
               "southwest" : {
                  "lat" : 30.202,
                  "lng" : 71.499
               }
            },
            "location" : {
               "lat" : 30.2021137,
               "lng" : 71.4990234
            },
            "location_type" : "GEOMETRIC_CENTER",
            "viewport" : {
               "northeast" : {
                  "lat" : 30.2034114802915,
                  "lng" : 71.5004114802915
               },
               "southwest" : {
                  "lat" : 30.2007135197085,
                  "lng" : 71.4977135197085
               }
            }
         },
         "place_id" : "GhIJ1JIzub0zPkARFLzX_-_fUUA",
         "plus_code" : {
            "compound_code" : "6F2X+RJ Multan, Pakistan",
            "global_code" : "8J2H6F2X+RJ"
         },
         "types" : [ "plus_code" ]
      },
      {
         "address_components" : [
            {
               "long_name" : "Street 7",
               "short_name" : "Street 7",
               "types" : [ "route" ]
            },
            {
               "long_name" : "Block K",
               "short_name" : "Block K",
               "types" : [ "political", "sublocality", "sublocality_level_2" ]
            },
            {
               "long_name" : "Shah Rukn E Alam Housing Scheme",
               "short_name" : "Shah Rukn E Alam Housing Scheme",
               "types" : [ "political", "sublocality", "sublocality_level_1" ]
            },
            {
               "long_name" : "Multan",
               "short_name" : "Multan",
               "types" : [ "locality", "political" ]
            },
            {
               "long_name" : "Multan City",
               "short_name" : "Multan City",
               "types" : [ "administrative_area_level_3", "political" ]
            },
            {
               "long_name" : "Multan",
               "short_name" : "Multan",
               "types" : [ "administrative_area_level_2", "political" ]
            },
            {
               "long_name" : "Punjab",
               "short_name" : "Punjab",
               "types" : [ "administrative_area_level_1", "political" ]
            },
            {
               "long_name" : "Pakistan",
               "short_name" : "PK",
               "types" : [ "country", "political" ]
            }
         ],
         "formatted_address" : "Street 7, Block K Shah Rukn E Alam Housing Scheme, Multan, Punjab, Pakistan",
         "geometry" : {
            "bounds" : {
               "northeast" : {
                  "lat" : 30.2023967,
                  "lng" : 71.4998562
               },
               "southwest" : {
                  "lat" : 30.2007807,
                  "lng" : 71.49954799999999
               }
            },
            "location" : {
               "lat" : 30.2015915,
               "lng" : 71.49972509999999
            },
            "location_type" : "GEOMETRIC_CENTER",
            "viewport" : {
               "northeast" : {
                  "lat" : 30.20293768029149,
                  "lng" : 71.5010510802915
               },
               "southwest" : {
                  "lat" : 30.2002397197085,
                  "lng" : 71.49835311970848
               }
            }
         },
         "place_id" : "ChIJafs9cx80OzkRxK0UUV_ivmw",
         "types" : [ "route" ]
      },
      {
         "address_components" : [
            {
               "long_name" : "Block K",
               "short_name" : "Block K",
               "types" : [ "political", "sublocality", "sublocality_level_2" ]
            },
            {
               "long_name" : "Shah Rukn E Alam Housing Scheme",
               "short_name" : "Shah Rukn E Alam Housing Scheme",
               "types" : [ "political", "sublocality", "sublocality_level_1" ]
            },
            {
               "long_name" : "Multan",
               "short_name" : "Multan",
               "types" : [ "locality", "political" ]
            },
            {
               "long_name" : "Multan City",
               "short_name" : "Multan City",
               "types" : [ "administrative_area_level_3", "political" ]
            },
            {
               "long_name" : "Multan",
               "short_name" : "Multan",
               "types" : [ "administrative_area_level_2", "political" ]
            },
            {
               "long_name" : "Punjab",
               "short_name" : "Punjab",
               "types" : [ "administrative_area_level_1", "political" ]
            },
            {
               "long_name" : "Pakistan",
               "short_name" : "PK",
               "types" : [ "country", "political" ]
            }
         ],
         "formatted_address" : "Block K Shah Rukn E Alam Housing Scheme, Multan, Punjab, Pakistan",
         "geometry" : {
            "bounds" : {
               "northeast" : {
                  "lat" : 30.20291,
                  "lng" : 71.504274
               },
               "southwest" : {
                  "lat" : 30.1946325,
                  "lng" : 71.49819599999999
               }
            },
            "location" : {
               "lat" : 30.1993609,
               "lng" : 71.501915
            },
            "location_type" : "APPROXIMATE",
            "viewport" : {
               "northeast" : {
                  "lat" : 30.20291,
                  "lng" : 71.504274
               },
               "southwest" : {
                  "lat" : 30.1946325,
                  "lng" : 71.49819599999999
               }
            }
         },
         "place_id" : "ChIJi-POASA0OzkRWngTdxj9JWc",
         "types" : [ "political", "sublocality", "sublocality_level_2" ]
      },
      {
         "address_components" : [
            {
               "long_name" : "Shah Rukn E Alam Housing Scheme",
               "short_name" : "Shah Rukn E Alam Housing Scheme",
               "types" : [ "political", "sublocality", "sublocality_level_1" ]
            },
            {
               "long_name" : "Multan",
               "short_name" : "Multan",
               "types" : [ "locality", "political" ]
            },
            {
               "long_name" : "Multan City",
               "short_name" : "Multan City",
               "types" : [ "administrative_area_level_3", "political" ]
            },
            {
               "long_name" : "Multan",
               "short_name" : "Multan",
               "types" : [ "administrative_area_level_2", "political" ]
            },
            {
               "long_name" : "Punjab",
               "short_name" : "Punjab",
               "types" : [ "administrative_area_level_1", "political" ]
            },
            {
               "long_name" : "Pakistan",
               "short_name" : "PK",
               "types" : [ "country", "political" ]
            }
         ],
         "formatted_address" : "Shah Rukn E Alam Housing Scheme, Multan, Punjab, Pakistan",
         "geometry" : {
            "bounds" : {
               "northeast" : {
                  "lat" : 30.20291,
                  "lng" : 71.5225963
               },
               "southwest" : {
                  "lat" : 30.1811647,
                  "lng" : 71.49798029999999
               }
            },
            "location" : {
               "lat" : 30.1915001,
               "lng" : 71.51007659999999
            },
            "location_type" : "APPROXIMATE",
            "viewport" : {
               "northeast" : {
                  "lat" : 30.20291,
                  "lng" : 71.5225963
               },
               "southwest" : {
                  "lat" : 30.1811647,
                  "lng" : 71.49798029999999
               }
            }
         },
         "place_id" : "ChIJ2Tn5Bps2OzkRpfBDwQgRGfA",
         "types" : [ "political", "sublocality", "sublocality_level_1" ]
      },
      {
         "address_components" : [
            {
               "long_name" : "Taraf Mubarik Doim",
               "short_name" : "Taraf Mubarik Doim",
               "types" : [ "administrative_area_level_5", "political" ]
            },
            {
               "long_name" : "Multan",
               "short_name" : "Multan",
               "types" : [ "locality", "political" ]
            },
            {
               "long_name" : "Multan City",
               "short_name" : "Multan City",
               "types" : [ "administrative_area_level_3", "political" ]
            },
            {
               "long_name" : "Multan",
               "short_name" : "Multan",
               "types" : [ "administrative_area_level_2", "political" ]
            },
            {
               "long_name" : "Punjab",
               "short_name" : "Punjab",
               "types" : [ "administrative_area_level_1", "political" ]
            },
            {
               "long_name" : "Pakistan",
               "short_name" : "PK",
               "types" : [ "country", "political" ]
            }
         ],
         "formatted_address" : "Taraf Mubarik Doim, Multan, Punjab, Pakistan",
         "geometry" : {
            "bounds" : {
               "northeast" : {
                  "lat" : 30.2485014,
                  "lng" : 71.52257449999999
               },
               "southwest" : {
                  "lat" : 30.185,
                  "lng" : 71.4652988
               }
            },
            "location" : {
               "lat" : 30.2079638,
               "lng" : 71.48930129999999
            },
            "location_type" : "APPROXIMATE",
            "viewport" : {
               "northeast" : {
                  "lat" : 30.2485014,
                  "lng" : 71.52257449999999
               },
               "southwest" : {
                  "lat" : 30.185,
                  "lng" : 71.4652988
               }
            }
         },
         "place_id" : "ChIJefwdnxM0OzkRfFvH1vbPMKM",
         "types" : [ "administrative_area_level_5", "political" ]
      },
      {
         "address_components" : [
            {
               "long_name" : "Multan City",
               "short_name" : "Multan City",
               "types" : [ "administrative_area_level_3", "political" ]
            },
            {
               "long_name" : "Multan",
               "short_name" : "Multan",
               "types" : [ "administrative_area_level_2", "political" ]
            },
            {
               "long_name" : "Punjab",
               "short_name" : "Punjab",
               "types" : [ "administrative_area_level_1", "political" ]
            },
            {
               "long_name" : "Pakistan",
               "short_name" : "PK",
               "types" : [ "country", "political" ]
            }
         ],
         "formatted_address" : "Multan City, Multan, Punjab, Pakistan",
         "geometry" : {
            "bounds" : {
               "northeast" : {
                  "lat" : 30.286568,
                  "lng" : 71.563075
               },
               "southwest" : {
                  "lat" : 30.0699871,
                  "lng" : 71.32475699999999
               }
            },
            "location" : {
               "lat" : 30.169372,
               "lng" : 71.4536835
            },
            "location_type" : "APPROXIMATE",
            "viewport" : {
               "northeast" : {
                  "lat" : 30.286568,
                  "lng" : 71.563075
               },
               "southwest" : {
                  "lat" : 30.0699871,
                  "lng" : 71.32475699999999
               }
            }
         },
         "place_id" : "ChIJBR5EkG8xOzkR48n4xZjnARM",
         "types" : [ "administrative_area_level_3", "political" ]
      },
      {
         "address_components" : [
            {
               "long_name" : "Multan",
               "short_name" : "Multan",
               "types" : [ "locality", "political" ]
            },
            {
               "long_name" : "Multan",
               "short_name" : "Multan",
               "types" : [ "administrative_area_level_2", "political" ]
            },
            {
               "long_name" : "Punjab",
               "short_name" : "Punjab",
               "types" : [ "administrative_area_level_1", "political" ]
            },
            {
               "long_name" : "Pakistan",
               "short_name" : "PK",
               "types" : [ "country", "political" ]
            }
         ],
         "formatted_address" : "Multan, Punjab, Pakistan",
         "geometry" : {
            "bounds" : {
               "northeast" : {
                  "lat" : 30.3105332,
                  "lng" : 71.64538709999999
               },
               "southwest" : {
                  "lat" : 30.0519792,
                  "lng" : 71.3039295
               }
            },
            "location" : {
               "lat" : 30.157458,
               "lng" : 71.5249154
            },
            "location_type" : "APPROXIMATE",
            "viewport" : {
               "northeast" : {
                  "lat" : 30.3105332,
                  "lng" : 71.64538709999999
               },
               "southwest" : {
                  "lat" : 30.0519792,
                  "lng" : 71.3039295
               }
            }
         },
         "place_id" : "ChIJ2afeeFcxOzkRL9RVTscv17o",
         "types" : [ "locality", "political" ]
      },
      {
         "address_components" : [
            {
               "long_name" : "Multan",
               "short_name" : "Multan",
               "types" : [ "administrative_area_level_2", "political" ]
            },
            {
               "long_name" : "Punjab",
               "short_name" : "Punjab",
               "types" : [ "administrative_area_level_1", "political" ]
            },
            {
               "long_name" : "Pakistan",
               "short_name" : "PK",
               "types" : [ "country", "political" ]
            }
         ],
         "formatted_address" : "Multan, Punjab, Pakistan",
         "geometry" : {
            "bounds" : {
               "northeast" : {
                  "lat" : 30.4549729,
                  "lng" : 71.8323929
               },
               "southwest" : {
                  "lat" : 29.4141741,
                  "lng" : 71.00778199999999
               }
            },
            "location" : {
               "lat" : 30.1951012,
               "lng" : 71.47742909999999
            },
            "location_type" : "APPROXIMATE",
            "viewport" : {
               "northeast" : {
                  "lat" : 30.4549729,
                  "lng" : 71.8323929
               },
               "southwest" : {
                  "lat" : 29.4141741,
                  "lng" : 71.00778199999999
               }
            }
         },
         "place_id" : "ChIJRcUSyFMWOzkRELfz4pTxHiE",
         "types" : [ "administrative_area_level_2", "political" ]
      },
      {
         "address_components" : [
            {
               "long_name" : "Punjab",
               "short_name" : "Punjab",
               "types" : [ "administrative_area_level_1", "political" ]
            },
            {
               "long_name" : "Pakistan",
               "short_name" : "PK",
               "types" : [ "country", "political" ]
            }
         ],
         "formatted_address" : "Punjab, Pakistan",
         "geometry" : {
            "bounds" : {
               "northeast" : {
                  "lat" : 34.0434647,
                  "lng" : 75.3796504
               },
               "southwest" : {
                  "lat" : 27.7056256,
                  "lng" : 69.3288726
               }
            },
            "location" : {
               "lat" : 31.1704063,
               "lng" : 72.70971609999999
            },
            "location_type" : "APPROXIMATE",
            "viewport" : {
               "northeast" : {
                  "lat" : 34.0434647,
                  "lng" : 75.3796504
               },
               "southwest" : {
                  "lat" : 27.7056256,
                  "lng" : 69.3288726
               }
            }
         },
         "place_id" : "ChIJy5pBdImU3zgRoOxO0hgwnjo",
         "types" : [ "administrative_area_level_1", "political" ]
      },
      {
         "address_components" : [
            {
               "long_name" : "Pakistan",
               "short_name" : "PK",
               "types" : [ "country", "political" ]
            }
         ],
         "formatted_address" : "Pakistan",
         "geometry" : {
            "bounds" : {
               "northeast" : {
                  "lat" : 37.0841069,
                  "lng" : 77.1204247
               },
               "southwest" : {
                  "lat" : 23.6344999,
                  "lng" : 60.8729721
               }
            },
            "location" : {
               "lat" : 30.375321,
               "lng" : 69.34511599999999
            },
            "location_type" : "APPROXIMATE",
            "viewport" : {
               "northeast" : {
                  "lat" : 37.0841069,
                  "lng" : 77.1204247
               },
               "southwest" : {
                  "lat" : 23.6344999,
                  "lng" : 60.8729721
               }
            }
         },
         "place_id" : "ChIJH3X9-NJS2zgRXJIU5veht0Y",
         "types" : [ "country", "political" ]
      }
   ],
   "status" : "OK"
}
