{
   "plus_code" : {
      "compound_code" : "XWFW+22G Chak 51 SB, Pakistan",
      "global_code" : "8J3JXWFW+22G"
   },
   "results" : [
      {
         "address_components" : [
            {
               "long_name" : "XWFW+22",
               "short_name" : "XWFW+22",
               "types" : [ "plus_code" ]
            },
            {
               "long_name" : "Chak 51 SB",
               "short_name" : "Chak 51 SB",
               "types" : [ "locality", "political" ]
            },
            {
               "long_name" : "Sargodha",
               "short_name" : "Sargodha",
               "types" : [ "administrative_area_level_3", "political" ]
            },
            {
               "long_name" : "Sargodha",
               "short_name" : "Sargodha",
               "types" : [ "administrative_area_level_2", "political" ]
            },
            {
               "long_name" : "Punjab",
               "short_name" : "Punjab",
               "types" : [ "administrative_area_level_1", "political" ]
            },
            {
               "long_name" : "Pakistan",
               "short_name" : "PK",
               "types" : [ "country", "political" ]
            }
         ],
         "formatted_address" : "XWFW+22 Chak 51 SB, Pakistan",
         "geometry" : {
            "bounds" : {
               "northeast" : {
                  "lat" : 31.972625,
                  "lng" : 72.94512499999999
               },
               "southwest" : {
                  "lat" : 31.9725,
                  "lng" : 72.94499999999999
               }
            },
            "location" : {
               "lat" : 31.97257459999999,
               "lng" : 72.9450781
            },
            "location_type" : "GEOMETRIC_CENTER",
            "viewport" : {
               "northeast" : {
                  "lat" : 31.9739114802915,
                  "lng" : 72.9464114802915
               },
               "southwest" : {
                  "lat" : 31.9712135197085,
                  "lng" : 72.9437135197085
               }
            }
         },
         "place_id" : "GhIJlusjpvr4P0ARneraKHw8UkA",
         "plus_code" : {
            "compound_code" : "XWFW+22 Chak 51 SB, Pakistan",
            "global_code" : "8J3JXWFW+22"
         },
         "types" : [ "plus_code" ]
      },
      {
         "address_components" : [
            {
               "long_name" : "Unnamed Road",
               "short_name" : "Unnamed Road",
               "types" : [ "route" ]
            },
            {
               "long_name" : "Punjab",
               "short_name" : "Punjab",
               "types" : [ "administrative_area_level_1", "political" ]
            },
            {
               "long_name" : "Pakistan",
               "short_name" : "PK",
               "types" : [ "country", "political" ]
            }
         ],
         "formatted_address" : "Unnamed Road, Punjab, Pakistan",
         "geometry" : {
            "bounds" : {
               "northeast" : {
                  "lat" : 31.9739905,
                  "lng" : 72.9506516
               },
               "southwest" : {
                  "lat" : 31.9697665,
                  "lng" : 72.94426210000002
               }
            },
            "location" : {
               "lat" : 31.9718743,
               "lng" : 72.94745329999999
            },
            "location_type" : "GEOMETRIC_CENTER",
            "viewport" : {
               "northeast" : {
                  "lat" : 31.9739905,
                  "lng" : 72.9506516
               },
               "southwest" : {
                  "lat" : 31.9697665,
                  "lng" : 72.94426210000002
               }
            }
         },
         "place_id" : "ChIJBzwHUhyJITkRCi-8F_vNM3s",
         "types" : [ "route" ]
      },
      {
         "address_components" : [
            {
               "long_name" : "Laluwali",
               "short_name" : "Laluwali",
               "types" : [ "administrative_area_level_5", "political" ]
            },
            {
               "long_name" : "Sargodha",
               "short_name" : "Sargodha",
               "types" : [ "administrative_area_level_2", "political" ]
            },
            {
               "long_name" : "Punjab",
               "short_name" : "Punjab",
               "types" : [ "administrative_area_level_1", "political" ]
            },
            {
               "long_name" : "Pakistan",
               "short_name" : "PK",
               "types" : [ "country", "political" ]
            }
         ],
         "formatted_address" : "Laluwali, Sargodha, Punjab, Pakistan",
         "geometry" : {
            "bounds" : {
               "northeast" : {
                  "lat" : 32.0204608,
                  "lng" : 72.9926864
               },
               "southwest" : {
                  "lat" : 31.9539447,
                  "lng" : 72.91523219999999
               }
            },
            "location" : {
               "lat" : 31.9904859,
               "lng" : 72.9578676
            },
            "location_type" : "APPROXIMATE",
            "viewport" : {
               "northeast" : {
                  "lat" : 32.0204608,
                  "lng" : 72.9926864
               },
               "southwest" : {
                  "lat" : 31.9539447,
                  "lng" : 72.91523219999999
               }
            }
         },
         "place_id" : "ChIJFU4ssyWJITkRShk3V3ngXOo",
         "types" : [ "administrative_area_level_5", "political" ]
      },
      {
         "address_components" : [
            {
               "long_name" : "Sargodha",
               "short_name" : "Sargodha",
               "types" : [ "administrative_area_level_3", "political" ]
            },
            {
               "long_name" : "Sargodha",
               "short_name" : "Sargodha",
               "types" : [ "administrative_area_level_2", "political" ]
            },
            {
               "long_name" : "Punjab",
               "short_name" : "Punjab",
               "types" : [ "administrative_area_level_1", "political" ]
            },
            {
               "long_name" : "Pakistan",
               "short_name" : "PK",
               "types" : [ "country", "political" ]
            }
         ],
         "formatted_address" : "Sargodha, Punjab, Pakistan",
         "geometry" : {
            "bounds" : {
               "northeast" : {
                  "lat" : 32.286783,
                  "lng" : 73.050966
               },
               "southwest" : {
                  "lat" : 31.818546,
                  "lng" : 72.44248899999999
               }
            },
            "location" : {
               "lat" : 32.0177852,
               "lng" : 72.7570024
            },
            "location_type" : "APPROXIMATE",
            "viewport" : {
               "northeast" : {
                  "lat" : 32.286783,
                  "lng" : 73.050966
               },
               "southwest" : {
                  "lat" : 31.818546,
                  "lng" : 72.44248899999999
               }
            }
         },
         "place_id" : "ChIJtVMxttGCITkRergQwfHo5yw",
         "types" : [ "administrative_area_level_3", "political" ]
      },
      {
         "address_components" : [
            {
               "long_name" : "Sargodha",
               "short_name" : "Sargodha",
               "types" : [ "administrative_area_level_2", "political" ]
            },
            {
               "long_name" : "Punjab",
               "short_name" : "Punjab",
               "types" : [ "administrative_area_level_1", "political" ]
            },
            {
               "long_name" : "Pakistan",
               "short_name" : "PK",
               "types" : [ "country", "political" ]
            }
         ],
         "formatted_address" : "Sargodha, Punjab, Pakistan",
         "geometry" : {
            "bounds" : {
               "northeast" : {
                  "lat" : 32.5712785,
                  "lng" : 73.31019239999999
               },
               "southwest" : {
                  "lat" : 31.5566249,
                  "lng" : 72.21704679999999
               }
            },
            "location" : {
               "lat" : 32.156592,
               "lng" : 72.8042797
            },
            "location_type" : "APPROXIMATE",
            "viewport" : {
               "northeast" : {
                  "lat" : 32.5712785,
                  "lng" : 73.31019239999999
               },
               "southwest" : {
                  "lat" : 31.5566249,
                  "lng" : 72.21704679999999
               }
            }
         },
         "place_id" : "ChIJ0S6JJZadITkRmlmemFkTNjk",
         "types" : [ "administrative_area_level_2", "political" ]
      },
      {
         "address_components" : [
            {
               "long_name" : "Punjab",
               "short_name" : "Punjab",
               "types" : [ "administrative_area_level_1", "political" ]
            },
            {
               "long_name" : "Pakistan",
               "short_name" : "PK",
               "types" : [ "country", "political" ]
            }
         ],
         "formatted_address" : "Punjab, Pakistan",
         "geometry" : {
            "bounds" : {
               "northeast" : {
                  "lat" : 34.0434647,
                  "lng" : 75.3796504
               },
               "southwest" : {
                  "lat" : 27.7056256,
                  "lng" : 69.3288726
               }
            },
            "location" : {
               "lat" : 31.1704063,
               "lng" : 72.70971609999999
            },
            "location_type" : "APPROXIMATE",
            "viewport" : {
               "northeast" : {
                  "lat" : 34.0434647,
                  "lng" : 75.3796504
               },
               "southwest" : {
                  "lat" : 27.7056256,
                  "lng" : 69.3288726
               }
            }
         },
         "place_id" : "ChIJy5pBdImU3zgRoOxO0hgwnjo",
         "types" : [ "administrative_area_level_1", "political" ]
      },
      {
         "address_components" : [
            {
               "long_name" : "Pakistan",
               "short_name" : "PK",
               "types" : [ "country", "political" ]
            }
         ],
         "formatted_address" : "Pakistan",
         "geometry" : {
            "bounds" : {
               "northeast" : {
                  "lat" : 37.0841069,
                  "lng" : 77.1204247
               },
               "southwest" : {
                  "lat" : 23.6344999,
                  "lng" : 60.8729721
               }
            },
            "location" : {
               "lat" : 30.375321,
               "lng" : 69.34511599999999
            },
            "location_type" : "APPROXIMATE",
            "viewport" : {
               "northeast" : {
                  "lat" : 37.0841069,
                  "lng" : 77.1204247
               },
               "southwest" : {
                  "lat" : 23.6344999,
                  "lng" : 60.8729721
               }
            }
         },
         "place_id" : "ChIJH3X9-NJS2zgRXJIU5veht0Y",
         "types" : [ "country", "political" ]
      }
   ],
   "status" : "OK"
}
