{
   "plus_code" : {
      "compound_code" : "G95G+JR2 Lahore, Pakistan",
      "global_code" : "8J3PG95G+JR2"
   },
   "results" : [
      {
         "address_components" : [
            {
               "long_name" : "Polo Ground",
               "short_name" : "Polo Ground",
               "types" : [ "establishment", "park", "point_of_interest" ]
            },
            {
               "long_name" : "G95G+CR7",
               "short_name" : "G95G+CR7",
               "types" : [ "plus_code" ]
            },
            {
               "long_name" : "Sarwar Road",
               "short_name" : "Sarwar Rd",
               "types" : [ "route" ]
            },
            {
               "long_name" : "Falcon Complex",
               "short_name" : "Falcon Complex",
               "types" : [ "political", "sublocality", "sublocality_level_1" ]
            },
            {
               "long_name" : "Lahore",
               "short_name" : "Lahore",
               "types" : [ "locality", "political" ]
            },
            {
               "long_name" : "Lahore Cantt",
               "short_name" : "Lahore Cantt",
               "types" : [ "administrative_area_level_3", "political" ]
            },
            {
               "long_name" : "Lahore",
               "short_name" : "Lahore",
               "types" : [ "administrative_area_level_2", "political" ]
            },
            {
               "long_name" : "Punjab",
               "short_name" : "Punjab",
               "types" : [ "administrative_area_level_1", "political" ]
            },
            {
               "long_name" : "Pakistan",
               "short_name" : "PK",
               "types" : [ "country", "political" ]
            }
         ],
         "formatted_address" : "G95G+CR7 Polo Ground, Sarwar Rd, Falcon Complex, Lahore, Punjab, Pakistan",
         "geometry" : {
            "location" : {
               "lat" : 31.5085391,
               "lng" : 74.3770478
            },
            "location_type" : "GEOMETRIC_CENTER",
            "viewport" : {
               "northeast" : {
                  "lat" : 31.5098880802915,
                  "lng" : 74.37839678029151
               },
               "southwest" : {
                  "lat" : 31.5071901197085,
                  "lng" : 74.3756988197085
               }
            }
         },
         "place_id" : "ChIJqZ7jfLwFGTkR5zmGW1Q1-IY",
         "types" : [ "establishment", "park", "point_of_interest" ]
      },
      {
         "address_components" : [
            {
               "long_name" : "G95G+JR",
               "short_name" : "G95G+JR",
               "types" : [ "plus_code" ]
            },
            {
               "long_name" : "Lahore",
               "short_name" : "Lahore",
               "types" : [ "locality", "political" ]
            },
            {
               "long_name" : "Lahore",
               "short_name" : "Lahore",
               "types" : [ "administrative_area_level_2", "political" ]
            },
            {
               "long_name" : "Punjab",
               "short_name" : "Punjab",
               "types" : [ "administrative_area_level_1", "political" ]
            },
            {
               "long_name" : "Pakistan",
               "short_name" : "PK",
               "types" : [ "country", "political" ]
            }
         ],
         "formatted_address" : "G95G+JR Lahore, Pakistan",
         "geometry" : {
            "bounds" : {
               "northeast" : {
                  "lat" : 31.509125,
                  "lng" : 74.37712499999999
               },
               "southwest" : {
                  "lat" : 31.509,
                  "lng" : 74.377
               }
            },
            "location" : {
               "lat" : 31.5090216,
               "lng" : 74.37700149999999
            },
            "location_type" : "GEOMETRIC_CENTER",
            "viewport" : {
               "northeast" : {
                  "lat" : 31.5104114802915,
                  "lng" : 74.3784114802915
               },
               "southwest" : {
                  "lat" : 31.5077135197085,
                  "lng" : 74.3757135197085
               }
            }
         },
         "place_id" : "GhIJJPVUPU-CP0ARv0LmyiCYUkA",
         "plus_code" : {
            "compound_code" : "G95G+JR Lahore, Pakistan",
            "global_code" : "8J3PG95G+JR"
         },
         "types" : [ "plus_code" ]
      },
      {
         "address_components" : [
            {
               "long_name" : "G95H+CHJ",
               "short_name" : "G95H+CHJ",
               "types" : [ "plus_code" ]
            },
            {
               "long_name" : "Tufail Road",
               "short_name" : "Tufail Rd",
               "types" : [ "route" ]
            },
            {
               "long_name" : "Falcon Complex",
               "short_name" : "Falcon Complex",
               "types" : [ "political", "sublocality", "sublocality_level_1" ]
            },
            {
               "long_name" : "Lahore",
               "short_name" : "Lahore",
               "types" : [ "locality", "political" ]
            },
            {
               "long_name" : "Lahore Cantt",
               "short_name" : "Lahore Cantt",
               "types" : [ "administrative_area_level_3", "political" ]
            },
            {
               "long_name" : "Lahore",
               "short_name" : "Lahore",
               "types" : [ "administrative_area_level_2", "political" ]
            },
            {
               "long_name" : "Punjab",
               "short_name" : "Punjab",
               "types" : [ "administrative_area_level_1", "political" ]
            },
            {
               "long_name" : "Pakistan",
               "short_name" : "PK",
               "types" : [ "country", "political" ]
            }
         ],
         "formatted_address" : "G95H+CHJ, Tufail Rd, Falcon Complex, Lahore, Punjab, Pakistan",
         "geometry" : {
            "bounds" : {
               "northeast" : {
                  "lat" : 31.5086961,
                  "lng" : 74.3789709
               },
               "southwest" : {
                  "lat" : 31.5084826,
                  "lng" : 74.37873039999999
               }
            },
            "location" : {
               "lat" : 31.5085684,
               "lng" : 74.3788613
            },
            "location_type" : "ROOFTOP",
            "viewport" : {
               "northeast" : {
                  "lat" : 31.5099383302915,
                  "lng" : 74.3801996302915
               },
               "southwest" : {
                  "lat" : 31.5072403697085,
                  "lng" : 74.37750166970849
               }
            }
         },
         "place_id" : "ChIJf3-2VrwFGTkRuL0VBGdo6lo",
         "types" : [ "premise" ]
      },
      {
         "address_components" : [
            {
               "long_name" : "24b",
               "short_name" : "24b",
               "types" : [ "street_number" ]
            },
            {
               "long_name" : "Sarwar Road",
               "short_name" : "Sarwar Rd",
               "types" : [ "route" ]
            },
            {
               "long_name" : "Cantt",
               "short_name" : "Cantt",
               "types" : [ "political", "sublocality", "sublocality_level_1" ]
            },
            {
               "long_name" : "Lahore",
               "short_name" : "Lahore",
               "types" : [ "locality", "political" ]
            },
            {
               "long_name" : "Lahore Cantt",
               "short_name" : "Lahore Cantt",
               "types" : [ "administrative_area_level_3", "political" ]
            },
            {
               "long_name" : "Lahore",
               "short_name" : "Lahore",
               "types" : [ "administrative_area_level_2", "political" ]
            },
            {
               "long_name" : "Punjab",
               "short_name" : "Punjab",
               "types" : [ "administrative_area_level_1", "political" ]
            },
            {
               "long_name" : "Pakistan",
               "short_name" : "PK",
               "types" : [ "country", "political" ]
            }
         ],
         "formatted_address" : "24b Sarwar Rd, Cantt, Lahore, Punjab, Pakistan",
         "geometry" : {
            "location" : {
               "lat" : 31.507671,
               "lng" : 74.3756618
            },
            "location_type" : "ROOFTOP",
            "viewport" : {
               "northeast" : {
                  "lat" : 31.5090199802915,
                  "lng" : 74.37701078029151
               },
               "southwest" : {
                  "lat" : 31.5063220197085,
                  "lng" : 74.37431281970851
               }
            }
         },
         "place_id" : "ChIJIyQyjrsFGTkRFJRMTZ2_kl8",
         "plus_code" : {
            "compound_code" : "G95G+37 Lahore, Pakistan",
            "global_code" : "8J3PG95G+37"
         },
         "types" : [ "street_address" ]
      },
      {
         "address_components" : [
            {
               "long_name" : "Sarwar Road",
               "short_name" : "Sarwar Rd",
               "types" : [ "route" ]
            },
            {
               "long_name" : "Falcon Complex",
               "short_name" : "Falcon Complex",
               "types" : [ "political", "sublocality", "sublocality_level_1" ]
            },
            {
               "long_name" : "Lahore",
               "short_name" : "Lahore",
               "types" : [ "locality", "political" ]
            },
            {
               "long_name" : "Lahore Cantt",
               "short_name" : "Lahore Cantt",
               "types" : [ "administrative_area_level_3", "political" ]
            },
            {
               "long_name" : "Lahore",
               "short_name" : "Lahore",
               "types" : [ "administrative_area_level_2", "political" ]
            },
            {
               "long_name" : "Punjab",
               "short_name" : "Punjab",
               "types" : [ "administrative_area_level_1", "political" ]
            },
            {
               "long_name" : "Pakistan",
               "short_name" : "PK",
               "types" : [ "country", "political" ]
            }
         ],
         "formatted_address" : "Sarwar Rd, Falcon Complex, Lahore, Punjab, Pakistan",
         "geometry" : {
            "bounds" : {
               "northeast" : {
                  "lat" : 31.5097991,
                  "lng" : 74.3758823
               },
               "southwest" : {
                  "lat" : 31.50895999999999,
                  "lng" : 74.3758636
               }
            },
            "location" : {
               "lat" : 31.5093796,
               "lng" : 74.37587289999999
            },
            "location_type" : "GEOMETRIC_CENTER",
            "viewport" : {
               "northeast" : {
                  "lat" : 31.5107285302915,
                  "lng" : 74.3772219302915
               },
               "southwest" : {
                  "lat" : 31.5080305697085,
                  "lng" : 74.37452396970849
               }
            }
         },
         "place_id" : "ChIJ6bEXZbsFGTkRcg6GX8myNM0",
         "types" : [ "route" ]
      },
      {
         "address_components" : [
            {
               "long_name" : "24",
               "short_name" : "24",
               "types" : [ "street_number" ]
            },
            {
               "long_name" : "Sarwar Road",
               "short_name" : "Sarwar Rd",
               "types" : [ "route" ]
            },
            {
               "long_name" : "Falcon Complex",
               "short_name" : "Falcon Complex",
               "types" : [ "political", "sublocality", "sublocality_level_1" ]
            },
            {
               "long_name" : "Lahore",
               "short_name" : "Lahore",
               "types" : [ "locality", "political" ]
            },
            {
               "long_name" : "Lahore Cantt",
               "short_name" : "Lahore Cantt",
               "types" : [ "administrative_area_level_3", "political" ]
            },
            {
               "long_name" : "Lahore",
               "short_name" : "Lahore",
               "types" : [ "administrative_area_level_2", "political" ]
            },
            {
               "long_name" : "Punjab",
               "short_name" : "Punjab",
               "types" : [ "administrative_area_level_1", "political" ]
            },
            {
               "long_name" : "Pakistan",
               "short_name" : "PK",
               "types" : [ "country", "political" ]
            }
         ],
         "formatted_address" : "24 Sarwar Rd, Falcon Complex, Lahore, Punjab, Pakistan",
         "geometry" : {
            "location" : {
               "lat" : 31.5076722,
               "lng" : 74.37564569999999
            },
            "location_type" : "RANGE_INTERPOLATED",
            "viewport" : {
               "northeast" : {
                  "lat" : 31.5090211802915,
                  "lng" : 74.3769946802915
               },
               "southwest" : {
                  "lat" : 31.5063232197085,
                  "lng" : 74.3742967197085
               }
            }
         },
         "place_id" : "EjYyNCBTYXJ3YXIgUmQsIEZhbGNvbiBDb21wbGV4LCBMYWhvcmUsIFB1bmphYiwgUGFraXN0YW4iGhIYChQKEgmjKxSOuwUZORH0PAIE_hh9ZRAY",
         "types" : [ "street_address" ]
      },
      {
         "address_components" : [
            {
               "long_name" : "Falcon Complex",
               "short_name" : "Falcon Complex",
               "types" : [ "political", "sublocality", "sublocality_level_1" ]
            },
            {
               "long_name" : "Lahore",
               "short_name" : "Lahore",
               "types" : [ "locality", "political" ]
            },
            {
               "long_name" : "Lahore Cantt",
               "short_name" : "Lahore Cantt",
               "types" : [ "administrative_area_level_3", "political" ]
            },
            {
               "long_name" : "Lahore",
               "short_name" : "Lahore",
               "types" : [ "administrative_area_level_2", "political" ]
            },
            {
               "long_name" : "Punjab",
               "short_name" : "Punjab",
               "types" : [ "administrative_area_level_1", "political" ]
            },
            {
               "long_name" : "Pakistan",
               "short_name" : "PK",
               "types" : [ "country", "political" ]
            }
         ],
         "formatted_address" : "Falcon Complex, Lahore, Punjab, Pakistan",
         "geometry" : {
            "bounds" : {
               "northeast" : {
                  "lat" : 31.5222128,
                  "lng" : 74.38153779999999
               },
               "southwest" : {
                  "lat" : 31.5062837,
                  "lng" : 74.3755273
               }
            },
            "location" : {
               "lat" : 31.5130041,
               "lng" : 74.3778076
            },
            "location_type" : "APPROXIMATE",
            "viewport" : {
               "northeast" : {
                  "lat" : 31.5222128,
                  "lng" : 74.38153779999999
               },
               "southwest" : {
                  "lat" : 31.5062837,
                  "lng" : 74.3755273
               }
            }
         },
         "place_id" : "ChIJm9mdCKMFGTkR6L7l4XQ9bOA",
         "types" : [ "political", "sublocality", "sublocality_level_1" ]
      },
      {
         "address_components" : [
            {
               "long_name" : "Cantonment",
               "short_name" : "Cantonment",
               "types" : [ "administrative_area_level_5", "political" ]
            },
            {
               "long_name" : "Lahore",
               "short_name" : "Lahore",
               "types" : [ "locality", "political" ]
            },
            {
               "long_name" : "Lahore Cantt",
               "short_name" : "Lahore Cantt",
               "types" : [ "administrative_area_level_3", "political" ]
            },
            {
               "long_name" : "Lahore",
               "short_name" : "Lahore",
               "types" : [ "administrative_area_level_2", "political" ]
            },
            {
               "long_name" : "Punjab",
               "short_name" : "Punjab",
               "types" : [ "administrative_area_level_1", "political" ]
            },
            {
               "long_name" : "Pakistan",
               "short_name" : "PK",
               "types" : [ "country", "political" ]
            }
         ],
         "formatted_address" : "Cantonment, Lahore, Punjab, Pakistan",
         "geometry" : {
            "bounds" : {
               "northeast" : {
                  "lat" : 31.5641622,
                  "lng" : 74.48560909999999
               },
               "southwest" : {
                  "lat" : 31.4526631,
                  "lng" : 74.34548340000001
               }
            },
            "location" : {
               "lat" : 31.4942641,
               "lng" : 74.41738769999999
            },
            "location_type" : "APPROXIMATE",
            "viewport" : {
               "northeast" : {
                  "lat" : 31.5641622,
                  "lng" : 74.48560909999999
               },
               "southwest" : {
                  "lat" : 31.4526631,
                  "lng" : 74.34548340000001
               }
            }
         },
         "place_id" : "ChIJV3zLTmYPGTkRLrK1jCi4UH4",
         "types" : [ "administrative_area_level_5", "political" ]
      },
      {
         "address_components" : [
            {
               "long_name" : "Lahore Cantt",
               "short_name" : "Lahore Cantt",
               "types" : [ "administrative_area_level_3", "political" ]
            },
            {
               "long_name" : "Lahore",
               "short_name" : "Lahore",
               "types" : [ "administrative_area_level_2", "political" ]
            },
            {
               "long_name" : "Punjab",
               "short_name" : "Punjab",
               "types" : [ "administrative_area_level_1", "political" ]
            },
            {
               "long_name" : "Pakistan",
               "short_name" : "PK",
               "types" : [ "country", "political" ]
            }
         ],
         "formatted_address" : "Lahore Cantt, Lahore, Punjab, Pakistan",
         "geometry" : {
            "bounds" : {
               "northeast" : {
                  "lat" : 31.7326737,
                  "lng" : 74.64111319999999
               },
               "southwest" : {
                  "lat" : 31.281605,
                  "lng" : 74.2479031
               }
            },
            "location" : {
               "lat" : 31.53204,
               "lng" : 74.4525627
            },
            "location_type" : "APPROXIMATE",
            "viewport" : {
               "northeast" : {
                  "lat" : 31.7326737,
                  "lng" : 74.64111319999999
               },
               "southwest" : {
                  "lat" : 31.281605,
                  "lng" : 74.2479031
               }
            }
         },
         "place_id" : "ChIJJ75MHRkPGTkRJIDFq6b2v2k",
         "types" : [ "administrative_area_level_3", "political" ]
      },
      {
         "address_components" : [
            {
               "long_name" : "Lahore",
               "short_name" : "Lahore",
               "types" : [ "locality", "political" ]
            },
            {
               "long_name" : "Lahore",
               "short_name" : "Lahore",
               "types" : [ "administrative_area_level_2", "political" ]
            },
            {
               "long_name" : "Punjab",
               "short_name" : "Punjab",
               "types" : [ "administrative_area_level_1", "political" ]
            },
            {
               "long_name" : "Pakistan",
               "short_name" : "PK",
               "types" : [ "country", "political" ]
            }
         ],
         "formatted_address" : "Lahore, Punjab, Pakistan",
         "geometry" : {
            "bounds" : {
               "northeast" : {
                  "lat" : 31.69848649999999,
                  "lng" : 74.55323989999999
               },
               "southwest" : {
                  "lat" : 31.2673942,
                  "lng" : 74.1155387
               }
            },
            "location" : {
               "lat" : 31.5203696,
               "lng" : 74.35874729999999
            },
            "location_type" : "APPROXIMATE",
            "viewport" : {
               "northeast" : {
                  "lat" : 31.69848649999999,
                  "lng" : 74.55323989999999
               },
               "southwest" : {
                  "lat" : 31.2673942,
                  "lng" : 74.1155387
               }
            }
         },
         "place_id" : "ChIJ2QeB5YMEGTkRYiR-zGy-OsI",
         "types" : [ "locality", "political" ]
      },
      {
         "address_components" : [
            {
               "long_name" : "Lahore",
               "short_name" : "Lahore",
               "types" : [ "administrative_area_level_2", "political" ]
            },
            {
               "long_name" : "Punjab",
               "short_name" : "Punjab",
               "types" : [ "administrative_area_level_1", "political" ]
            },
            {
               "long_name" : "Pakistan",
               "short_name" : "PK",
               "types" : [ "country", "political" ]
            }
         ],
         "formatted_address" : "Lahore, Punjab, Pakistan",
         "geometry" : {
            "bounds" : {
               "northeast" : {
                  "lat" : 31.7326739,
                  "lng" : 74.64111319999999
               },
               "southwest" : {
                  "lat" : 31.2543339,
                  "lng" : 74.0068495
               }
            },
            "location" : {
               "lat" : 31.4312704,
               "lng" : 74.35874729999999
            },
            "location_type" : "APPROXIMATE",
            "viewport" : {
               "northeast" : {
                  "lat" : 31.7326739,
                  "lng" : 74.64111319999999
               },
               "southwest" : {
                  "lat" : 31.2543339,
                  "lng" : 74.0068495
               }
            }
         },
         "place_id" : "ChIJNfyfu-sDGTkRca4X8W4UGb4",
         "types" : [ "administrative_area_level_2", "political" ]
      },
      {
         "address_components" : [
            {
               "long_name" : "Punjab",
               "short_name" : "Punjab",
               "types" : [ "administrative_area_level_1", "political" ]
            },
            {
               "long_name" : "Pakistan",
               "short_name" : "PK",
               "types" : [ "country", "political" ]
            }
         ],
         "formatted_address" : "Punjab, Pakistan",
         "geometry" : {
            "bounds" : {
               "northeast" : {
                  "lat" : 34.0434647,
                  "lng" : 75.3796504
               },
               "southwest" : {
                  "lat" : 27.7056256,
                  "lng" : 69.3288726
               }
            },
            "location" : {
               "lat" : 31.1704063,
               "lng" : 72.70971609999999
            },
            "location_type" : "APPROXIMATE",
            "viewport" : {
               "northeast" : {
                  "lat" : 34.0434647,
                  "lng" : 75.3796504
               },
               "southwest" : {
                  "lat" : 27.7056256,
                  "lng" : 69.3288726
               }
            }
         },
         "place_id" : "ChIJy5pBdImU3zgRoOxO0hgwnjo",
         "types" : [ "administrative_area_level_1", "political" ]
      },
      {
         "address_components" : [
            {
               "long_name" : "Pakistan",
               "short_name" : "PK",
               "types" : [ "country", "political" ]
            }
         ],
         "formatted_address" : "Pakistan",
         "geometry" : {
            "bounds" : {
               "northeast" : {
                  "lat" : 37.0841069,
                  "lng" : 77.1204247
               },
               "southwest" : {
                  "lat" : 23.6344999,
                  "lng" : 60.8729721
               }
            },
            "location" : {
               "lat" : 30.375321,
               "lng" : 69.34511599999999
            },
            "location_type" : "APPROXIMATE",
            "viewport" : {
               "northeast" : {
                  "lat" : 37.0841069,
                  "lng" : 77.1204247
               },
               "southwest" : {
                  "lat" : 23.6344999,
                  "lng" : 60.8729721
               }
            }
         },
         "place_id" : "ChIJH3X9-NJS2zgRXJIU5veht0Y",
         "types" : [ "country", "political" ]
      }
   ],
   "status" : "OK"
}
