{
   "plus_code" : {
      "compound_code" : "2RM4+22G Rangpur Baghoor, Pakistan",
      "global_code" : "8J4H2RM4+22G"
   },
   "results" : [
      {
         "address_components" : [
            {
               "long_name" : "2RM4+22",
               "short_name" : "2RM4+22",
               "types" : [ "plus_code" ]
            },
            {
               "long_name" : "Rangpur Baghoor",
               "short_name" : "Rangpur Baghoor",
               "types" : [ "locality", "political" ]
            },
            {
               "long_name" : "Nurpur",
               "short_name" : "Nurpur",
               "types" : [ "administrative_area_level_3", "political" ]
            },
            {
               "long_name" : "Khushab",
               "short_name" : "Khushab",
               "types" : [ "administrative_area_level_2", "political" ]
            },
            {
               "long_name" : "Punjab",
               "short_name" : "Punjab",
               "types" : [ "administrative_area_level_1", "political" ]
            },
            {
               "long_name" : "Pakistan",
               "short_name" : "PK",
               "types" : [ "country", "political" ]
            }
         ],
         "formatted_address" : "2RM4+22 Rangpur Baghoor, Pakistan",
         "geometry" : {
            "bounds" : {
               "northeast" : {
                  "lat" : 32.032625,
                  "lng" : 71.805125
               },
               "southwest" : {
                  "lat" : 32.0325,
                  "lng" : 71.80499999999999
               }
            },
            "location" : {
               "lat" : 32.0325746,
               "lng" : 71.8050781
            },
            "location_type" : "GEOMETRIC_CENTER",
            "viewport" : {
               "northeast" : {
                  "lat" : 32.03391148029149,
                  "lng" : 71.80641148029152
               },
               "southwest" : {
                  "lat" : 32.0312135197085,
                  "lng" : 71.8037135197085
               }
            }
         },
         "place_id" : "GhIJE9eMZysEQEARdI5LZobzUUA",
         "plus_code" : {
            "compound_code" : "2RM4+22 Rangpur Baghoor, Pakistan",
            "global_code" : "8J4H2RM4+22"
         },
         "types" : [ "plus_code" ]
      },
      {
         "address_components" : [
            {
               "long_name" : "Noor Pur Road",
               "short_name" : "Noor Pur Rd",
               "types" : [ "route" ]
            },
            {
               "long_name" : "Rangpur Baghoor",
               "short_name" : "Rangpur Baghoor",
               "types" : [ "locality", "political" ]
            },
            {
               "long_name" : "Nurpur",
               "short_name" : "Nurpur",
               "types" : [ "administrative_area_level_3", "political" ]
            },
            {
               "long_name" : "Khushab",
               "short_name" : "Khushab",
               "types" : [ "administrative_area_level_2", "political" ]
            },
            {
               "long_name" : "Punjab",
               "short_name" : "Punjab",
               "types" : [ "administrative_area_level_1", "political" ]
            },
            {
               "long_name" : "Pakistan",
               "short_name" : "PK",
               "types" : [ "country", "political" ]
            }
         ],
         "formatted_address" : "Noor Pur Rd, Rangpur Baghoor, Khushab, Punjab, Pakistan",
         "geometry" : {
            "bounds" : {
               "northeast" : {
                  "lat" : 32.0335052,
                  "lng" : 71.80784760000002
               },
               "southwest" : {
                  "lat" : 32.0332506,
                  "lng" : 71.80497769999999
               }
            },
            "location" : {
               "lat" : 32.0333779,
               "lng" : 71.8064127
            },
            "location_type" : "GEOMETRIC_CENTER",
            "viewport" : {
               "northeast" : {
                  "lat" : 32.03472688029149,
                  "lng" : 71.80784760000002
               },
               "southwest" : {
                  "lat" : 32.03202891970849,
                  "lng" : 71.80497769999999
               }
            }
         },
         "place_id" : "ChIJbx8UtCG3JjkRkskFQOKTddg",
         "types" : [ "route" ]
      },
      {
         "address_components" : [
            {
               "long_name" : "2RM4+RJP",
               "short_name" : "2RM4+RJP",
               "types" : [ "plus_code" ]
            },
            {
               "long_name" : "Noor Pur Road",
               "short_name" : "Noor Pur Rd",
               "types" : [ "route" ]
            },
            {
               "long_name" : "Rangpur Baghoor",
               "short_name" : "Rangpur Baghoor",
               "types" : [ "locality", "political" ]
            },
            {
               "long_name" : "Nurpur",
               "short_name" : "Nurpur",
               "types" : [ "administrative_area_level_3", "political" ]
            },
            {
               "long_name" : "Khushab",
               "short_name" : "Khushab",
               "types" : [ "administrative_area_level_2", "political" ]
            },
            {
               "long_name" : "Punjab",
               "short_name" : "Punjab",
               "types" : [ "administrative_area_level_1", "political" ]
            },
            {
               "long_name" : "Pakistan",
               "short_name" : "PK",
               "types" : [ "country", "political" ]
            }
         ],
         "formatted_address" : "2RM4+RJP, Noor Pur Rd, Rangpur Baghoor, Khushab, Punjab, Pakistan",
         "geometry" : {
            "location" : {
               "lat" : 32.0345946,
               "lng" : 71.80659039999999
            },
            "location_type" : "GEOMETRIC_CENTER",
            "viewport" : {
               "northeast" : {
                  "lat" : 32.03594358029149,
                  "lng" : 71.8079393802915
               },
               "southwest" : {
                  "lat" : 32.0332456197085,
                  "lng" : 71.80524141970848
               }
            }
         },
         "place_id" : "ChIJR17eg6e3JjkRc5BOOD8flY0",
         "types" : [ "establishment", "point_of_interest", "school" ]
      },
      {
         "address_components" : [
            {
               "long_name" : "2RJ4+6M8",
               "short_name" : "2RJ4+6M8",
               "types" : [ "plus_code" ]
            },
            {
               "long_name" : "Noor Pur Road",
               "short_name" : "Noor Pur Rd",
               "types" : [ "route" ]
            },
            {
               "long_name" : "Rangpur Baghoor",
               "short_name" : "Rangpur Baghoor",
               "types" : [ "locality", "political" ]
            },
            {
               "long_name" : "Nurpur",
               "short_name" : "Nurpur",
               "types" : [ "administrative_area_level_3", "political" ]
            },
            {
               "long_name" : "Khushab",
               "short_name" : "Khushab",
               "types" : [ "administrative_area_level_2", "political" ]
            },
            {
               "long_name" : "Punjab",
               "short_name" : "Punjab",
               "types" : [ "administrative_area_level_1", "political" ]
            },
            {
               "long_name" : "Pakistan",
               "short_name" : "PK",
               "types" : [ "country", "political" ]
            }
         ],
         "formatted_address" : "2RJ4+6M8, Noor Pur Rd, Rangpur Baghoor, Khushab, Punjab, Pakistan",
         "geometry" : {
            "bounds" : {
               "northeast" : {
                  "lat" : 32.0306427,
                  "lng" : 71.8067453
               },
               "southwest" : {
                  "lat" : 32.0305311,
                  "lng" : 71.8066865
               }
            },
            "location" : {
               "lat" : 32.0305532,
               "lng" : 71.8067174
            },
            "location_type" : "ROOFTOP",
            "viewport" : {
               "northeast" : {
                  "lat" : 32.0319358802915,
                  "lng" : 71.80806488029151
               },
               "southwest" : {
                  "lat" : 32.0292379197085,
                  "lng" : 71.8053669197085
               }
            }
         },
         "place_id" : "ChIJnS70JyG3JjkRSdpIrloHWgc",
         "types" : [ "premise" ]
      },
      {
         "address_components" : [
            {
               "long_name" : "Pabbi Khushab",
               "short_name" : "Pabbi Khushab",
               "types" : [ "locality", "political" ]
            },
            {
               "long_name" : "Nurpur",
               "short_name" : "Nurpur",
               "types" : [ "administrative_area_level_3", "political" ]
            },
            {
               "long_name" : "Khushab",
               "short_name" : "Khushab",
               "types" : [ "administrative_area_level_2", "political" ]
            },
            {
               "long_name" : "Punjab",
               "short_name" : "Punjab",
               "types" : [ "administrative_area_level_1", "political" ]
            },
            {
               "long_name" : "Pakistan",
               "short_name" : "PK",
               "types" : [ "country", "political" ]
            }
         ],
         "formatted_address" : "Pabbi Khushab, Khushab, Punjab, Pakistan",
         "geometry" : {
            "bounds" : {
               "northeast" : {
                  "lat" : 32.0376997,
                  "lng" : 71.811706
               },
               "southwest" : {
                  "lat" : 32.0297907,
                  "lng" : 71.79969369999999
               }
            },
            "location" : {
               "lat" : 32.0337359,
               "lng" : 71.80524640000002
            },
            "location_type" : "APPROXIMATE",
            "viewport" : {
               "northeast" : {
                  "lat" : 32.0376997,
                  "lng" : 71.811706
               },
               "southwest" : {
                  "lat" : 32.0297907,
                  "lng" : 71.79969369999999
               }
            }
         },
         "place_id" : "ChIJsba9uCG3JjkRqQUNZaHiqbs",
         "types" : [ "locality", "political" ]
      },
      {
         "address_components" : [
            {
               "long_name" : "Rangpur",
               "short_name" : "Rangpur",
               "types" : [ "administrative_area_level_5", "political" ]
            },
            {
               "long_name" : "Nurpur",
               "short_name" : "Nurpur",
               "types" : [ "administrative_area_level_3", "political" ]
            },
            {
               "long_name" : "Khushab",
               "short_name" : "Khushab",
               "types" : [ "administrative_area_level_2", "political" ]
            },
            {
               "long_name" : "Punjab",
               "short_name" : "Punjab",
               "types" : [ "administrative_area_level_1", "political" ]
            },
            {
               "long_name" : "Pakistan",
               "short_name" : "PK",
               "types" : [ "country", "political" ]
            }
         ],
         "formatted_address" : "Rangpur, Khushab, Punjab, Pakistan",
         "geometry" : {
            "bounds" : {
               "northeast" : {
                  "lat" : 32.0988599,
                  "lng" : 71.92750749999999
               },
               "southwest" : {
                  "lat" : 31.9721704,
                  "lng" : 71.7416489
               }
            },
            "location" : {
               "lat" : 32.0392686,
               "lng" : 71.8334145
            },
            "location_type" : "APPROXIMATE",
            "viewport" : {
               "northeast" : {
                  "lat" : 32.0988599,
                  "lng" : 71.92750749999999
               },
               "southwest" : {
                  "lat" : 31.9721704,
                  "lng" : 71.7416489
               }
            }
         },
         "place_id" : "ChIJIwvOa7-2JjkRdfhsaU8xzVo",
         "types" : [ "administrative_area_level_5", "political" ]
      },
      {
         "address_components" : [
            {
               "long_name" : "Nurpur",
               "short_name" : "Nurpur",
               "types" : [ "administrative_area_level_3", "political" ]
            },
            {
               "long_name" : "Khushab",
               "short_name" : "Khushab",
               "types" : [ "administrative_area_level_2", "political" ]
            },
            {
               "long_name" : "Punjab",
               "short_name" : "Punjab",
               "types" : [ "administrative_area_level_1", "political" ]
            },
            {
               "long_name" : "Pakistan",
               "short_name" : "PK",
               "types" : [ "country", "political" ]
            }
         ],
         "formatted_address" : "Nurpur, Khushab, Punjab, Pakistan",
         "geometry" : {
            "bounds" : {
               "northeast" : {
                  "lat" : 32.2134421,
                  "lng" : 72.28814199999999
               },
               "southwest" : {
                  "lat" : 31.5302101,
                  "lng" : 71.62501139999999
               }
            },
            "location" : {
               "lat" : 31.84487399999999,
               "lng" : 71.8571331
            },
            "location_type" : "APPROXIMATE",
            "viewport" : {
               "northeast" : {
                  "lat" : 32.2134421,
                  "lng" : 72.28814199999999
               },
               "southwest" : {
                  "lat" : 31.5302101,
                  "lng" : 71.62501139999999
               }
            }
         },
         "place_id" : "ChIJG3IowE1TITkRolpo_M8cxgo",
         "types" : [ "administrative_area_level_3", "political" ]
      },
      {
         "address_components" : [
            {
               "long_name" : "Khushab",
               "short_name" : "Khushab",
               "types" : [ "administrative_area_level_2", "political" ]
            },
            {
               "long_name" : "Punjab",
               "short_name" : "Punjab",
               "types" : [ "administrative_area_level_1", "political" ]
            },
            {
               "long_name" : "Pakistan",
               "short_name" : "PK",
               "types" : [ "country", "political" ]
            }
         ],
         "formatted_address" : "Khushab, Punjab, Pakistan",
         "geometry" : {
            "bounds" : {
               "northeast" : {
                  "lat" : 32.7130681,
                  "lng" : 72.6641959
               },
               "southwest" : {
                  "lat" : 31.5302101,
                  "lng" : 71.62501139999999
               }
            },
            "location" : {
               "lat" : 32.3259122,
               "lng" : 72.14161319999999
            },
            "location_type" : "APPROXIMATE",
            "viewport" : {
               "northeast" : {
                  "lat" : 32.7130681,
                  "lng" : 72.6641959
               },
               "southwest" : {
                  "lat" : 31.5302101,
                  "lng" : 71.62501139999999
               }
            }
         },
         "place_id" : "ChIJLxN-009IITkRkCg_bdeC5GU",
         "types" : [ "administrative_area_level_2", "political" ]
      },
      {
         "address_components" : [
            {
               "long_name" : "Punjab",
               "short_name" : "Punjab",
               "types" : [ "administrative_area_level_1", "political" ]
            },
            {
               "long_name" : "Pakistan",
               "short_name" : "PK",
               "types" : [ "country", "political" ]
            }
         ],
         "formatted_address" : "Punjab, Pakistan",
         "geometry" : {
            "bounds" : {
               "northeast" : {
                  "lat" : 34.0434647,
                  "lng" : 75.3796504
               },
               "southwest" : {
                  "lat" : 27.7056256,
                  "lng" : 69.3288726
               }
            },
            "location" : {
               "lat" : 31.1704063,
               "lng" : 72.70971609999999
            },
            "location_type" : "APPROXIMATE",
            "viewport" : {
               "northeast" : {
                  "lat" : 34.0434647,
                  "lng" : 75.3796504
               },
               "southwest" : {
                  "lat" : 27.7056256,
                  "lng" : 69.3288726
               }
            }
         },
         "place_id" : "ChIJy5pBdImU3zgRoOxO0hgwnjo",
         "types" : [ "administrative_area_level_1", "political" ]
      },
      {
         "address_components" : [
            {
               "long_name" : "Pakistan",
               "short_name" : "PK",
               "types" : [ "country", "political" ]
            }
         ],
         "formatted_address" : "Pakistan",
         "geometry" : {
            "bounds" : {
               "northeast" : {
                  "lat" : 37.0841069,
                  "lng" : 77.1204247
               },
               "southwest" : {
                  "lat" : 23.6344999,
                  "lng" : 60.8729721
               }
            },
            "location" : {
               "lat" : 30.375321,
               "lng" : 69.34511599999999
            },
            "location_type" : "APPROXIMATE",
            "viewport" : {
               "northeast" : {
                  "lat" : 37.0841069,
                  "lng" : 77.1204247
               },
               "southwest" : {
                  "lat" : 23.6344999,
                  "lng" : 60.8729721
               }
            }
         },
         "place_id" : "ChIJH3X9-NJS2zgRXJIU5veht0Y",
         "types" : [ "country", "political" ]
      }
   ],
   "status" : "OK"
}
