{
   "plus_code" : {
      "compound_code" : "X8V8+22G Lakhiwal, Pakistan",
      "global_code" : "8J3JX8V8+22G"
   },
   "results" : [
      {
         "address_components" : [
            {
               "long_name" : "X8V8+22",
               "short_name" : "X8V8+22",
               "types" : [ "plus_code" ]
            },
            {
               "long_name" : "Lakhiwal",
               "short_name" : "Lakhiwal",
               "types" : [ "locality", "political" ]
            },
            {
               "long_name" : "Sahiwal (Sardogha)",
               "short_name" : "Sahiwal (Sardogha)",
               "types" : [ "administrative_area_level_3", "political" ]
            },
            {
               "long_name" : "Sargodha",
               "short_name" : "Sargodha",
               "types" : [ "administrative_area_level_2", "political" ]
            },
            {
               "long_name" : "Punjab",
               "short_name" : "Punjab",
               "types" : [ "administrative_area_level_1", "political" ]
            },
            {
               "long_name" : "Pakistan",
               "short_name" : "PK",
               "types" : [ "country", "political" ]
            }
         ],
         "formatted_address" : "X8V8+22 Lakhiwal, Pakistan",
         "geometry" : {
            "bounds" : {
               "northeast" : {
                  "lat" : 31.992625,
                  "lng" : 72.31512499999999
               },
               "southwest" : {
                  "lat" : 31.9925,
                  "lng" : 72.315
               }
            },
            "location" : {
               "lat" : 31.9925746,
               "lng" : 72.31507809999999
            },
            "location_type" : "GEOMETRIC_CENTER",
            "viewport" : {
               "northeast" : {
                  "lat" : 31.9939114802915,
                  "lng" : 72.31641148029149
               },
               "southwest" : {
                  "lat" : 31.9912135197085,
                  "lng" : 72.31371351970849
               }
            }
         },
         "place_id" : "GhIJHdd1Xhn-P0AR5MtVPSoUUkA",
         "plus_code" : {
            "compound_code" : "X8V8+22 Lakhiwal, Pakistan",
            "global_code" : "8J3JX8V8+22"
         },
         "types" : [ "plus_code" ]
      },
      {
         "address_components" : [
            {
               "long_name" : "Sahiwal - Dhool Kadhi Road",
               "short_name" : "Sahiwal - Dhool Kadhi Road",
               "types" : [ "route" ]
            },
            {
               "long_name" : "Dhool Kadhi",
               "short_name" : "Dhool Kadhi",
               "types" : [ "locality", "political" ]
            },
            {
               "long_name" : "Sahiwal (Sardogha)",
               "short_name" : "Sahiwal (Sardogha)",
               "types" : [ "administrative_area_level_3", "political" ]
            },
            {
               "long_name" : "Sargodha",
               "short_name" : "Sargodha",
               "types" : [ "administrative_area_level_2", "political" ]
            },
            {
               "long_name" : "Punjab",
               "short_name" : "Punjab",
               "types" : [ "administrative_area_level_1", "political" ]
            },
            {
               "long_name" : "Pakistan",
               "short_name" : "PK",
               "types" : [ "country", "political" ]
            }
         ],
         "formatted_address" : "Sahiwal - Dhool Kadhi Road, Dhool Kadhi, Sargodha, Punjab, Pakistan",
         "geometry" : {
            "bounds" : {
               "northeast" : {
                  "lat" : 31.9959581,
                  "lng" : 72.31480979999999
               },
               "southwest" : {
                  "lat" : 31.9878918,
                  "lng" : 72.3093088
               }
            },
            "location" : {
               "lat" : 31.9919461,
               "lng" : 72.3121062
            },
            "location_type" : "GEOMETRIC_CENTER",
            "viewport" : {
               "northeast" : {
                  "lat" : 31.9959581,
                  "lng" : 72.31480979999999
               },
               "southwest" : {
                  "lat" : 31.9878918,
                  "lng" : 72.3093088
               }
            }
         },
         "place_id" : "ChIJRZH7UE9dITkRDgVQbx_gaOo",
         "types" : [ "route" ]
      },
      {
         "address_components" : [
            {
               "long_name" : "Sabowal",
               "short_name" : "Sabowal",
               "types" : [ "administrative_area_level_5", "political" ]
            },
            {
               "long_name" : "Sargodha",
               "short_name" : "Sargodha",
               "types" : [ "administrative_area_level_2", "political" ]
            },
            {
               "long_name" : "Punjab",
               "short_name" : "Punjab",
               "types" : [ "administrative_area_level_1", "political" ]
            },
            {
               "long_name" : "Pakistan",
               "short_name" : "PK",
               "types" : [ "country", "political" ]
            }
         ],
         "formatted_address" : "Sabowal, Sargodha, Punjab, Pakistan",
         "geometry" : {
            "bounds" : {
               "northeast" : {
                  "lat" : 32.0742269,
                  "lng" : 72.3520879
               },
               "southwest" : {
                  "lat" : 31.9846665,
                  "lng" : 72.27488129999999
               }
            },
            "location" : {
               "lat" : 32.0109655,
               "lng" : 72.319273
            },
            "location_type" : "APPROXIMATE",
            "viewport" : {
               "northeast" : {
                  "lat" : 32.0742269,
                  "lng" : 72.3520879
               },
               "southwest" : {
                  "lat" : 31.9846665,
                  "lng" : 72.27488129999999
               }
            }
         },
         "place_id" : "ChIJ9-06gJFCITkRUz3lvQGmE4w",
         "types" : [ "administrative_area_level_5", "political" ]
      },
      {
         "address_components" : [
            {
               "long_name" : "Sahiwal (Sardogha)",
               "short_name" : "Sahiwal (Sardogha)",
               "types" : [ "administrative_area_level_3", "political" ]
            },
            {
               "long_name" : "Sargodha",
               "short_name" : "Sargodha",
               "types" : [ "administrative_area_level_2", "political" ]
            },
            {
               "long_name" : "Punjab",
               "short_name" : "Punjab",
               "types" : [ "administrative_area_level_1", "political" ]
            },
            {
               "long_name" : "Pakistan",
               "short_name" : "PK",
               "types" : [ "country", "political" ]
            }
         ],
         "formatted_address" : "Sahiwal (Sardogha), Sargodha, Punjab, Pakistan",
         "geometry" : {
            "bounds" : {
               "northeast" : {
                  "lat" : 32.0559859,
                  "lng" : 72.5619361
               },
               "southwest" : {
                  "lat" : 31.70946499999999,
                  "lng" : 72.21704679999999
               }
            },
            "location" : {
               "lat" : 31.8762345,
               "lng" : 72.37846789999999
            },
            "location_type" : "APPROXIMATE",
            "viewport" : {
               "northeast" : {
                  "lat" : 32.0559859,
                  "lng" : 72.5619361
               },
               "southwest" : {
                  "lat" : 31.70946499999999,
                  "lng" : 72.21704679999999
               }
            }
         },
         "place_id" : "ChIJZ2aUDwZhITkRcdXKna13vVE",
         "types" : [ "administrative_area_level_3", "political" ]
      },
      {
         "address_components" : [
            {
               "long_name" : "Sargodha",
               "short_name" : "Sargodha",
               "types" : [ "administrative_area_level_2", "political" ]
            },
            {
               "long_name" : "Punjab",
               "short_name" : "Punjab",
               "types" : [ "administrative_area_level_1", "political" ]
            },
            {
               "long_name" : "Pakistan",
               "short_name" : "PK",
               "types" : [ "country", "political" ]
            }
         ],
         "formatted_address" : "Sargodha, Punjab, Pakistan",
         "geometry" : {
            "bounds" : {
               "northeast" : {
                  "lat" : 32.5712785,
                  "lng" : 73.31019239999999
               },
               "southwest" : {
                  "lat" : 31.5566249,
                  "lng" : 72.21704679999999
               }
            },
            "location" : {
               "lat" : 32.156592,
               "lng" : 72.8042797
            },
            "location_type" : "APPROXIMATE",
            "viewport" : {
               "northeast" : {
                  "lat" : 32.5712785,
                  "lng" : 73.31019239999999
               },
               "southwest" : {
                  "lat" : 31.5566249,
                  "lng" : 72.21704679999999
               }
            }
         },
         "place_id" : "ChIJ0S6JJZadITkRmlmemFkTNjk",
         "types" : [ "administrative_area_level_2", "political" ]
      },
      {
         "address_components" : [
            {
               "long_name" : "Punjab",
               "short_name" : "Punjab",
               "types" : [ "administrative_area_level_1", "political" ]
            },
            {
               "long_name" : "Pakistan",
               "short_name" : "PK",
               "types" : [ "country", "political" ]
            }
         ],
         "formatted_address" : "Punjab, Pakistan",
         "geometry" : {
            "bounds" : {
               "northeast" : {
                  "lat" : 34.0434647,
                  "lng" : 75.3796504
               },
               "southwest" : {
                  "lat" : 27.7056256,
                  "lng" : 69.3288726
               }
            },
            "location" : {
               "lat" : 31.1704063,
               "lng" : 72.70971609999999
            },
            "location_type" : "APPROXIMATE",
            "viewport" : {
               "northeast" : {
                  "lat" : 34.0434647,
                  "lng" : 75.3796504
               },
               "southwest" : {
                  "lat" : 27.7056256,
                  "lng" : 69.3288726
               }
            }
         },
         "place_id" : "ChIJy5pBdImU3zgRoOxO0hgwnjo",
         "types" : [ "administrative_area_level_1", "political" ]
      },
      {
         "address_components" : [
            {
               "long_name" : "Pakistan",
               "short_name" : "PK",
               "types" : [ "country", "political" ]
            }
         ],
         "formatted_address" : "Pakistan",
         "geometry" : {
            "bounds" : {
               "northeast" : {
                  "lat" : 37.0841069,
                  "lng" : 77.1204247
               },
               "southwest" : {
                  "lat" : 23.6344999,
                  "lng" : 60.8729721
               }
            },
            "location" : {
               "lat" : 30.375321,
               "lng" : 69.34511599999999
            },
            "location_type" : "APPROXIMATE",
            "viewport" : {
               "northeast" : {
                  "lat" : 37.0841069,
                  "lng" : 77.1204247
               },
               "southwest" : {
                  "lat" : 23.6344999,
                  "lng" : 60.8729721
               }
            }
         },
         "place_id" : "ChIJH3X9-NJS2zgRXJIU5veht0Y",
         "types" : [ "country", "political" ]
      }
   ],
   "status" : "OK"
}
