{
   "plus_code" : {
      "compound_code" : "6VXV+5R2 Chhab, Pakistan",
      "global_code" : "8J5H6VXV+5R2"
   },
   "results" : [
      {
         "address_components" : [
            {
               "long_name" : "6VXV+5R",
               "short_name" : "6VXV+5R",
               "types" : [ "plus_code" ]
            },
            {
               "long_name" : "Chhab",
               "short_name" : "Chhab",
               "types" : [ "locality", "political" ]
            },
            {
               "long_name" : "Jand",
               "short_name" : "Jand",
               "types" : [ "administrative_area_level_3", "political" ]
            },
            {
               "long_name" : "Attock",
               "short_name" : "Attock",
               "types" : [ "administrative_area_level_2", "political" ]
            },
            {
               "long_name" : "Punjab",
               "short_name" : "Punjab",
               "types" : [ "administrative_area_level_1", "political" ]
            },
            {
               "long_name" : "Pakistan",
               "short_name" : "PK",
               "types" : [ "country", "political" ]
            }
         ],
         "formatted_address" : "6VXV+5R Chhab, Pakistan",
         "geometry" : {
            "bounds" : {
               "northeast" : {
                  "lat" : 33.248,
                  "lng" : 71.89462499999999
               },
               "southwest" : {
                  "lat" : 33.247875,
                  "lng" : 71.89450000000001
               }
            },
            "location" : {
               "lat" : 33.2478759,
               "lng" : 71.8945312
            },
            "location_type" : "GEOMETRIC_CENTER",
            "viewport" : {
               "northeast" : {
                  "lat" : 33.2492864802915,
                  "lng" : 71.8959114802915
               },
               "southwest" : {
                  "lat" : 33.2465885197085,
                  "lng" : 71.89321351970848
               }
            }
         },
         "place_id" : "GhIJuPvBZbqfQEARG1DK_z_5UUA",
         "plus_code" : {
            "compound_code" : "6VXV+5R Chhab, Pakistan",
            "global_code" : "8J5H6VXV+5R"
         },
         "types" : [ "plus_code" ]
      },
      {
         "address_components" : [
            {
               "long_name" : "Unnamed Road",
               "short_name" : "Unnamed Road",
               "types" : [ "route" ]
            },
            {
               "long_name" : "Chhab",
               "short_name" : "Chhab",
               "types" : [ "locality", "political" ]
            },
            {
               "long_name" : "Jand",
               "short_name" : "Jand",
               "types" : [ "administrative_area_level_3", "political" ]
            },
            {
               "long_name" : "Attock",
               "short_name" : "Attock",
               "types" : [ "administrative_area_level_2", "political" ]
            },
            {
               "long_name" : "Punjab",
               "short_name" : "Punjab",
               "types" : [ "administrative_area_level_1", "political" ]
            },
            {
               "long_name" : "Pakistan",
               "short_name" : "PK",
               "types" : [ "country", "political" ]
            }
         ],
         "formatted_address" : "Unnamed Road, Chhab, Attock, Punjab, Pakistan",
         "geometry" : {
            "bounds" : {
               "northeast" : {
                  "lat" : 33.2459473,
                  "lng" : 71.895702
               },
               "southwest" : {
                  "lat" : 33.2458065,
                  "lng" : 71.8947338
               }
            },
            "location" : {
               "lat" : 33.2458769,
               "lng" : 71.89521789999999
            },
            "location_type" : "GEOMETRIC_CENTER",
            "viewport" : {
               "northeast" : {
                  "lat" : 33.2472258802915,
                  "lng" : 71.89656688029152
               },
               "southwest" : {
                  "lat" : 33.2445279197085,
                  "lng" : 71.8938689197085
               }
            }
         },
         "place_id" : "ChIJx_lCZ4ar2DgRgpjeEKUScVw",
         "types" : [ "route" ]
      },
      {
         "address_components" : [
            {
               "long_name" : "Chhab Village",
               "short_name" : "Chhab Village",
               "types" : [ "locality", "political" ]
            },
            {
               "long_name" : "Jand",
               "short_name" : "Jand",
               "types" : [ "administrative_area_level_3", "political" ]
            },
            {
               "long_name" : "Attock",
               "short_name" : "Attock",
               "types" : [ "administrative_area_level_2", "political" ]
            },
            {
               "long_name" : "Punjab",
               "short_name" : "Punjab",
               "types" : [ "administrative_area_level_1", "political" ]
            },
            {
               "long_name" : "Pakistan",
               "short_name" : "PK",
               "types" : [ "country", "political" ]
            }
         ],
         "formatted_address" : "Chhab Village, Attock, Punjab, Pakistan",
         "geometry" : {
            "bounds" : {
               "northeast" : {
                  "lat" : 33.2487276,
                  "lng" : 71.9057213
               },
               "southwest" : {
                  "lat" : 33.22891,
                  "lng" : 71.8853676
               }
            },
            "location" : {
               "lat" : 33.2364933,
               "lng" : 71.89567199999999
            },
            "location_type" : "APPROXIMATE",
            "viewport" : {
               "northeast" : {
                  "lat" : 33.2487276,
                  "lng" : 71.9057213
               },
               "southwest" : {
                  "lat" : 33.22891,
                  "lng" : 71.8853676
               }
            }
         },
         "place_id" : "ChIJ3f9w1pqr2DgR7FpLicbYUb4",
         "types" : [ "locality", "political" ]
      },
      {
         "address_components" : [
            {
               "long_name" : "Chhab",
               "short_name" : "Chhab",
               "types" : [ "locality", "political" ]
            },
            {
               "long_name" : "Jand",
               "short_name" : "Jand",
               "types" : [ "administrative_area_level_3", "political" ]
            },
            {
               "long_name" : "Attock",
               "short_name" : "Attock",
               "types" : [ "administrative_area_level_2", "political" ]
            },
            {
               "long_name" : "Punjab",
               "short_name" : "Punjab",
               "types" : [ "administrative_area_level_1", "political" ]
            },
            {
               "long_name" : "Pakistan",
               "short_name" : "PK",
               "types" : [ "country", "political" ]
            }
         ],
         "formatted_address" : "Chhab, Attock, Punjab, Pakistan",
         "geometry" : {
            "bounds" : {
               "northeast" : {
                  "lat" : 33.249168,
                  "lng" : 71.91152559999999
               },
               "southwest" : {
                  "lat" : 33.2302161,
                  "lng" : 71.88732159999999
               }
            },
            "location" : {
               "lat" : 33.2373817,
               "lng" : 71.90160059999999
            },
            "location_type" : "APPROXIMATE",
            "viewport" : {
               "northeast" : {
                  "lat" : 33.249168,
                  "lng" : 71.91152559999999
               },
               "southwest" : {
                  "lat" : 33.2302161,
                  "lng" : 71.88732159999999
               }
            }
         },
         "place_id" : "ChIJ18qispyr2DgRBfBp4-pweKw",
         "types" : [ "locality", "political" ]
      },
      {
         "address_components" : [
            {
               "long_name" : "Trop",
               "short_name" : "Trop",
               "types" : [ "administrative_area_level_5", "political" ]
            },
            {
               "long_name" : "Attock",
               "short_name" : "Attock",
               "types" : [ "administrative_area_level_2", "political" ]
            },
            {
               "long_name" : "Punjab",
               "short_name" : "Punjab",
               "types" : [ "administrative_area_level_1", "political" ]
            },
            {
               "long_name" : "Pakistan",
               "short_name" : "PK",
               "types" : [ "country", "political" ]
            }
         ],
         "formatted_address" : "Trop, Attock, Punjab, Pakistan",
         "geometry" : {
            "bounds" : {
               "northeast" : {
                  "lat" : 33.3459215,
                  "lng" : 72.02267189999999
               },
               "southwest" : {
                  "lat" : 33.0582758,
                  "lng" : 71.82935429999999
               }
            },
            "location" : {
               "lat" : 33.1897639,
               "lng" : 71.9282781
            },
            "location_type" : "APPROXIMATE",
            "viewport" : {
               "northeast" : {
                  "lat" : 33.3459215,
                  "lng" : 72.02267189999999
               },
               "southwest" : {
                  "lat" : 33.0582758,
                  "lng" : 71.82935429999999
               }
            }
         },
         "place_id" : "ChIJ_xuasOeq2DgRnZp4bNOy4vg",
         "types" : [ "administrative_area_level_5", "political" ]
      },
      {
         "address_components" : [
            {
               "long_name" : "Jand",
               "short_name" : "Jand",
               "types" : [ "administrative_area_level_3", "political" ]
            },
            {
               "long_name" : "Attock",
               "short_name" : "Attock",
               "types" : [ "administrative_area_level_2", "political" ]
            },
            {
               "long_name" : "Punjab",
               "short_name" : "Punjab",
               "types" : [ "administrative_area_level_1", "political" ]
            },
            {
               "long_name" : "Pakistan",
               "short_name" : "PK",
               "types" : [ "country", "political" ]
            }
         ],
         "formatted_address" : "Jand, Attock, Punjab, Pakistan",
         "geometry" : {
            "bounds" : {
               "northeast" : {
                  "lat" : 33.7179121,
                  "lng" : 72.4549651
               },
               "southwest" : {
                  "lat" : 33.0125789,
                  "lng" : 71.7094
               }
            },
            "location" : {
               "lat" : 33.2442862,
               "lng" : 71.8571331
            },
            "location_type" : "APPROXIMATE",
            "viewport" : {
               "northeast" : {
                  "lat" : 33.7179121,
                  "lng" : 72.4549651
               },
               "southwest" : {
                  "lat" : 33.0125789,
                  "lng" : 71.7094
               }
            }
         },
         "place_id" : "ChIJFTRT_CdO3zgRNI_scYylABU",
         "types" : [ "administrative_area_level_3", "political" ]
      },
      {
         "address_components" : [
            {
               "long_name" : "Attock",
               "short_name" : "Attock",
               "types" : [ "administrative_area_level_2", "political" ]
            },
            {
               "long_name" : "Punjab",
               "short_name" : "Punjab",
               "types" : [ "administrative_area_level_1", "political" ]
            },
            {
               "long_name" : "Pakistan",
               "short_name" : "PK",
               "types" : [ "country", "political" ]
            }
         ],
         "formatted_address" : "Attock, Punjab, Pakistan",
         "geometry" : {
            "bounds" : {
               "northeast" : {
                  "lat" : 34.0036649,
                  "lng" : 72.9316305
               },
               "southwest" : {
                  "lat" : 33.0125789,
                  "lng" : 71.70939990000001
               }
            },
            "location" : {
               "lat" : 33.4743993,
               "lng" : 72.236379
            },
            "location_type" : "APPROXIMATE",
            "viewport" : {
               "northeast" : {
                  "lat" : 34.0036649,
                  "lng" : 72.9316305
               },
               "southwest" : {
                  "lat" : 33.0125789,
                  "lng" : 71.70939990000001
               }
            }
         },
         "place_id" : "ChIJt74KC7tB3zgRSBkITdRMA1k",
         "types" : [ "administrative_area_level_2", "political" ]
      },
      {
         "address_components" : [
            {
               "long_name" : "Punjab",
               "short_name" : "Punjab",
               "types" : [ "administrative_area_level_1", "political" ]
            },
            {
               "long_name" : "Pakistan",
               "short_name" : "PK",
               "types" : [ "country", "political" ]
            }
         ],
         "formatted_address" : "Punjab, Pakistan",
         "geometry" : {
            "bounds" : {
               "northeast" : {
                  "lat" : 34.0434647,
                  "lng" : 75.3796504
               },
               "southwest" : {
                  "lat" : 27.7056256,
                  "lng" : 69.3288726
               }
            },
            "location" : {
               "lat" : 31.1704063,
               "lng" : 72.70971609999999
            },
            "location_type" : "APPROXIMATE",
            "viewport" : {
               "northeast" : {
                  "lat" : 34.0434647,
                  "lng" : 75.3796504
               },
               "southwest" : {
                  "lat" : 27.7056256,
                  "lng" : 69.3288726
               }
            }
         },
         "place_id" : "ChIJy5pBdImU3zgRoOxO0hgwnjo",
         "types" : [ "administrative_area_level_1", "political" ]
      },
      {
         "address_components" : [
            {
               "long_name" : "Pakistan",
               "short_name" : "PK",
               "types" : [ "country", "political" ]
            }
         ],
         "formatted_address" : "Pakistan",
         "geometry" : {
            "bounds" : {
               "northeast" : {
                  "lat" : 37.0841069,
                  "lng" : 77.1204247
               },
               "southwest" : {
                  "lat" : 23.6344999,
                  "lng" : 60.8729721
               }
            },
            "location" : {
               "lat" : 30.375321,
               "lng" : 69.34511599999999
            },
            "location_type" : "APPROXIMATE",
            "viewport" : {
               "northeast" : {
                  "lat" : 37.0841069,
                  "lng" : 77.1204247
               },
               "southwest" : {
                  "lat" : 23.6344999,
                  "lng" : 60.8729721
               }
            }
         },
         "place_id" : "ChIJH3X9-NJS2zgRXJIU5veht0Y",
         "types" : [ "country", "political" ]
      }
   ],
   "status" : "OK"
}
