{
   "plus_code" : {
      "compound_code" : "XJ38+22G Chak No 121 SB, Pakistan",
      "global_code" : "8J3JXJ38+22G"
   },
   "results" : [
      {
         "address_components" : [
            {
               "long_name" : "XJ38+22",
               "short_name" : "XJ38+22",
               "types" : [ "plus_code" ]
            },
            {
               "long_name" : "Chak No 121 SB",
               "short_name" : "Chak No 121 SB",
               "types" : [ "locality", "political" ]
            },
            {
               "long_name" : "Sillanwali",
               "short_name" : "Sillanwali",
               "types" : [ "administrative_area_level_3", "political" ]
            },
            {
               "long_name" : "Sargodha",
               "short_name" : "Sargodha",
               "types" : [ "administrative_area_level_2", "political" ]
            },
            {
               "long_name" : "Punjab",
               "short_name" : "Punjab",
               "types" : [ "administrative_area_level_1", "political" ]
            },
            {
               "long_name" : "Pakistan",
               "short_name" : "PK",
               "types" : [ "country", "political" ]
            }
         ],
         "formatted_address" : "XJ38+22 Chak No 121 SB, Pakistan",
         "geometry" : {
            "bounds" : {
               "northeast" : {
                  "lat" : 31.95262499999999,
                  "lng" : 72.61512499999999
               },
               "southwest" : {
                  "lat" : 31.9525,
                  "lng" : 72.61499999999999
               }
            },
            "location" : {
               "lat" : 31.9525746,
               "lng" : 72.61507809999999
            },
            "location_type" : "GEOMETRIC_CENTER",
            "viewport" : {
               "northeast" : {
                  "lat" : 31.9539114802915,
                  "lng" : 72.6164114802915
               },
               "southwest" : {
                  "lat" : 31.9512135197085,
                  "lng" : 72.61371351970848
               }
            }
         },
         "place_id" : "GhIJEgDS7dvzP0ARF_-IcF0nUkA",
         "plus_code" : {
            "compound_code" : "XJ38+22 Chak No 121 SB, Pakistan",
            "global_code" : "8J3JXJ38+22"
         },
         "types" : [ "plus_code" ]
      },
      {
         "address_components" : [
            {
               "long_name" : "Unnamed Road",
               "short_name" : "Unnamed Road",
               "types" : [ "route" ]
            },
            {
               "long_name" : "Sillanwali",
               "short_name" : "Sillanwali",
               "types" : [ "administrative_area_level_3", "political" ]
            },
            {
               "long_name" : "Sargodha",
               "short_name" : "Sargodha",
               "types" : [ "administrative_area_level_2", "political" ]
            },
            {
               "long_name" : "Punjab",
               "short_name" : "Punjab",
               "types" : [ "administrative_area_level_1", "political" ]
            },
            {
               "long_name" : "Pakistan",
               "short_name" : "PK",
               "types" : [ "country", "political" ]
            }
         ],
         "formatted_address" : "Unnamed Road, Sargodha, Punjab, Pakistan",
         "geometry" : {
            "bounds" : {
               "northeast" : {
                  "lat" : 31.9531147,
                  "lng" : 72.61549479999999
               },
               "southwest" : {
                  "lat" : 31.9520073,
                  "lng" : 72.6135228
               }
            },
            "location" : {
               "lat" : 31.9526178,
               "lng" : 72.61453829999999
            },
            "location_type" : "GEOMETRIC_CENTER",
            "viewport" : {
               "northeast" : {
                  "lat" : 31.9539099802915,
                  "lng" : 72.61585778029151
               },
               "southwest" : {
                  "lat" : 31.9512120197085,
                  "lng" : 72.61315981970849
               }
            }
         },
         "place_id" : "ChIJK971EwB8ITkROgP-13tMVfM",
         "types" : [ "route" ]
      },
      {
         "address_components" : [
            {
               "long_name" : "Chak 104 SB",
               "short_name" : "Chak 104 SB",
               "types" : [ "administrative_area_level_5", "political" ]
            },
            {
               "long_name" : "Sargodha",
               "short_name" : "Sargodha",
               "types" : [ "administrative_area_level_2", "political" ]
            },
            {
               "long_name" : "Punjab",
               "short_name" : "Punjab",
               "types" : [ "administrative_area_level_1", "political" ]
            },
            {
               "long_name" : "Pakistan",
               "short_name" : "PK",
               "types" : [ "country", "political" ]
            }
         ],
         "formatted_address" : "Chak 104 SB, Sargodha, Punjab, Pakistan",
         "geometry" : {
            "bounds" : {
               "northeast" : {
                  "lat" : 31.9924188,
                  "lng" : 72.6248573
               },
               "southwest" : {
                  "lat" : 31.906537,
                  "lng" : 72.5246087
               }
            },
            "location" : {
               "lat" : 31.9377995,
               "lng" : 72.5796331
            },
            "location_type" : "APPROXIMATE",
            "viewport" : {
               "northeast" : {
                  "lat" : 31.9924188,
                  "lng" : 72.6248573
               },
               "southwest" : {
                  "lat" : 31.906537,
                  "lng" : 72.5246087
               }
            }
         },
         "place_id" : "ChIJ-YJnR4d7ITkR_firYDGyFBs",
         "types" : [ "administrative_area_level_5", "political" ]
      },
      {
         "address_components" : [
            {
               "long_name" : "Sillanwali",
               "short_name" : "Sillanwali",
               "types" : [ "administrative_area_level_3", "political" ]
            },
            {
               "long_name" : "Sargodha",
               "short_name" : "Sargodha",
               "types" : [ "administrative_area_level_2", "political" ]
            },
            {
               "long_name" : "Punjab",
               "short_name" : "Punjab",
               "types" : [ "administrative_area_level_1", "political" ]
            },
            {
               "long_name" : "Pakistan",
               "short_name" : "PK",
               "types" : [ "country", "political" ]
            }
         ],
         "formatted_address" : "Sillanwali, Sargodha, Punjab, Pakistan",
         "geometry" : {
            "bounds" : {
               "northeast" : {
                  "lat" : 31.9683651,
                  "lng" : 72.76137179999999
               },
               "southwest" : {
                  "lat" : 31.5566251,
                  "lng" : 72.2457739
               }
            },
            "location" : {
               "lat" : 31.7893998,
               "lng" : 72.5441445
            },
            "location_type" : "APPROXIMATE",
            "viewport" : {
               "northeast" : {
                  "lat" : 31.9683651,
                  "lng" : 72.76137179999999
               },
               "southwest" : {
                  "lat" : 31.5566251,
                  "lng" : 72.2457739
               }
            }
         },
         "place_id" : "ChIJHUC2EfbZIzkR5MStrq6VSMo",
         "types" : [ "administrative_area_level_3", "political" ]
      },
      {
         "address_components" : [
            {
               "long_name" : "Sargodha",
               "short_name" : "Sargodha",
               "types" : [ "administrative_area_level_2", "political" ]
            },
            {
               "long_name" : "Punjab",
               "short_name" : "Punjab",
               "types" : [ "administrative_area_level_1", "political" ]
            },
            {
               "long_name" : "Pakistan",
               "short_name" : "PK",
               "types" : [ "country", "political" ]
            }
         ],
         "formatted_address" : "Sargodha, Punjab, Pakistan",
         "geometry" : {
            "bounds" : {
               "northeast" : {
                  "lat" : 32.5712785,
                  "lng" : 73.31019239999999
               },
               "southwest" : {
                  "lat" : 31.5566249,
                  "lng" : 72.21704679999999
               }
            },
            "location" : {
               "lat" : 32.156592,
               "lng" : 72.8042797
            },
            "location_type" : "APPROXIMATE",
            "viewport" : {
               "northeast" : {
                  "lat" : 32.5712785,
                  "lng" : 73.31019239999999
               },
               "southwest" : {
                  "lat" : 31.5566249,
                  "lng" : 72.21704679999999
               }
            }
         },
         "place_id" : "ChIJ0S6JJZadITkRmlmemFkTNjk",
         "types" : [ "administrative_area_level_2", "political" ]
      },
      {
         "address_components" : [
            {
               "long_name" : "Punjab",
               "short_name" : "Punjab",
               "types" : [ "administrative_area_level_1", "political" ]
            },
            {
               "long_name" : "Pakistan",
               "short_name" : "PK",
               "types" : [ "country", "political" ]
            }
         ],
         "formatted_address" : "Punjab, Pakistan",
         "geometry" : {
            "bounds" : {
               "northeast" : {
                  "lat" : 34.0434647,
                  "lng" : 75.3796504
               },
               "southwest" : {
                  "lat" : 27.7056256,
                  "lng" : 69.3288726
               }
            },
            "location" : {
               "lat" : 31.1704063,
               "lng" : 72.70971609999999
            },
            "location_type" : "APPROXIMATE",
            "viewport" : {
               "northeast" : {
                  "lat" : 34.0434647,
                  "lng" : 75.3796504
               },
               "southwest" : {
                  "lat" : 27.7056256,
                  "lng" : 69.3288726
               }
            }
         },
         "place_id" : "ChIJy5pBdImU3zgRoOxO0hgwnjo",
         "types" : [ "administrative_area_level_1", "political" ]
      },
      {
         "address_components" : [
            {
               "long_name" : "Pakistan",
               "short_name" : "PK",
               "types" : [ "country", "political" ]
            }
         ],
         "formatted_address" : "Pakistan",
         "geometry" : {
            "bounds" : {
               "northeast" : {
                  "lat" : 37.0841069,
                  "lng" : 77.1204247
               },
               "southwest" : {
                  "lat" : 23.6344999,
                  "lng" : 60.8729721
               }
            },
            "location" : {
               "lat" : 30.375321,
               "lng" : 69.34511599999999
            },
            "location_type" : "APPROXIMATE",
            "viewport" : {
               "northeast" : {
                  "lat" : 37.0841069,
                  "lng" : 77.1204247
               },
               "southwest" : {
                  "lat" : 23.6344999,
                  "lng" : 60.8729721
               }
            }
         },
         "place_id" : "ChIJH3X9-NJS2zgRXJIU5veht0Y",
         "types" : [ "country", "political" ]
      }
   ],
   "status" : "OK"
}
