{
   "plus_code" : {
      "compound_code" : "WGVP+22G Joya, Pakistan",
      "global_code" : "8J3HWGVP+22G"
   },
   "results" : [
      {
         "address_components" : [
            {
               "long_name" : "WGRP+V43",
               "short_name" : "WGRP+V43",
               "types" : [ "plus_code" ]
            },
            {
               "long_name" : "Joya",
               "short_name" : "Joya",
               "types" : [ "locality", "political" ]
            },
            {
               "long_name" : "Kalurkot",
               "short_name" : "Kalurkot",
               "types" : [ "administrative_area_level_3", "political" ]
            },
            {
               "long_name" : "Bhakkar",
               "short_name" : "Bhakkar",
               "types" : [ "administrative_area_level_2", "political" ]
            },
            {
               "long_name" : "Punjab",
               "short_name" : "Punjab",
               "types" : [ "administrative_area_level_1", "political" ]
            },
            {
               "long_name" : "Pakistan",
               "short_name" : "PK",
               "types" : [ "country", "political" ]
            }
         ],
         "formatted_address" : "WGRP+V43, Joya, Bhakkar, Punjab, Pakistan",
         "geometry" : {
            "location" : {
               "lat" : 31.9421474,
               "lng" : 71.53529829999999
            },
            "location_type" : "GEOMETRIC_CENTER",
            "viewport" : {
               "northeast" : {
                  "lat" : 31.9434963802915,
                  "lng" : 71.5366472802915
               },
               "southwest" : {
                  "lat" : 31.9407984197085,
                  "lng" : 71.53394931970848
               }
            }
         },
         "place_id" : "ChIJUZqup5CXJjkRTBz_OGkHJYY",
         "types" : [ "establishment", "point_of_interest", "school", "secondary_school" ]
      },
      {
         "address_components" : [
            {
               "long_name" : "WGRP+V43",
               "short_name" : "WGRP+V43",
               "types" : [ "plus_code" ]
            },
            {
               "long_name" : "Joya",
               "short_name" : "Joya",
               "types" : [ "locality", "political" ]
            },
            {
               "long_name" : "Kalurkot",
               "short_name" : "Kalurkot",
               "types" : [ "administrative_area_level_3", "political" ]
            },
            {
               "long_name" : "Bhakkar",
               "short_name" : "Bhakkar",
               "types" : [ "administrative_area_level_2", "political" ]
            },
            {
               "long_name" : "Punjab",
               "short_name" : "Punjab",
               "types" : [ "administrative_area_level_1", "political" ]
            },
            {
               "long_name" : "Pakistan",
               "short_name" : "PK",
               "types" : [ "country", "political" ]
            }
         ],
         "formatted_address" : "WGRP+V43, Joya, Bhakkar, Punjab, Pakistan",
         "geometry" : {
            "bounds" : {
               "northeast" : {
                  "lat" : 31.9421565,
                  "lng" : 71.53530789999999
               },
               "southwest" : {
                  "lat" : 31.9421126,
                  "lng" : 71.5352237
               }
            },
            "location" : {
               "lat" : 31.9421433,
               "lng" : 71.5352443
            },
            "location_type" : "ROOFTOP",
            "viewport" : {
               "northeast" : {
                  "lat" : 31.9434835302915,
                  "lng" : 71.5366147802915
               },
               "southwest" : {
                  "lat" : 31.9407855697085,
                  "lng" : 71.53391681970848
               }
            }
         },
         "place_id" : "ChIJpYbx51qWJjkR80pq5z8wDvg",
         "types" : [ "premise" ]
      },
      {
         "address_components" : [
            {
               "long_name" : "WGVP+22",
               "short_name" : "WGVP+22",
               "types" : [ "plus_code" ]
            },
            {
               "long_name" : "Joya",
               "short_name" : "Joya",
               "types" : [ "locality", "political" ]
            },
            {
               "long_name" : "Darya Khan",
               "short_name" : "Darya Khan",
               "types" : [ "administrative_area_level_3", "political" ]
            },
            {
               "long_name" : "Bhakkar",
               "short_name" : "Bhakkar",
               "types" : [ "administrative_area_level_2", "political" ]
            },
            {
               "long_name" : "Punjab",
               "short_name" : "Punjab",
               "types" : [ "administrative_area_level_1", "political" ]
            },
            {
               "long_name" : "Pakistan",
               "short_name" : "PK",
               "types" : [ "country", "political" ]
            }
         ],
         "formatted_address" : "WGVP+22 Joya, Pakistan",
         "geometry" : {
            "bounds" : {
               "northeast" : {
                  "lat" : 31.942625,
                  "lng" : 71.53512500000001
               },
               "southwest" : {
                  "lat" : 31.9425,
                  "lng" : 71.535
               }
            },
            "location" : {
               "lat" : 31.9425746,
               "lng" : 71.53507809999999
            },
            "location_type" : "GEOMETRIC_CENTER",
            "viewport" : {
               "northeast" : {
                  "lat" : 31.9439114802915,
                  "lng" : 71.53641148029152
               },
               "southwest" : {
                  "lat" : 31.9412135197085,
                  "lng" : 71.5337135197085
               }
            }
         },
         "place_id" : "GhIJTwqpkUzxP0ARkhM3uD7iUUA",
         "plus_code" : {
            "compound_code" : "WGVP+22 Joya, Pakistan",
            "global_code" : "8J3HWGVP+22"
         },
         "types" : [ "plus_code" ]
      },
      {
         "address_components" : [
            {
               "long_name" : "Unnamed Road",
               "short_name" : "Unnamed Road",
               "types" : [ "route" ]
            },
            {
               "long_name" : "Joiya",
               "short_name" : "Joiya",
               "types" : [ "locality", "political" ]
            },
            {
               "long_name" : "Bhakkar",
               "short_name" : "Bhakkar",
               "types" : [ "administrative_area_level_2", "political" ]
            },
            {
               "long_name" : "Punjab",
               "short_name" : "Punjab",
               "types" : [ "administrative_area_level_1", "political" ]
            },
            {
               "long_name" : "Pakistan",
               "short_name" : "PK",
               "types" : [ "country", "political" ]
            }
         ],
         "formatted_address" : "Unnamed Road, Joiya, Bhakkar, Punjab, Pakistan",
         "geometry" : {
            "bounds" : {
               "northeast" : {
                  "lat" : 31.9424936,
                  "lng" : 71.5363555
               },
               "southwest" : {
                  "lat" : 31.9422675,
                  "lng" : 71.53451849999999
               }
            },
            "location" : {
               "lat" : 31.94237729999999,
               "lng" : 71.53547759999999
            },
            "location_type" : "GEOMETRIC_CENTER",
            "viewport" : {
               "northeast" : {
                  "lat" : 31.9437295302915,
                  "lng" : 71.53678598029151
               },
               "southwest" : {
                  "lat" : 31.9410315697085,
                  "lng" : 71.53408801970849
               }
            }
         },
         "place_id" : "ChIJf-zF3VqWJjkRQhZJ1E47ht0",
         "types" : [ "route" ]
      },
      {
         "address_components" : [
            {
               "long_name" : "Joiya",
               "short_name" : "Joiya",
               "types" : [ "locality", "political" ]
            },
            {
               "long_name" : "Darya Khan",
               "short_name" : "Darya Khan",
               "types" : [ "administrative_area_level_3", "political" ]
            },
            {
               "long_name" : "Bhakkar",
               "short_name" : "Bhakkar",
               "types" : [ "administrative_area_level_2", "political" ]
            },
            {
               "long_name" : "Punjab",
               "short_name" : "Punjab",
               "types" : [ "administrative_area_level_1", "political" ]
            },
            {
               "long_name" : "Pakistan",
               "short_name" : "PK",
               "types" : [ "country", "political" ]
            }
         ],
         "formatted_address" : "Joiya, Bhakkar, Punjab, Pakistan",
         "geometry" : {
            "bounds" : {
               "northeast" : {
                  "lat" : 31.9485573,
                  "lng" : 71.5411234
               },
               "southwest" : {
                  "lat" : 31.9335532,
                  "lng" : 71.5245152
               }
            },
            "location" : {
               "lat" : 31.9425407,
               "lng" : 71.5338184
            },
            "location_type" : "APPROXIMATE",
            "viewport" : {
               "northeast" : {
                  "lat" : 31.9485573,
                  "lng" : 71.5411234
               },
               "southwest" : {
                  "lat" : 31.9335532,
                  "lng" : 71.5245152
               }
            }
         },
         "place_id" : "ChIJ_yJyQlqWJjkRWVCjrtASNQI",
         "types" : [ "locality", "political" ]
      },
      {
         "address_components" : [
            {
               "long_name" : "Jandanwala Urban",
               "short_name" : "Jandanwala Urban",
               "types" : [ "administrative_area_level_5", "political" ]
            },
            {
               "long_name" : "Kalurkot",
               "short_name" : "Kalurkot",
               "types" : [ "administrative_area_level_3", "political" ]
            },
            {
               "long_name" : "Bhakkar",
               "short_name" : "Bhakkar",
               "types" : [ "administrative_area_level_2", "political" ]
            },
            {
               "long_name" : "Punjab",
               "short_name" : "Punjab",
               "types" : [ "administrative_area_level_1", "political" ]
            },
            {
               "long_name" : "Pakistan",
               "short_name" : "PK",
               "types" : [ "country", "political" ]
            }
         ],
         "formatted_address" : "Jandanwala Urban, Bhakkar, Punjab, Pakistan",
         "geometry" : {
            "bounds" : {
               "northeast" : {
                  "lat" : 32.06098040000001,
                  "lng" : 71.6356414
               },
               "southwest" : {
                  "lat" : 31.9346866,
                  "lng" : 71.5236067
               }
            },
            "location" : {
               "lat" : 32.009666,
               "lng" : 71.560526
            },
            "location_type" : "APPROXIMATE",
            "viewport" : {
               "northeast" : {
                  "lat" : 32.06098040000001,
                  "lng" : 71.6356414
               },
               "southwest" : {
                  "lat" : 31.9346866,
                  "lng" : 71.5236067
               }
            }
         },
         "place_id" : "ChIJtSQzPBm-JjkR0usP-cpt04Y",
         "types" : [ "administrative_area_level_5", "political" ]
      },
      {
         "address_components" : [
            {
               "long_name" : "Kalurkot",
               "short_name" : "Kalurkot",
               "types" : [ "administrative_area_level_3", "political" ]
            },
            {
               "long_name" : "Bhakkar",
               "short_name" : "Bhakkar",
               "types" : [ "administrative_area_level_2", "political" ]
            },
            {
               "long_name" : "Punjab",
               "short_name" : "Punjab",
               "types" : [ "administrative_area_level_1", "political" ]
            },
            {
               "long_name" : "Pakistan",
               "short_name" : "PK",
               "types" : [ "country", "political" ]
            }
         ],
         "formatted_address" : "Kalurkot, Bhakkar, Punjab, Pakistan",
         "geometry" : {
            "bounds" : {
               "northeast" : {
                  "lat" : 32.205153,
                  "lng" : 71.7760519
               },
               "southwest" : {
                  "lat" : 31.899314,
                  "lng" : 71.0653126
               }
            },
            "location" : {
               "lat" : 32.0887231,
               "lng" : 71.4299364
            },
            "location_type" : "APPROXIMATE",
            "viewport" : {
               "northeast" : {
                  "lat" : 32.205153,
                  "lng" : 71.7760519
               },
               "southwest" : {
                  "lat" : 31.899314,
                  "lng" : 71.0653126
               }
            }
         },
         "place_id" : "ChIJW-DTqC_tJjkR4JO10WSvkc8",
         "types" : [ "administrative_area_level_3", "political" ]
      },
      {
         "address_components" : [
            {
               "long_name" : "Bhakkar",
               "short_name" : "Bhakkar",
               "types" : [ "administrative_area_level_2", "political" ]
            },
            {
               "long_name" : "Punjab",
               "short_name" : "Punjab",
               "types" : [ "administrative_area_level_1", "political" ]
            },
            {
               "long_name" : "Pakistan",
               "short_name" : "PK",
               "types" : [ "country", "political" ]
            }
         ],
         "formatted_address" : "Bhakkar, Punjab, Pakistan",
         "geometry" : {
            "bounds" : {
               "northeast" : {
                  "lat" : 32.2051529,
                  "lng" : 72.0227185
               },
               "southwest" : {
                  "lat" : 31.1373828,
                  "lng" : 70.8071142
               }
            },
            "location" : {
               "lat" : 31.8621101,
               "lng" : 71.3824374
            },
            "location_type" : "APPROXIMATE",
            "viewport" : {
               "northeast" : {
                  "lat" : 32.2051529,
                  "lng" : 72.0227185
               },
               "southwest" : {
                  "lat" : 31.1373828,
                  "lng" : 70.8071142
               }
            }
         },
         "place_id" : "ChIJMZ9MzU6bJjkRVJ6EKVpZeeY",
         "types" : [ "administrative_area_level_2", "political" ]
      },
      {
         "address_components" : [
            {
               "long_name" : "Punjab",
               "short_name" : "Punjab",
               "types" : [ "administrative_area_level_1", "political" ]
            },
            {
               "long_name" : "Pakistan",
               "short_name" : "PK",
               "types" : [ "country", "political" ]
            }
         ],
         "formatted_address" : "Punjab, Pakistan",
         "geometry" : {
            "bounds" : {
               "northeast" : {
                  "lat" : 34.0434647,
                  "lng" : 75.3796504
               },
               "southwest" : {
                  "lat" : 27.7056256,
                  "lng" : 69.3288726
               }
            },
            "location" : {
               "lat" : 31.1704063,
               "lng" : 72.70971609999999
            },
            "location_type" : "APPROXIMATE",
            "viewport" : {
               "northeast" : {
                  "lat" : 34.0434647,
                  "lng" : 75.3796504
               },
               "southwest" : {
                  "lat" : 27.7056256,
                  "lng" : 69.3288726
               }
            }
         },
         "place_id" : "ChIJy5pBdImU3zgRoOxO0hgwnjo",
         "types" : [ "administrative_area_level_1", "political" ]
      },
      {
         "address_components" : [
            {
               "long_name" : "Pakistan",
               "short_name" : "PK",
               "types" : [ "country", "political" ]
            }
         ],
         "formatted_address" : "Pakistan",
         "geometry" : {
            "bounds" : {
               "northeast" : {
                  "lat" : 37.0841069,
                  "lng" : 77.1204247
               },
               "southwest" : {
                  "lat" : 23.6344999,
                  "lng" : 60.8729721
               }
            },
            "location" : {
               "lat" : 30.375321,
               "lng" : 69.34511599999999
            },
            "location_type" : "APPROXIMATE",
            "viewport" : {
               "northeast" : {
                  "lat" : 37.0841069,
                  "lng" : 77.1204247
               },
               "southwest" : {
                  "lat" : 23.6344999,
                  "lng" : 60.8729721
               }
            }
         },
         "place_id" : "ChIJH3X9-NJS2zgRXJIU5veht0Y",
         "types" : [ "country", "political" ]
      }
   ],
   "status" : "OK"
}
