{
   "plus_code" : {
      "compound_code" : "W7VP+22G Hindwan, Pakistan",
      "global_code" : "8J3JW7VP+22G"
   },
   "results" : [
      {
         "address_components" : [
            {
               "long_name" : "W7VP+22",
               "short_name" : "W7VP+22",
               "types" : [ "plus_code" ]
            },
            {
               "long_name" : "Hindwan",
               "short_name" : "Hindwan",
               "types" : [ "locality", "political" ]
            },
            {
               "long_name" : "Sahiwal (Sardogha)",
               "short_name" : "Sahiwal (Sardogha)",
               "types" : [ "administrative_area_level_3", "political" ]
            },
            {
               "long_name" : "Sargodha",
               "short_name" : "Sargodha",
               "types" : [ "administrative_area_level_2", "political" ]
            },
            {
               "long_name" : "Punjab",
               "short_name" : "Punjab",
               "types" : [ "administrative_area_level_1", "political" ]
            },
            {
               "long_name" : "Pakistan",
               "short_name" : "PK",
               "types" : [ "country", "political" ]
            }
         ],
         "formatted_address" : "W7VP+22 Hindwan, Pakistan",
         "geometry" : {
            "bounds" : {
               "northeast" : {
                  "lat" : 31.942625,
                  "lng" : 72.28512499999999
               },
               "southwest" : {
                  "lat" : 31.9425,
                  "lng" : 72.285
               }
            },
            "location" : {
               "lat" : 31.9425746,
               "lng" : 72.28507809999999
            },
            "location_type" : "GEOMETRIC_CENTER",
            "viewport" : {
               "northeast" : {
                  "lat" : 31.9439114802915,
                  "lng" : 72.28641148029149
               },
               "southwest" : {
                  "lat" : 31.9412135197085,
                  "lng" : 72.28371351970848
               }
            }
         },
         "place_id" : "GhIJTwqpkUzxP0ARkhM3uD4SUkA",
         "plus_code" : {
            "compound_code" : "W7VP+22 Hindwan, Pakistan",
            "global_code" : "8J3JW7VP+22"
         },
         "types" : [ "plus_code" ]
      },
      {
         "address_components" : [
            {
               "long_name" : "Unnamed Road",
               "short_name" : "Unnamed Road",
               "types" : [ "route" ]
            },
            {
               "long_name" : "Sahiwal (Sardogha)",
               "short_name" : "Sahiwal (Sardogha)",
               "types" : [ "administrative_area_level_3", "political" ]
            },
            {
               "long_name" : "Sargodha",
               "short_name" : "Sargodha",
               "types" : [ "administrative_area_level_2", "political" ]
            },
            {
               "long_name" : "Punjab",
               "short_name" : "Punjab",
               "types" : [ "administrative_area_level_1", "political" ]
            },
            {
               "long_name" : "Pakistan",
               "short_name" : "PK",
               "types" : [ "country", "political" ]
            }
         ],
         "formatted_address" : "Unnamed Road, Sargodha, Punjab, Pakistan",
         "geometry" : {
            "bounds" : {
               "northeast" : {
                  "lat" : 31.9467632,
                  "lng" : 72.2850138
               },
               "southwest" : {
                  "lat" : 31.9421549,
                  "lng" : 72.2836183
               }
            },
            "location" : {
               "lat" : 31.9445606,
               "lng" : 72.28443330000002
            },
            "location_type" : "GEOMETRIC_CENTER",
            "viewport" : {
               "northeast" : {
                  "lat" : 31.9467632,
                  "lng" : 72.28566503029151
               },
               "southwest" : {
                  "lat" : 31.9421549,
                  "lng" : 72.28296706970849
               }
            }
         },
         "place_id" : "ChIJizLYsKxdITkRogbumwzIUjA",
         "types" : [ "route" ]
      },
      {
         "address_components" : [
            {
               "long_name" : "Hindwan",
               "short_name" : "Hindwan",
               "types" : [ "locality", "political" ]
            },
            {
               "long_name" : "Sahiwal (Sardogha)",
               "short_name" : "Sahiwal (Sardogha)",
               "types" : [ "administrative_area_level_3", "political" ]
            },
            {
               "long_name" : "Sargodha",
               "short_name" : "Sargodha",
               "types" : [ "administrative_area_level_2", "political" ]
            },
            {
               "long_name" : "Punjab",
               "short_name" : "Punjab",
               "types" : [ "administrative_area_level_1", "political" ]
            },
            {
               "long_name" : "Pakistan",
               "short_name" : "PK",
               "types" : [ "country", "political" ]
            }
         ],
         "formatted_address" : "Hindwan, Sargodha, Punjab, Pakistan",
         "geometry" : {
            "bounds" : {
               "northeast" : {
                  "lat" : 31.9451599,
                  "lng" : 72.29732
               },
               "southwest" : {
                  "lat" : 31.9313891,
                  "lng" : 72.2776449
               }
            },
            "location" : {
               "lat" : 31.9374885,
               "lng" : 72.2867105
            },
            "location_type" : "APPROXIMATE",
            "viewport" : {
               "northeast" : {
                  "lat" : 31.9451599,
                  "lng" : 72.29732
               },
               "southwest" : {
                  "lat" : 31.9313891,
                  "lng" : 72.2776449
               }
            }
         },
         "place_id" : "ChIJsyyqLrNdITkRe55QppZHXqA",
         "types" : [ "locality", "political" ]
      },
      {
         "address_components" : [
            {
               "long_name" : "Lakhiwal",
               "short_name" : "Lakhiwal",
               "types" : [ "administrative_area_level_5", "political" ]
            },
            {
               "long_name" : "Sahiwal (Sardogha)",
               "short_name" : "Sahiwal (Sardogha)",
               "types" : [ "administrative_area_level_3", "political" ]
            },
            {
               "long_name" : "Sargodha",
               "short_name" : "Sargodha",
               "types" : [ "administrative_area_level_2", "political" ]
            },
            {
               "long_name" : "Punjab",
               "short_name" : "Punjab",
               "types" : [ "administrative_area_level_1", "political" ]
            },
            {
               "long_name" : "Pakistan",
               "short_name" : "PK",
               "types" : [ "country", "political" ]
            }
         ],
         "formatted_address" : "Lakhiwal, Sargodha, Punjab, Pakistan",
         "geometry" : {
            "bounds" : {
               "northeast" : {
                  "lat" : 32.0064424,
                  "lng" : 72.3133266
               },
               "southwest" : {
                  "lat" : 31.8729293,
                  "lng" : 72.253541
               }
            },
            "location" : {
               "lat" : 31.95548459999999,
               "lng" : 72.27782909999999
            },
            "location_type" : "APPROXIMATE",
            "viewport" : {
               "northeast" : {
                  "lat" : 32.0064424,
                  "lng" : 72.3133266
               },
               "southwest" : {
                  "lat" : 31.8729293,
                  "lng" : 72.253541
               }
            }
         },
         "place_id" : "ChIJQyfoVU1cITkRtMmQQBpxBSA",
         "types" : [ "administrative_area_level_5", "political" ]
      },
      {
         "address_components" : [
            {
               "long_name" : "Sahiwal (Sardogha)",
               "short_name" : "Sahiwal (Sardogha)",
               "types" : [ "administrative_area_level_3", "political" ]
            },
            {
               "long_name" : "Sargodha",
               "short_name" : "Sargodha",
               "types" : [ "administrative_area_level_2", "political" ]
            },
            {
               "long_name" : "Punjab",
               "short_name" : "Punjab",
               "types" : [ "administrative_area_level_1", "political" ]
            },
            {
               "long_name" : "Pakistan",
               "short_name" : "PK",
               "types" : [ "country", "political" ]
            }
         ],
         "formatted_address" : "Sahiwal (Sardogha), Sargodha, Punjab, Pakistan",
         "geometry" : {
            "bounds" : {
               "northeast" : {
                  "lat" : 32.0559859,
                  "lng" : 72.5619361
               },
               "southwest" : {
                  "lat" : 31.70946499999999,
                  "lng" : 72.21704679999999
               }
            },
            "location" : {
               "lat" : 31.8762345,
               "lng" : 72.37846789999999
            },
            "location_type" : "APPROXIMATE",
            "viewport" : {
               "northeast" : {
                  "lat" : 32.0559859,
                  "lng" : 72.5619361
               },
               "southwest" : {
                  "lat" : 31.70946499999999,
                  "lng" : 72.21704679999999
               }
            }
         },
         "place_id" : "ChIJZ2aUDwZhITkRcdXKna13vVE",
         "types" : [ "administrative_area_level_3", "political" ]
      },
      {
         "address_components" : [
            {
               "long_name" : "Sargodha",
               "short_name" : "Sargodha",
               "types" : [ "administrative_area_level_2", "political" ]
            },
            {
               "long_name" : "Punjab",
               "short_name" : "Punjab",
               "types" : [ "administrative_area_level_1", "political" ]
            },
            {
               "long_name" : "Pakistan",
               "short_name" : "PK",
               "types" : [ "country", "political" ]
            }
         ],
         "formatted_address" : "Sargodha, Punjab, Pakistan",
         "geometry" : {
            "bounds" : {
               "northeast" : {
                  "lat" : 32.5712785,
                  "lng" : 73.31019239999999
               },
               "southwest" : {
                  "lat" : 31.5566249,
                  "lng" : 72.21704679999999
               }
            },
            "location" : {
               "lat" : 32.156592,
               "lng" : 72.8042797
            },
            "location_type" : "APPROXIMATE",
            "viewport" : {
               "northeast" : {
                  "lat" : 32.5712785,
                  "lng" : 73.31019239999999
               },
               "southwest" : {
                  "lat" : 31.5566249,
                  "lng" : 72.21704679999999
               }
            }
         },
         "place_id" : "ChIJ0S6JJZadITkRmlmemFkTNjk",
         "types" : [ "administrative_area_level_2", "political" ]
      },
      {
         "address_components" : [
            {
               "long_name" : "Punjab",
               "short_name" : "Punjab",
               "types" : [ "administrative_area_level_1", "political" ]
            },
            {
               "long_name" : "Pakistan",
               "short_name" : "PK",
               "types" : [ "country", "political" ]
            }
         ],
         "formatted_address" : "Punjab, Pakistan",
         "geometry" : {
            "bounds" : {
               "northeast" : {
                  "lat" : 34.0434647,
                  "lng" : 75.3796504
               },
               "southwest" : {
                  "lat" : 27.7056256,
                  "lng" : 69.3288726
               }
            },
            "location" : {
               "lat" : 31.1704063,
               "lng" : 72.70971609999999
            },
            "location_type" : "APPROXIMATE",
            "viewport" : {
               "northeast" : {
                  "lat" : 34.0434647,
                  "lng" : 75.3796504
               },
               "southwest" : {
                  "lat" : 27.7056256,
                  "lng" : 69.3288726
               }
            }
         },
         "place_id" : "ChIJy5pBdImU3zgRoOxO0hgwnjo",
         "types" : [ "administrative_area_level_1", "political" ]
      },
      {
         "address_components" : [
            {
               "long_name" : "Pakistan",
               "short_name" : "PK",
               "types" : [ "country", "political" ]
            }
         ],
         "formatted_address" : "Pakistan",
         "geometry" : {
            "bounds" : {
               "northeast" : {
                  "lat" : 37.0841069,
                  "lng" : 77.1204247
               },
               "southwest" : {
                  "lat" : 23.6344999,
                  "lng" : 60.8729721
               }
            },
            "location" : {
               "lat" : 30.375321,
               "lng" : 69.34511599999999
            },
            "location_type" : "APPROXIMATE",
            "viewport" : {
               "northeast" : {
                  "lat" : 37.0841069,
                  "lng" : 77.1204247
               },
               "southwest" : {
                  "lat" : 23.6344999,
                  "lng" : 60.8729721
               }
            }
         },
         "place_id" : "ChIJH3X9-NJS2zgRXJIU5veht0Y",
         "types" : [ "country", "political" ]
      }
   ],
   "status" : "OK"
}
