{
   "plus_code" : {
      "compound_code" : "WVF8+22G Chak 37 SB, Pakistan",
      "global_code" : "8J3JWVF8+22G"
   },
   "results" : [
      {
         "address_components" : [
            {
               "long_name" : "WVF8+22",
               "short_name" : "WVF8+22",
               "types" : [ "plus_code" ]
            },
            {
               "long_name" : "Chak 37 SB",
               "short_name" : "Chak 37 SB",
               "types" : [ "locality", "political" ]
            },
            {
               "long_name" : "Sargodha",
               "short_name" : "Sargodha",
               "types" : [ "administrative_area_level_3", "political" ]
            },
            {
               "long_name" : "Sargodha",
               "short_name" : "Sargodha",
               "types" : [ "administrative_area_level_2", "political" ]
            },
            {
               "long_name" : "Punjab",
               "short_name" : "Punjab",
               "types" : [ "administrative_area_level_1", "political" ]
            },
            {
               "long_name" : "Pakistan",
               "short_name" : "PK",
               "types" : [ "country", "political" ]
            }
         ],
         "formatted_address" : "WVF8+22 Chak 37 SB, Pakistan",
         "geometry" : {
            "bounds" : {
               "northeast" : {
                  "lat" : 31.922625,
                  "lng" : 72.86512499999999
               },
               "southwest" : {
                  "lat" : 31.9225,
                  "lng" : 72.86499999999999
               }
            },
            "location" : {
               "lat" : 31.9225746,
               "lng" : 72.86507809999999
            },
            "location_type" : "GEOMETRIC_CENTER",
            "viewport" : {
               "northeast" : {
                  "lat" : 31.9239114802915,
                  "lng" : 72.8664114802915
               },
               "southwest" : {
                  "lat" : 31.92121351970851,
                  "lng" : 72.8637135197085
               }
            }
         },
         "place_id" : "GhIJyh5X2S3sP0ARF_-IcF03UkA",
         "plus_code" : {
            "compound_code" : "WVF8+22 Chak 37 SB, Pakistan",
            "global_code" : "8J3JWVF8+22"
         },
         "types" : [ "plus_code" ]
      },
      {
         "address_components" : [
            {
               "long_name" : "Unnamed Road",
               "short_name" : "Unnamed Road",
               "types" : [ "route" ]
            },
            {
               "long_name" : "Chak 37 SB",
               "short_name" : "Chak 37 SB",
               "types" : [ "locality", "political" ]
            },
            {
               "long_name" : "Sargodha",
               "short_name" : "Sargodha",
               "types" : [ "administrative_area_level_3", "political" ]
            },
            {
               "long_name" : "Sargodha",
               "short_name" : "Sargodha",
               "types" : [ "administrative_area_level_2", "political" ]
            },
            {
               "long_name" : "Punjab",
               "short_name" : "Punjab",
               "types" : [ "administrative_area_level_1", "political" ]
            },
            {
               "long_name" : "Pakistan",
               "short_name" : "PK",
               "types" : [ "country", "political" ]
            }
         ],
         "formatted_address" : "Unnamed Road, Chak 37 SB, Sargodha, Punjab, Pakistan",
         "geometry" : {
            "bounds" : {
               "northeast" : {
                  "lat" : 31.9233754,
                  "lng" : 72.8646619
               },
               "southwest" : {
                  "lat" : 31.9224208,
                  "lng" : 72.86354949999999
               }
            },
            "location" : {
               "lat" : 31.9228862,
               "lng" : 72.8641251
            },
            "location_type" : "GEOMETRIC_CENTER",
            "viewport" : {
               "northeast" : {
                  "lat" : 31.92424708029149,
                  "lng" : 72.86545468029149
               },
               "southwest" : {
                  "lat" : 31.92154911970849,
                  "lng" : 72.86275671970849
               }
            }
         },
         "place_id" : "ChIJtUyHWr2HITkR8pRL-9Jl_xE",
         "types" : [ "route" ]
      },
      {
         "address_components" : [
            {
               "long_name" : "Chak 37 SB",
               "short_name" : "Chak 37 SB",
               "types" : [ "locality", "political" ]
            },
            {
               "long_name" : "Sargodha",
               "short_name" : "Sargodha",
               "types" : [ "administrative_area_level_3", "political" ]
            },
            {
               "long_name" : "Sargodha",
               "short_name" : "Sargodha",
               "types" : [ "administrative_area_level_2", "political" ]
            },
            {
               "long_name" : "Punjab",
               "short_name" : "Punjab",
               "types" : [ "administrative_area_level_1", "political" ]
            },
            {
               "long_name" : "Pakistan",
               "short_name" : "PK",
               "types" : [ "country", "political" ]
            }
         ],
         "formatted_address" : "Chak 37 SB, Sargodha, Punjab, Pakistan",
         "geometry" : {
            "bounds" : {
               "northeast" : {
                  "lat" : 31.9282014,
                  "lng" : 72.8670891
               },
               "southwest" : {
                  "lat" : 31.9206111,
                  "lng" : 72.8578505
               }
            },
            "location" : {
               "lat" : 31.92422699999999,
               "lng" : 72.8626251
            },
            "location_type" : "APPROXIMATE",
            "viewport" : {
               "northeast" : {
                  "lat" : 31.9282014,
                  "lng" : 72.8670891
               },
               "southwest" : {
                  "lat" : 31.9206111,
                  "lng" : 72.8578505
               }
            }
         },
         "place_id" : "ChIJ5V2K56KHITkRUc5wTSnMTck",
         "types" : [ "locality", "political" ]
      },
      {
         "address_components" : [
            {
               "long_name" : "Chak 36 SB",
               "short_name" : "Chak 36 SB",
               "types" : [ "administrative_area_level_5", "political" ]
            },
            {
               "long_name" : "Sargodha",
               "short_name" : "Sargodha",
               "types" : [ "administrative_area_level_3", "political" ]
            },
            {
               "long_name" : "Sargodha",
               "short_name" : "Sargodha",
               "types" : [ "administrative_area_level_2", "political" ]
            },
            {
               "long_name" : "Punjab",
               "short_name" : "Punjab",
               "types" : [ "administrative_area_level_1", "political" ]
            },
            {
               "long_name" : "Pakistan",
               "short_name" : "PK",
               "types" : [ "country", "political" ]
            }
         ],
         "formatted_address" : "Chak 36 SB, Sargodha, Punjab, Pakistan",
         "geometry" : {
            "bounds" : {
               "northeast" : {
                  "lat" : 31.9516809,
                  "lng" : 72.98490989999999
               },
               "southwest" : {
                  "lat" : 31.8338685,
                  "lng" : 72.8374347
               }
            },
            "location" : {
               "lat" : 31.8924088,
               "lng" : 72.88699299999999
            },
            "location_type" : "APPROXIMATE",
            "viewport" : {
               "northeast" : {
                  "lat" : 31.9516809,
                  "lng" : 72.98490989999999
               },
               "southwest" : {
                  "lat" : 31.8338685,
                  "lng" : 72.8374347
               }
            }
         },
         "place_id" : "ChIJXfMHee8nIjkReR8VwLDjeG8",
         "types" : [ "administrative_area_level_5", "political" ]
      },
      {
         "address_components" : [
            {
               "long_name" : "Sargodha",
               "short_name" : "Sargodha",
               "types" : [ "administrative_area_level_3", "political" ]
            },
            {
               "long_name" : "Sargodha",
               "short_name" : "Sargodha",
               "types" : [ "administrative_area_level_2", "political" ]
            },
            {
               "long_name" : "Punjab",
               "short_name" : "Punjab",
               "types" : [ "administrative_area_level_1", "political" ]
            },
            {
               "long_name" : "Pakistan",
               "short_name" : "PK",
               "types" : [ "country", "political" ]
            }
         ],
         "formatted_address" : "Sargodha, Punjab, Pakistan",
         "geometry" : {
            "bounds" : {
               "northeast" : {
                  "lat" : 32.286783,
                  "lng" : 73.050966
               },
               "southwest" : {
                  "lat" : 31.818546,
                  "lng" : 72.44248899999999
               }
            },
            "location" : {
               "lat" : 32.0177852,
               "lng" : 72.7570024
            },
            "location_type" : "APPROXIMATE",
            "viewport" : {
               "northeast" : {
                  "lat" : 32.286783,
                  "lng" : 73.050966
               },
               "southwest" : {
                  "lat" : 31.818546,
                  "lng" : 72.44248899999999
               }
            }
         },
         "place_id" : "ChIJtVMxttGCITkRergQwfHo5yw",
         "types" : [ "administrative_area_level_3", "political" ]
      },
      {
         "address_components" : [
            {
               "long_name" : "Sargodha",
               "short_name" : "Sargodha",
               "types" : [ "administrative_area_level_2", "political" ]
            },
            {
               "long_name" : "Punjab",
               "short_name" : "Punjab",
               "types" : [ "administrative_area_level_1", "political" ]
            },
            {
               "long_name" : "Pakistan",
               "short_name" : "PK",
               "types" : [ "country", "political" ]
            }
         ],
         "formatted_address" : "Sargodha, Punjab, Pakistan",
         "geometry" : {
            "bounds" : {
               "northeast" : {
                  "lat" : 32.5712785,
                  "lng" : 73.31019239999999
               },
               "southwest" : {
                  "lat" : 31.5566249,
                  "lng" : 72.21704679999999
               }
            },
            "location" : {
               "lat" : 32.156592,
               "lng" : 72.8042797
            },
            "location_type" : "APPROXIMATE",
            "viewport" : {
               "northeast" : {
                  "lat" : 32.5712785,
                  "lng" : 73.31019239999999
               },
               "southwest" : {
                  "lat" : 31.5566249,
                  "lng" : 72.21704679999999
               }
            }
         },
         "place_id" : "ChIJ0S6JJZadITkRmlmemFkTNjk",
         "types" : [ "administrative_area_level_2", "political" ]
      },
      {
         "address_components" : [
            {
               "long_name" : "Punjab",
               "short_name" : "Punjab",
               "types" : [ "administrative_area_level_1", "political" ]
            },
            {
               "long_name" : "Pakistan",
               "short_name" : "PK",
               "types" : [ "country", "political" ]
            }
         ],
         "formatted_address" : "Punjab, Pakistan",
         "geometry" : {
            "bounds" : {
               "northeast" : {
                  "lat" : 34.0434647,
                  "lng" : 75.3796504
               },
               "southwest" : {
                  "lat" : 27.7056256,
                  "lng" : 69.3288726
               }
            },
            "location" : {
               "lat" : 31.1704063,
               "lng" : 72.70971609999999
            },
            "location_type" : "APPROXIMATE",
            "viewport" : {
               "northeast" : {
                  "lat" : 34.0434647,
                  "lng" : 75.3796504
               },
               "southwest" : {
                  "lat" : 27.7056256,
                  "lng" : 69.3288726
               }
            }
         },
         "place_id" : "ChIJy5pBdImU3zgRoOxO0hgwnjo",
         "types" : [ "administrative_area_level_1", "political" ]
      },
      {
         "address_components" : [
            {
               "long_name" : "Pakistan",
               "short_name" : "PK",
               "types" : [ "country", "political" ]
            }
         ],
         "formatted_address" : "Pakistan",
         "geometry" : {
            "bounds" : {
               "northeast" : {
                  "lat" : 37.0841069,
                  "lng" : 77.1204247
               },
               "southwest" : {
                  "lat" : 23.6344999,
                  "lng" : 60.8729721
               }
            },
            "location" : {
               "lat" : 30.375321,
               "lng" : 69.34511599999999
            },
            "location_type" : "APPROXIMATE",
            "viewport" : {
               "northeast" : {
                  "lat" : 37.0841069,
                  "lng" : 77.1204247
               },
               "southwest" : {
                  "lat" : 23.6344999,
                  "lng" : 60.8729721
               }
            }
         },
         "place_id" : "ChIJH3X9-NJS2zgRXJIU5veht0Y",
         "types" : [ "country", "political" ]
      }
   ],
   "status" : "OK"
}
