{
   "plus_code" : {
      "compound_code" : "32F8+22G Chak 31 MB, Pakistan",
      "global_code" : "8J4J32F8+22G"
   },
   "results" : [
      {
         "address_components" : [
            {
               "long_name" : "32F8+22",
               "short_name" : "32F8+22",
               "types" : [ "plus_code" ]
            },
            {
               "long_name" : "Chak 31 MB",
               "short_name" : "Chak 31 MB",
               "types" : [ "locality", "political" ]
            },
            {
               "long_name" : "Quaidabad",
               "short_name" : "Quaidabad",
               "types" : [ "administrative_area_level_3", "political" ]
            },
            {
               "long_name" : "Khushab",
               "short_name" : "Khushab",
               "types" : [ "administrative_area_level_2", "political" ]
            },
            {
               "long_name" : "Punjab",
               "short_name" : "Punjab",
               "types" : [ "administrative_area_level_1", "political" ]
            },
            {
               "long_name" : "Pakistan",
               "short_name" : "PK",
               "types" : [ "country", "political" ]
            }
         ],
         "formatted_address" : "32F8+22 Chak 31 MB, Pakistan",
         "geometry" : {
            "bounds" : {
               "northeast" : {
                  "lat" : 32.072625,
                  "lng" : 72.015125
               },
               "southwest" : {
                  "lat" : 32.0725,
                  "lng" : 72.015
               }
            },
            "location" : {
               "lat" : 32.0725746,
               "lng" : 72.0150781
            },
            "location_type" : "GEOMETRIC_CENTER",
            "viewport" : {
               "northeast" : {
                  "lat" : 32.07391148029149,
                  "lng" : 72.01641148029151
               },
               "southwest" : {
                  "lat" : 32.07121351970849,
                  "lng" : 72.0137135197085
               }
            }
         },
         "place_id" : "GhIJmMLeH0oJQEARsZgiCvcAUkA",
         "plus_code" : {
            "compound_code" : "32F8+22 Chak 31 MB, Pakistan",
            "global_code" : "8J4J32F8+22"
         },
         "types" : [ "plus_code" ]
      },
      {
         "address_components" : [
            {
               "long_name" : "32F8+PG3",
               "short_name" : "32F8+PG3",
               "types" : [ "plus_code" ]
            },
            {
               "long_name" : "Adhi Kot Road",
               "short_name" : "Adhi Kot Road",
               "types" : [ "route" ]
            },
            {
               "long_name" : "Khushab",
               "short_name" : "Khushab",
               "types" : [ "administrative_area_level_3", "political" ]
            },
            {
               "long_name" : "Khushab",
               "short_name" : "Khushab",
               "types" : [ "administrative_area_level_2", "political" ]
            },
            {
               "long_name" : "Punjab",
               "short_name" : "Punjab",
               "types" : [ "administrative_area_level_1", "political" ]
            },
            {
               "long_name" : "Pakistan",
               "short_name" : "PK",
               "types" : [ "country", "political" ]
            }
         ],
         "formatted_address" : "32F8+PG3, Adhi Kot Road, Khushab, Punjab, Pakistan",
         "geometry" : {
            "location" : {
               "lat" : 32.0742554,
               "lng" : 72.01629249999999
            },
            "location_type" : "GEOMETRIC_CENTER",
            "viewport" : {
               "northeast" : {
                  "lat" : 32.0756043802915,
                  "lng" : 72.0176414802915
               },
               "southwest" : {
                  "lat" : 32.0729064197085,
                  "lng" : 72.0149435197085
               }
            }
         },
         "place_id" : "ChIJ9yKE1bhLITkR06ycvg7zVok",
         "types" : [ "establishment", "point_of_interest" ]
      },
      {
         "address_components" : [
            {
               "long_name" : "32F8+QMH",
               "short_name" : "32F8+QMH",
               "types" : [ "plus_code" ]
            },
            {
               "long_name" : "Chak 31 MB",
               "short_name" : "Chak 31 MB",
               "types" : [ "locality", "political" ]
            },
            {
               "long_name" : "Khushab",
               "short_name" : "Khushab",
               "types" : [ "administrative_area_level_3", "political" ]
            },
            {
               "long_name" : "Khushab",
               "short_name" : "Khushab",
               "types" : [ "administrative_area_level_2", "political" ]
            },
            {
               "long_name" : "Punjab",
               "short_name" : "Punjab",
               "types" : [ "administrative_area_level_1", "political" ]
            },
            {
               "long_name" : "Pakistan",
               "short_name" : "PK",
               "types" : [ "country", "political" ]
            }
         ],
         "formatted_address" : "32F8+QMH, Chak 31 MB, Khushab, Punjab, Pakistan",
         "geometry" : {
            "bounds" : {
               "northeast" : {
                  "lat" : 32.0744753,
                  "lng" : 72.016819
               },
               "southwest" : {
                  "lat" : 32.0744359,
                  "lng" : 72.016685
               }
            },
            "location" : {
               "lat" : 32.0744567,
               "lng" : 72.016758
            },
            "location_type" : "ROOFTOP",
            "viewport" : {
               "northeast" : {
                  "lat" : 32.0758045802915,
                  "lng" : 72.01810098029151
               },
               "southwest" : {
                  "lat" : 32.0731066197085,
                  "lng" : 72.0154030197085
               }
            }
         },
         "place_id" : "ChIJGyCxLLpLITkRcjo-a2VP5MY",
         "types" : [ "premise" ]
      },
      {
         "address_components" : [
            {
               "long_name" : "Adhi Kot Road",
               "short_name" : "Adhi Kot Road",
               "types" : [ "route" ]
            },
            {
               "long_name" : "Khushab",
               "short_name" : "Khushab",
               "types" : [ "administrative_area_level_3", "political" ]
            },
            {
               "long_name" : "Khushab",
               "short_name" : "Khushab",
               "types" : [ "administrative_area_level_2", "political" ]
            },
            {
               "long_name" : "Punjab",
               "short_name" : "Punjab",
               "types" : [ "administrative_area_level_1", "political" ]
            },
            {
               "long_name" : "Pakistan",
               "short_name" : "PK",
               "types" : [ "country", "political" ]
            }
         ],
         "formatted_address" : "Adhi Kot Road, Khushab, Punjab, Pakistan",
         "geometry" : {
            "bounds" : {
               "northeast" : {
                  "lat" : 32.0749629,
                  "lng" : 72.0164874
               },
               "southwest" : {
                  "lat" : 32.0739599,
                  "lng" : 72.0016409
               }
            },
            "location" : {
               "lat" : 32.07447390000001,
               "lng" : 72.00906530000002
            },
            "location_type" : "GEOMETRIC_CENTER",
            "viewport" : {
               "northeast" : {
                  "lat" : 32.0758103802915,
                  "lng" : 72.0164874
               },
               "southwest" : {
                  "lat" : 32.0731124197085,
                  "lng" : 72.0016409
               }
            }
         },
         "place_id" : "ChIJKbUY0rpLITkRZB0s1lzjMb4",
         "types" : [ "route" ]
      },
      {
         "address_components" : [
            {
               "long_name" : "Roda",
               "short_name" : "Roda",
               "types" : [ "administrative_area_level_5", "political" ]
            },
            {
               "long_name" : "Khushab",
               "short_name" : "Khushab",
               "types" : [ "administrative_area_level_3", "political" ]
            },
            {
               "long_name" : "Khushab",
               "short_name" : "Khushab",
               "types" : [ "administrative_area_level_2", "political" ]
            },
            {
               "long_name" : "Punjab",
               "short_name" : "Punjab",
               "types" : [ "administrative_area_level_1", "political" ]
            },
            {
               "long_name" : "Pakistan",
               "short_name" : "PK",
               "types" : [ "country", "political" ]
            }
         ],
         "formatted_address" : "Roda, Khushab, Punjab, Pakistan",
         "geometry" : {
            "bounds" : {
               "northeast" : {
                  "lat" : 32.1197382,
                  "lng" : 72.21317550000001
               },
               "southwest" : {
                  "lat" : 31.9896512,
                  "lng" : 71.98037959999999
               }
            },
            "location" : {
               "lat" : 32.0809136,
               "lng" : 72.1179169
            },
            "location_type" : "APPROXIMATE",
            "viewport" : {
               "northeast" : {
                  "lat" : 32.1197382,
                  "lng" : 72.21317550000001
               },
               "southwest" : {
                  "lat" : 31.9896512,
                  "lng" : 71.98037959999999
               }
            }
         },
         "place_id" : "ChIJj3Mv3CpPITkRzQdxL_InBLY",
         "types" : [ "administrative_area_level_5", "political" ]
      },
      {
         "address_components" : [
            {
               "long_name" : "Khushab",
               "short_name" : "Khushab",
               "types" : [ "administrative_area_level_3", "political" ]
            },
            {
               "long_name" : "Khushab",
               "short_name" : "Khushab",
               "types" : [ "administrative_area_level_2", "political" ]
            },
            {
               "long_name" : "Punjab",
               "short_name" : "Punjab",
               "types" : [ "administrative_area_level_1", "political" ]
            },
            {
               "long_name" : "Pakistan",
               "short_name" : "PK",
               "types" : [ "country", "political" ]
            }
         ],
         "formatted_address" : "Khushab, Punjab, Pakistan",
         "geometry" : {
            "bounds" : {
               "northeast" : {
                  "lat" : 32.7130679,
                  "lng" : 72.6641961
               },
               "southwest" : {
                  "lat" : 31.9610739,
                  "lng" : 71.8815345
               }
            },
            "location" : {
               "lat" : 32.4547171,
               "lng" : 72.4258145
            },
            "location_type" : "APPROXIMATE",
            "viewport" : {
               "northeast" : {
                  "lat" : 32.7130679,
                  "lng" : 72.6641961
               },
               "southwest" : {
                  "lat" : 31.9610739,
                  "lng" : 71.8815345
               }
            }
         },
         "place_id" : "ChIJFVCCztE8ITkRWs9kTfdEp9k",
         "types" : [ "administrative_area_level_3", "political" ]
      },
      {
         "address_components" : [
            {
               "long_name" : "Khushab",
               "short_name" : "Khushab",
               "types" : [ "administrative_area_level_2", "political" ]
            },
            {
               "long_name" : "Punjab",
               "short_name" : "Punjab",
               "types" : [ "administrative_area_level_1", "political" ]
            },
            {
               "long_name" : "Pakistan",
               "short_name" : "PK",
               "types" : [ "country", "political" ]
            }
         ],
         "formatted_address" : "Khushab, Punjab, Pakistan",
         "geometry" : {
            "bounds" : {
               "northeast" : {
                  "lat" : 32.7130681,
                  "lng" : 72.6641959
               },
               "southwest" : {
                  "lat" : 31.5302101,
                  "lng" : 71.62501139999999
               }
            },
            "location" : {
               "lat" : 32.3259122,
               "lng" : 72.14161319999999
            },
            "location_type" : "APPROXIMATE",
            "viewport" : {
               "northeast" : {
                  "lat" : 32.7130681,
                  "lng" : 72.6641959
               },
               "southwest" : {
                  "lat" : 31.5302101,
                  "lng" : 71.62501139999999
               }
            }
         },
         "place_id" : "ChIJLxN-009IITkRkCg_bdeC5GU",
         "types" : [ "administrative_area_level_2", "political" ]
      },
      {
         "address_components" : [
            {
               "long_name" : "Punjab",
               "short_name" : "Punjab",
               "types" : [ "administrative_area_level_1", "political" ]
            },
            {
               "long_name" : "Pakistan",
               "short_name" : "PK",
               "types" : [ "country", "political" ]
            }
         ],
         "formatted_address" : "Punjab, Pakistan",
         "geometry" : {
            "bounds" : {
               "northeast" : {
                  "lat" : 34.0434647,
                  "lng" : 75.3796504
               },
               "southwest" : {
                  "lat" : 27.7056256,
                  "lng" : 69.3288726
               }
            },
            "location" : {
               "lat" : 31.1704063,
               "lng" : 72.70971609999999
            },
            "location_type" : "APPROXIMATE",
            "viewport" : {
               "northeast" : {
                  "lat" : 34.0434647,
                  "lng" : 75.3796504
               },
               "southwest" : {
                  "lat" : 27.7056256,
                  "lng" : 69.3288726
               }
            }
         },
         "place_id" : "ChIJy5pBdImU3zgRoOxO0hgwnjo",
         "types" : [ "administrative_area_level_1", "political" ]
      },
      {
         "address_components" : [
            {
               "long_name" : "Pakistan",
               "short_name" : "PK",
               "types" : [ "country", "political" ]
            }
         ],
         "formatted_address" : "Pakistan",
         "geometry" : {
            "bounds" : {
               "northeast" : {
                  "lat" : 37.0841069,
                  "lng" : 77.1204247
               },
               "southwest" : {
                  "lat" : 23.6344999,
                  "lng" : 60.8729721
               }
            },
            "location" : {
               "lat" : 30.375321,
               "lng" : 69.34511599999999
            },
            "location_type" : "APPROXIMATE",
            "viewport" : {
               "northeast" : {
                  "lat" : 37.0841069,
                  "lng" : 77.1204247
               },
               "southwest" : {
                  "lat" : 23.6344999,
                  "lng" : 60.8729721
               }
            }
         },
         "place_id" : "ChIJH3X9-NJS2zgRXJIU5veht0Y",
         "types" : [ "country", "political" ]
      }
   ],
   "status" : "OK"
}
