{
   "plus_code" : {
      "compound_code" : "F6FX+VGP Chak No 20/8 R, Pakistan",
      "global_code" : "8J2JF6FX+VGP"
   },
   "results" : [
      {
         "address_components" : [
            {
               "long_name" : "F6FX+VG",
               "short_name" : "F6FX+VG",
               "types" : [ "plus_code" ]
            },
            {
               "long_name" : "Chak No 20/8 R",
               "short_name" : "Chak No 20/8 R",
               "types" : [ "locality", "political" ]
            },
            {
               "long_name" : "Mian Channu",
               "short_name" : "Mian Channu",
               "types" : [ "administrative_area_level_3", "political" ]
            },
            {
               "long_name" : "Khanewal",
               "short_name" : "Khanewal",
               "types" : [ "administrative_area_level_2", "political" ]
            },
            {
               "long_name" : "Punjab",
               "short_name" : "Punjab",
               "types" : [ "administrative_area_level_1", "political" ]
            },
            {
               "long_name" : "Pakistan",
               "short_name" : "PK",
               "types" : [ "country", "political" ]
            }
         ],
         "formatted_address" : "F6FX+VG Chak No 20/8 R, Pakistan",
         "geometry" : {
            "bounds" : {
               "northeast" : {
                  "lat" : 30.47475,
                  "lng" : 72.248875
               },
               "southwest" : {
                  "lat" : 30.474625,
                  "lng" : 72.24875
               }
            },
            "location" : {
               "lat" : 30.4747158,
               "lng" : 72.2488403
            },
            "location_type" : "GEOMETRIC_CENTER",
            "viewport" : {
               "northeast" : {
                  "lat" : 30.4760364802915,
                  "lng" : 72.25016148029151
               },
               "southwest" : {
                  "lat" : 30.4733385197085,
                  "lng" : 72.2474635197085
               }
            }
         },
         "place_id" : "GhIJ_eSD-YZ5PkARUZvd_-wPUkA",
         "plus_code" : {
            "compound_code" : "F6FX+VG Chak No 20/8 R, Pakistan",
            "global_code" : "8J2JF6FX+VG"
         },
         "types" : [ "plus_code" ]
      },
      {
         "address_components" : [
            {
               "long_name" : "Unnamed Road",
               "short_name" : "Unnamed Road",
               "types" : [ "route" ]
            },
            {
               "long_name" : "Mian Channu",
               "short_name" : "Mian Channu",
               "types" : [ "administrative_area_level_3", "political" ]
            },
            {
               "long_name" : "Khanewal",
               "short_name" : "Khanewal",
               "types" : [ "administrative_area_level_2", "political" ]
            },
            {
               "long_name" : "Punjab",
               "short_name" : "Punjab",
               "types" : [ "administrative_area_level_1", "political" ]
            },
            {
               "long_name" : "Pakistan",
               "short_name" : "PK",
               "types" : [ "country", "political" ]
            }
         ],
         "formatted_address" : "Unnamed Road, Khanewal, Punjab, Pakistan",
         "geometry" : {
            "bounds" : {
               "northeast" : {
                  "lat" : 30.4746836,
                  "lng" : 72.2493896
               },
               "southwest" : {
                  "lat" : 30.4746735,
                  "lng" : 72.2487768
               }
            },
            "location" : {
               "lat" : 30.4746786,
               "lng" : 72.2490832
            },
            "location_type" : "GEOMETRIC_CENTER",
            "viewport" : {
               "northeast" : {
                  "lat" : 30.4760275302915,
                  "lng" : 72.2504321802915
               },
               "southwest" : {
                  "lat" : 30.4733295697085,
                  "lng" : 72.24773421970849
               }
            }
         },
         "place_id" : "ChIJ11K7JeVLIzkR1izkc6zeZCU",
         "types" : [ "route" ]
      },
      {
         "address_components" : [
            {
               "long_name" : "Chak 7/8 AR",
               "short_name" : "Chak 7/8 AR",
               "types" : [ "administrative_area_level_5", "political" ]
            },
            {
               "long_name" : "Mian Channu",
               "short_name" : "Mian Channu",
               "types" : [ "administrative_area_level_3", "political" ]
            },
            {
               "long_name" : "Khanewal",
               "short_name" : "Khanewal",
               "types" : [ "administrative_area_level_2", "political" ]
            },
            {
               "long_name" : "Punjab",
               "short_name" : "Punjab",
               "types" : [ "administrative_area_level_1", "political" ]
            },
            {
               "long_name" : "Pakistan",
               "short_name" : "PK",
               "types" : [ "country", "political" ]
            }
         ],
         "formatted_address" : "Chak 7/8 AR, Khanewal, Punjab, Pakistan",
         "geometry" : {
            "bounds" : {
               "northeast" : {
                  "lat" : 30.5043011,
                  "lng" : 72.2918777
               },
               "southwest" : {
                  "lat" : 30.4244223,
                  "lng" : 72.1892065
               }
            },
            "location" : {
               "lat" : 30.4722511,
               "lng" : 72.2482225
            },
            "location_type" : "APPROXIMATE",
            "viewport" : {
               "northeast" : {
                  "lat" : 30.5043011,
                  "lng" : 72.2918777
               },
               "southwest" : {
                  "lat" : 30.4244223,
                  "lng" : 72.1892065
               }
            }
         },
         "place_id" : "ChIJ2QYiP_RLIzkRZJMnx5t00yc",
         "types" : [ "administrative_area_level_5", "political" ]
      },
      {
         "address_components" : [
            {
               "long_name" : "Mian Channu",
               "short_name" : "Mian Channu",
               "types" : [ "administrative_area_level_3", "political" ]
            },
            {
               "long_name" : "Khanewal",
               "short_name" : "Khanewal",
               "types" : [ "administrative_area_level_2", "political" ]
            },
            {
               "long_name" : "Punjab",
               "short_name" : "Punjab",
               "types" : [ "administrative_area_level_1", "political" ]
            },
            {
               "long_name" : "Pakistan",
               "short_name" : "PK",
               "types" : [ "country", "political" ]
            }
         ],
         "formatted_address" : "Mian Channu, Khanewal, Punjab, Pakistan",
         "geometry" : {
            "bounds" : {
               "northeast" : {
                  "lat" : 30.5994289,
                  "lng" : 72.5036889
               },
               "southwest" : {
                  "lat" : 30.0637059,
                  "lng" : 72.0332129
               }
            },
            "location" : {
               "lat" : 30.3545604,
               "lng" : 72.28375
            },
            "location_type" : "APPROXIMATE",
            "viewport" : {
               "northeast" : {
                  "lat" : 30.5994289,
                  "lng" : 72.5036889
               },
               "southwest" : {
                  "lat" : 30.0637059,
                  "lng" : 72.0332129
               }
            }
         },
         "place_id" : "ChIJe1fEDEe0PDkRklL2O2yBhYw",
         "types" : [ "administrative_area_level_3", "political" ]
      },
      {
         "address_components" : [
            {
               "long_name" : "Khanewal",
               "short_name" : "Khanewal",
               "types" : [ "administrative_area_level_2", "political" ]
            },
            {
               "long_name" : "Punjab",
               "short_name" : "Punjab",
               "types" : [ "administrative_area_level_1", "political" ]
            },
            {
               "long_name" : "Pakistan",
               "short_name" : "PK",
               "types" : [ "country", "political" ]
            }
         ],
         "formatted_address" : "Khanewal, Punjab, Pakistan",
         "geometry" : {
            "bounds" : {
               "northeast" : {
                  "lat" : 30.7306669,
                  "lng" : 72.5036889
               },
               "southwest" : {
                  "lat" : 29.9002348,
                  "lng" : 71.56055499999999
               }
            },
            "location" : {
               "lat" : 30.4550445,
               "lng" : 72.0468164
            },
            "location_type" : "APPROXIMATE",
            "viewport" : {
               "northeast" : {
                  "lat" : 30.7306669,
                  "lng" : 72.5036889
               },
               "southwest" : {
                  "lat" : 29.9002348,
                  "lng" : 71.56055499999999
               }
            }
         },
         "place_id" : "ChIJ14qiitSrPDkRpc_4SuJxG6Q",
         "types" : [ "administrative_area_level_2", "political" ]
      },
      {
         "address_components" : [
            {
               "long_name" : "Punjab",
               "short_name" : "Punjab",
               "types" : [ "administrative_area_level_1", "political" ]
            },
            {
               "long_name" : "Pakistan",
               "short_name" : "PK",
               "types" : [ "country", "political" ]
            }
         ],
         "formatted_address" : "Punjab, Pakistan",
         "geometry" : {
            "bounds" : {
               "northeast" : {
                  "lat" : 34.0434647,
                  "lng" : 75.3796504
               },
               "southwest" : {
                  "lat" : 27.7056256,
                  "lng" : 69.3288726
               }
            },
            "location" : {
               "lat" : 31.1704063,
               "lng" : 72.70971609999999
            },
            "location_type" : "APPROXIMATE",
            "viewport" : {
               "northeast" : {
                  "lat" : 34.0434647,
                  "lng" : 75.3796504
               },
               "southwest" : {
                  "lat" : 27.7056256,
                  "lng" : 69.3288726
               }
            }
         },
         "place_id" : "ChIJy5pBdImU3zgRoOxO0hgwnjo",
         "types" : [ "administrative_area_level_1", "political" ]
      },
      {
         "address_components" : [
            {
               "long_name" : "Pakistan",
               "short_name" : "PK",
               "types" : [ "country", "political" ]
            }
         ],
         "formatted_address" : "Pakistan",
         "geometry" : {
            "bounds" : {
               "northeast" : {
                  "lat" : 37.0841069,
                  "lng" : 77.1204247
               },
               "southwest" : {
                  "lat" : 23.6344999,
                  "lng" : 60.8729721
               }
            },
            "location" : {
               "lat" : 30.375321,
               "lng" : 69.34511599999999
            },
            "location_type" : "APPROXIMATE",
            "viewport" : {
               "northeast" : {
                  "lat" : 37.0841069,
                  "lng" : 77.1204247
               },
               "southwest" : {
                  "lat" : 23.6344999,
                  "lng" : 60.8729721
               }
            }
         },
         "place_id" : "ChIJH3X9-NJS2zgRXJIU5veht0Y",
         "types" : [ "country", "political" ]
      }
   ],
   "status" : "OK"
}
