{
   "plus_code" : {
      "compound_code" : "W6MW+22G Haji Wala, Pakistan",
      "global_code" : "8J3MW6MW+22G"
   },
   "results" : [
      {
         "address_components" : [
            {
               "long_name" : "W6MW+22",
               "short_name" : "W6MW+22",
               "types" : [ "plus_code" ]
            },
            {
               "long_name" : "Haji Wala",
               "short_name" : "Haji Wala",
               "types" : [ "locality", "political" ]
            },
            {
               "long_name" : "Pindi Bhattian",
               "short_name" : "Pindi Bhattian",
               "types" : [ "administrative_area_level_3", "political" ]
            },
            {
               "long_name" : "Hafizabad",
               "short_name" : "Hafizabad",
               "types" : [ "administrative_area_level_2", "political" ]
            },
            {
               "long_name" : "Punjab",
               "short_name" : "Punjab",
               "types" : [ "administrative_area_level_1", "political" ]
            },
            {
               "long_name" : "Pakistan",
               "short_name" : "PK",
               "types" : [ "country", "political" ]
            }
         ],
         "formatted_address" : "W6MW+22 Haji Wala, Pakistan",
         "geometry" : {
            "bounds" : {
               "northeast" : {
                  "lat" : 31.932625,
                  "lng" : 73.245125
               },
               "southwest" : {
                  "lat" : 31.9325,
                  "lng" : 73.24499999999999
               }
            },
            "location" : {
               "lat" : 31.9325746,
               "lng" : 73.2450781
            },
            "location_type" : "GEOMETRIC_CENTER",
            "viewport" : {
               "northeast" : {
                  "lat" : 31.9339114802915,
                  "lng" : 73.2464114802915
               },
               "southwest" : {
                  "lat" : 31.9312135197085,
                  "lng" : 73.24371351970849
               }
            }
         },
         "place_id" : "GhIJjRSANb3uP0AR0B0OXK9PUkA",
         "plus_code" : {
            "compound_code" : "W6MW+22 Haji Wala, Pakistan",
            "global_code" : "8J3MW6MW+22"
         },
         "types" : [ "plus_code" ]
      },
      {
         "address_components" : [
            {
               "long_name" : "Lahore Road",
               "short_name" : "N-60",
               "types" : [ "route" ]
            },
            {
               "long_name" : "Pindi Bhattian",
               "short_name" : "Pindi Bhattian",
               "types" : [ "administrative_area_level_3", "political" ]
            },
            {
               "long_name" : "Hafizabad",
               "short_name" : "Hafizabad",
               "types" : [ "administrative_area_level_2", "political" ]
            },
            {
               "long_name" : "Punjab",
               "short_name" : "Punjab",
               "types" : [ "administrative_area_level_1", "political" ]
            },
            {
               "long_name" : "Pakistan",
               "short_name" : "PK",
               "types" : [ "country", "political" ]
            }
         ],
         "formatted_address" : "N-60, Hafizabad, Punjab, Pakistan",
         "geometry" : {
            "bounds" : {
               "northeast" : {
                  "lat" : 31.9326998,
                  "lng" : 73.2521076
               },
               "southwest" : {
                  "lat" : 31.9320827,
                  "lng" : 73.2448089
               }
            },
            "location" : {
               "lat" : 31.9323911,
               "lng" : 73.2484583
            },
            "location_type" : "GEOMETRIC_CENTER",
            "viewport" : {
               "northeast" : {
                  "lat" : 31.93374023029149,
                  "lng" : 73.2521076
               },
               "southwest" : {
                  "lat" : 31.9310422697085,
                  "lng" : 73.2448089
               }
            }
         },
         "place_id" : "ChIJaRKmbGsdIjkR8p5nswF_l-8",
         "types" : [ "route" ]
      },
      {
         "address_components" : [
            {
               "long_name" : "Behlol Pur",
               "short_name" : "Behlol Pur",
               "types" : [ "administrative_area_level_5", "political" ]
            },
            {
               "long_name" : "Pindi Bhattian",
               "short_name" : "Pindi Bhattian",
               "types" : [ "administrative_area_level_3", "political" ]
            },
            {
               "long_name" : "Hafizabad",
               "short_name" : "Hafizabad",
               "types" : [ "administrative_area_level_2", "political" ]
            },
            {
               "long_name" : "Punjab",
               "short_name" : "Punjab",
               "types" : [ "administrative_area_level_1", "political" ]
            },
            {
               "long_name" : "Pakistan",
               "short_name" : "PK",
               "types" : [ "country", "political" ]
            }
         ],
         "formatted_address" : "Behlol Pur, Hafizabad, Punjab, Pakistan",
         "geometry" : {
            "bounds" : {
               "northeast" : {
                  "lat" : 31.976985,
                  "lng" : 73.3201433
               },
               "southwest" : {
                  "lat" : 31.8166292,
                  "lng" : 73.160287
               }
            },
            "location" : {
               "lat" : 31.8871322,
               "lng" : 73.2529464
            },
            "location_type" : "APPROXIMATE",
            "viewport" : {
               "northeast" : {
                  "lat" : 31.976985,
                  "lng" : 73.3201433
               },
               "southwest" : {
                  "lat" : 31.8166292,
                  "lng" : 73.160287
               }
            }
         },
         "place_id" : "ChIJMbeBpvocIjkRX8lTt1S4I0I",
         "types" : [ "administrative_area_level_5", "political" ]
      },
      {
         "address_components" : [
            {
               "long_name" : "Pindi Bhattian",
               "short_name" : "Pindi Bhattian",
               "types" : [ "administrative_area_level_3", "political" ]
            },
            {
               "long_name" : "Hafizabad",
               "short_name" : "Hafizabad",
               "types" : [ "administrative_area_level_2", "political" ]
            },
            {
               "long_name" : "Punjab",
               "short_name" : "Punjab",
               "types" : [ "administrative_area_level_1", "political" ]
            },
            {
               "long_name" : "Pakistan",
               "short_name" : "PK",
               "types" : [ "country", "political" ]
            }
         ],
         "formatted_address" : "Pindi Bhattian, Hafizabad, Punjab, Pakistan",
         "geometry" : {
            "bounds" : {
               "northeast" : {
                  "lat" : 32.1827314,
                  "lng" : 73.62347389999999
               },
               "southwest" : {
                  "lat" : 31.7615505,
                  "lng" : 73.1597093
               }
            },
            "location" : {
               "lat" : 31.9314181,
               "lng" : 73.4180211
            },
            "location_type" : "APPROXIMATE",
            "viewport" : {
               "northeast" : {
                  "lat" : 32.1827314,
                  "lng" : 73.62347389999999
               },
               "southwest" : {
                  "lat" : 31.7615505,
                  "lng" : 73.1597093
               }
            }
         },
         "place_id" : "ChIJMzUNgF__ITkRY7TazMQ7j_w",
         "types" : [ "administrative_area_level_3", "political" ]
      },
      {
         "address_components" : [
            {
               "long_name" : "Hafizabad",
               "short_name" : "Hafizabad",
               "types" : [ "administrative_area_level_2", "political" ]
            },
            {
               "long_name" : "Punjab",
               "short_name" : "Punjab",
               "types" : [ "administrative_area_level_1", "political" ]
            },
            {
               "long_name" : "Pakistan",
               "short_name" : "PK",
               "types" : [ "country", "political" ]
            }
         ],
         "formatted_address" : "Hafizabad, Punjab, Pakistan",
         "geometry" : {
            "bounds" : {
               "northeast" : {
                  "lat" : 32.3421286,
                  "lng" : 73.8308619
               },
               "southwest" : {
                  "lat" : 31.7615504,
                  "lng" : 73.1597093
               }
            },
            "location" : {
               "lat" : 32.0828952,
               "lng" : 73.55941279999999
            },
            "location_type" : "APPROXIMATE",
            "viewport" : {
               "northeast" : {
                  "lat" : 32.3421286,
                  "lng" : 73.8308619
               },
               "southwest" : {
                  "lat" : 31.7615504,
                  "lng" : 73.1597093
               }
            }
         },
         "place_id" : "ChIJU5BQC_pZHzkRw9KtQn0CiZQ",
         "types" : [ "administrative_area_level_2", "political" ]
      },
      {
         "address_components" : [
            {
               "long_name" : "Punjab",
               "short_name" : "Punjab",
               "types" : [ "administrative_area_level_1", "political" ]
            },
            {
               "long_name" : "Pakistan",
               "short_name" : "PK",
               "types" : [ "country", "political" ]
            }
         ],
         "formatted_address" : "Punjab, Pakistan",
         "geometry" : {
            "bounds" : {
               "northeast" : {
                  "lat" : 34.0434647,
                  "lng" : 75.3796504
               },
               "southwest" : {
                  "lat" : 27.7056256,
                  "lng" : 69.3288726
               }
            },
            "location" : {
               "lat" : 31.1704063,
               "lng" : 72.70971609999999
            },
            "location_type" : "APPROXIMATE",
            "viewport" : {
               "northeast" : {
                  "lat" : 34.0434647,
                  "lng" : 75.3796504
               },
               "southwest" : {
                  "lat" : 27.7056256,
                  "lng" : 69.3288726
               }
            }
         },
         "place_id" : "ChIJy5pBdImU3zgRoOxO0hgwnjo",
         "types" : [ "administrative_area_level_1", "political" ]
      },
      {
         "address_components" : [
            {
               "long_name" : "Pakistan",
               "short_name" : "PK",
               "types" : [ "country", "political" ]
            }
         ],
         "formatted_address" : "Pakistan",
         "geometry" : {
            "bounds" : {
               "northeast" : {
                  "lat" : 37.0841069,
                  "lng" : 77.1204247
               },
               "southwest" : {
                  "lat" : 23.6344999,
                  "lng" : 60.8729721
               }
            },
            "location" : {
               "lat" : 30.375321,
               "lng" : 69.34511599999999
            },
            "location_type" : "APPROXIMATE",
            "viewport" : {
               "northeast" : {
                  "lat" : 37.0841069,
                  "lng" : 77.1204247
               },
               "southwest" : {
                  "lat" : 23.6344999,
                  "lng" : 60.8729721
               }
            }
         },
         "place_id" : "ChIJH3X9-NJS2zgRXJIU5veht0Y",
         "types" : [ "country", "political" ]
      }
   ],
   "status" : "OK"
}
