{
   "plus_code" : {
      "compound_code" : "2P7G+22G Chak 49 DB, Pakistan",
      "global_code" : "8J4H2P7G+22G"
   },
   "results" : [
      {
         "address_components" : [
            {
               "long_name" : "2P7F+CRG",
               "short_name" : "2P7F+CRG",
               "types" : [ "plus_code" ]
            },
            {
               "long_name" : "Chak 49 DB",
               "short_name" : "Chak 49 DB",
               "types" : [ "locality", "political" ]
            },
            {
               "long_name" : "Kalurkot",
               "short_name" : "Kalurkot",
               "types" : [ "administrative_area_level_3", "political" ]
            },
            {
               "long_name" : "Khushab",
               "short_name" : "Khushab",
               "types" : [ "administrative_area_level_2", "political" ]
            },
            {
               "long_name" : "Punjab",
               "short_name" : "Punjab",
               "types" : [ "administrative_area_level_1", "political" ]
            },
            {
               "long_name" : "Pakistan",
               "short_name" : "PK",
               "types" : [ "country", "political" ]
            }
         ],
         "formatted_address" : "2P7F+CRG, Chak 49 DB, Khushab, Punjab, Pakistan",
         "geometry" : {
            "bounds" : {
               "northeast" : {
                  "lat" : 32.0135566,
                  "lng" : 71.72460049999999
               },
               "southwest" : {
                  "lat" : 32.0134828,
                  "lng" : 71.7245083
               }
            },
            "location" : {
               "lat" : 32.0135251,
               "lng" : 71.7245504
            },
            "location_type" : "ROOFTOP",
            "viewport" : {
               "northeast" : {
                  "lat" : 32.0148686802915,
                  "lng" : 71.72590338029151
               },
               "southwest" : {
                  "lat" : 32.0121707197085,
                  "lng" : 71.72320541970849
               }
            }
         },
         "place_id" : "ChIJNcKbwpq5JjkRWtKId8tNZhc",
         "types" : [ "premise" ]
      },
      {
         "address_components" : [
            {
               "long_name" : "2P7G+22",
               "short_name" : "2P7G+22",
               "types" : [ "plus_code" ]
            },
            {
               "long_name" : "Chak 49 DB",
               "short_name" : "Chak 49 DB",
               "types" : [ "locality", "political" ]
            },
            {
               "long_name" : "Kalurkot",
               "short_name" : "Kalurkot",
               "types" : [ "administrative_area_level_3", "political" ]
            },
            {
               "long_name" : "Khushab",
               "short_name" : "Khushab",
               "types" : [ "administrative_area_level_2", "political" ]
            },
            {
               "long_name" : "Punjab",
               "short_name" : "Punjab",
               "types" : [ "administrative_area_level_1", "political" ]
            },
            {
               "long_name" : "Pakistan",
               "short_name" : "PK",
               "types" : [ "country", "political" ]
            }
         ],
         "formatted_address" : "2P7G+22 Chak 49 DB, Pakistan",
         "geometry" : {
            "bounds" : {
               "northeast" : {
                  "lat" : 32.012625,
                  "lng" : 71.72512499999999
               },
               "southwest" : {
                  "lat" : 32.0125,
                  "lng" : 71.72499999999999
               }
            },
            "location" : {
               "lat" : 32.0125746,
               "lng" : 71.72507809999999
            },
            "location_type" : "GEOMETRIC_CENTER",
            "viewport" : {
               "northeast" : {
                  "lat" : 32.0139114802915,
                  "lng" : 71.7264114802915
               },
               "southwest" : {
                  "lat" : 32.0112135197085,
                  "lng" : 71.7237135197085
               }
            }
         },
         "place_id" : "GhIJUeFjC5wBQEAR7qL5rWfuUUA",
         "plus_code" : {
            "compound_code" : "2P7G+22 Chak 49 DB, Pakistan",
            "global_code" : "8J4H2P7G+22"
         },
         "types" : [ "plus_code" ]
      },
      {
         "address_components" : [
            {
               "long_name" : "Unnamed Road",
               "short_name" : "Unnamed Road",
               "types" : [ "route" ]
            },
            {
               "long_name" : "Chak 49 DB",
               "short_name" : "Chak 49 DB",
               "types" : [ "locality", "political" ]
            },
            {
               "long_name" : "Kalurkot",
               "short_name" : "Kalurkot",
               "types" : [ "administrative_area_level_3", "political" ]
            },
            {
               "long_name" : "Bhakkar",
               "short_name" : "Bhakkar",
               "types" : [ "administrative_area_level_2", "political" ]
            },
            {
               "long_name" : "Punjab",
               "short_name" : "Punjab",
               "types" : [ "administrative_area_level_1", "political" ]
            },
            {
               "long_name" : "Pakistan",
               "short_name" : "PK",
               "types" : [ "country", "political" ]
            }
         ],
         "formatted_address" : "Unnamed Road, Chak 49 DB, Bhakkar, Punjab, Pakistan",
         "geometry" : {
            "bounds" : {
               "northeast" : {
                  "lat" : 32.01295510000001,
                  "lng" : 71.72518389999999
               },
               "southwest" : {
                  "lat" : 32.0124778,
                  "lng" : 71.7251564
               }
            },
            "location" : {
               "lat" : 32.0127165,
               "lng" : 71.7251701
            },
            "location_type" : "GEOMETRIC_CENTER",
            "viewport" : {
               "northeast" : {
                  "lat" : 32.0140654302915,
                  "lng" : 71.72651913029151
               },
               "southwest" : {
                  "lat" : 32.0113674697085,
                  "lng" : 71.72382116970849
               }
            }
         },
         "place_id" : "ChIJpcrYyZq5JjkRmNOtdSqpGdY",
         "types" : [ "route" ]
      },
      {
         "address_components" : [
            {
               "long_name" : "Chak 49 DB",
               "short_name" : "Chak 49 DB",
               "types" : [ "locality", "political" ]
            },
            {
               "long_name" : "Kalurkot",
               "short_name" : "Kalurkot",
               "types" : [ "administrative_area_level_3", "political" ]
            },
            {
               "long_name" : "Khushab",
               "short_name" : "Khushab",
               "types" : [ "administrative_area_level_2", "political" ]
            },
            {
               "long_name" : "Punjab",
               "short_name" : "Punjab",
               "types" : [ "administrative_area_level_1", "political" ]
            },
            {
               "long_name" : "Pakistan",
               "short_name" : "PK",
               "types" : [ "country", "political" ]
            }
         ],
         "formatted_address" : "Chak 49 DB, Khushab, Punjab, Pakistan",
         "geometry" : {
            "bounds" : {
               "northeast" : {
                  "lat" : 32.01748300000001,
                  "lng" : 71.7278352
               },
               "southwest" : {
                  "lat" : 32.0103448,
                  "lng" : 71.72151699999999
               }
            },
            "location" : {
               "lat" : 32.0136394,
               "lng" : 71.72517599999999
            },
            "location_type" : "APPROXIMATE",
            "viewport" : {
               "northeast" : {
                  "lat" : 32.01748300000001,
                  "lng" : 71.7278352
               },
               "southwest" : {
                  "lat" : 32.0103448,
                  "lng" : 71.72151699999999
               }
            }
         },
         "place_id" : "ChIJzR9A75q5JjkRD91h_l-G4Eo",
         "types" : [ "locality", "political" ]
      },
      {
         "address_components" : [
            {
               "long_name" : "Chak No. 063/D.B",
               "short_name" : "Chak No. 063/D.B",
               "types" : [ "administrative_area_level_5", "political" ]
            },
            {
               "long_name" : "Kalurkot",
               "short_name" : "Kalurkot",
               "types" : [ "administrative_area_level_3", "political" ]
            },
            {
               "long_name" : "Bhakkar",
               "short_name" : "Bhakkar",
               "types" : [ "administrative_area_level_2", "political" ]
            },
            {
               "long_name" : "Punjab",
               "short_name" : "Punjab",
               "types" : [ "administrative_area_level_1", "political" ]
            },
            {
               "long_name" : "Pakistan",
               "short_name" : "PK",
               "types" : [ "country", "political" ]
            }
         ],
         "formatted_address" : "Chak No. 063/D.B, Bhakkar, Punjab, Pakistan",
         "geometry" : {
            "bounds" : {
               "northeast" : {
                  "lat" : 32.0593891,
                  "lng" : 71.7663919
               },
               "southwest" : {
                  "lat" : 31.912042,
                  "lng" : 71.5675554
               }
            },
            "location" : {
               "lat" : 31.9671872,
               "lng" : 71.6436028
            },
            "location_type" : "APPROXIMATE",
            "viewport" : {
               "northeast" : {
                  "lat" : 32.0593891,
                  "lng" : 71.7663919
               },
               "southwest" : {
                  "lat" : 31.912042,
                  "lng" : 71.5675554
               }
            }
         },
         "place_id" : "ChIJf_2yYAe8JjkRl-LSO6KD35o",
         "types" : [ "administrative_area_level_5", "political" ]
      },
      {
         "address_components" : [
            {
               "long_name" : "Kalurkot",
               "short_name" : "Kalurkot",
               "types" : [ "administrative_area_level_3", "political" ]
            },
            {
               "long_name" : "Bhakkar",
               "short_name" : "Bhakkar",
               "types" : [ "administrative_area_level_2", "political" ]
            },
            {
               "long_name" : "Punjab",
               "short_name" : "Punjab",
               "types" : [ "administrative_area_level_1", "political" ]
            },
            {
               "long_name" : "Pakistan",
               "short_name" : "PK",
               "types" : [ "country", "political" ]
            }
         ],
         "formatted_address" : "Kalurkot, Bhakkar, Punjab, Pakistan",
         "geometry" : {
            "bounds" : {
               "northeast" : {
                  "lat" : 32.205153,
                  "lng" : 71.7760519
               },
               "southwest" : {
                  "lat" : 31.899314,
                  "lng" : 71.0653126
               }
            },
            "location" : {
               "lat" : 32.0887231,
               "lng" : 71.4299364
            },
            "location_type" : "APPROXIMATE",
            "viewport" : {
               "northeast" : {
                  "lat" : 32.205153,
                  "lng" : 71.7760519
               },
               "southwest" : {
                  "lat" : 31.899314,
                  "lng" : 71.0653126
               }
            }
         },
         "place_id" : "ChIJW-DTqC_tJjkR4JO10WSvkc8",
         "types" : [ "administrative_area_level_3", "political" ]
      },
      {
         "address_components" : [
            {
               "long_name" : "Bhakkar",
               "short_name" : "Bhakkar",
               "types" : [ "administrative_area_level_2", "political" ]
            },
            {
               "long_name" : "Punjab",
               "short_name" : "Punjab",
               "types" : [ "administrative_area_level_1", "political" ]
            },
            {
               "long_name" : "Pakistan",
               "short_name" : "PK",
               "types" : [ "country", "political" ]
            }
         ],
         "formatted_address" : "Bhakkar, Punjab, Pakistan",
         "geometry" : {
            "bounds" : {
               "northeast" : {
                  "lat" : 32.2051529,
                  "lng" : 72.0227185
               },
               "southwest" : {
                  "lat" : 31.1373828,
                  "lng" : 70.8071142
               }
            },
            "location" : {
               "lat" : 31.8621101,
               "lng" : 71.3824374
            },
            "location_type" : "APPROXIMATE",
            "viewport" : {
               "northeast" : {
                  "lat" : 32.2051529,
                  "lng" : 72.0227185
               },
               "southwest" : {
                  "lat" : 31.1373828,
                  "lng" : 70.8071142
               }
            }
         },
         "place_id" : "ChIJMZ9MzU6bJjkRVJ6EKVpZeeY",
         "types" : [ "administrative_area_level_2", "political" ]
      },
      {
         "address_components" : [
            {
               "long_name" : "Punjab",
               "short_name" : "Punjab",
               "types" : [ "administrative_area_level_1", "political" ]
            },
            {
               "long_name" : "Pakistan",
               "short_name" : "PK",
               "types" : [ "country", "political" ]
            }
         ],
         "formatted_address" : "Punjab, Pakistan",
         "geometry" : {
            "bounds" : {
               "northeast" : {
                  "lat" : 34.0434647,
                  "lng" : 75.3796504
               },
               "southwest" : {
                  "lat" : 27.7056256,
                  "lng" : 69.3288726
               }
            },
            "location" : {
               "lat" : 31.1704063,
               "lng" : 72.70971609999999
            },
            "location_type" : "APPROXIMATE",
            "viewport" : {
               "northeast" : {
                  "lat" : 34.0434647,
                  "lng" : 75.3796504
               },
               "southwest" : {
                  "lat" : 27.7056256,
                  "lng" : 69.3288726
               }
            }
         },
         "place_id" : "ChIJy5pBdImU3zgRoOxO0hgwnjo",
         "types" : [ "administrative_area_level_1", "political" ]
      },
      {
         "address_components" : [
            {
               "long_name" : "Pakistan",
               "short_name" : "PK",
               "types" : [ "country", "political" ]
            }
         ],
         "formatted_address" : "Pakistan",
         "geometry" : {
            "bounds" : {
               "northeast" : {
                  "lat" : 37.0841069,
                  "lng" : 77.1204247
               },
               "southwest" : {
                  "lat" : 23.6344999,
                  "lng" : 60.8729721
               }
            },
            "location" : {
               "lat" : 30.375321,
               "lng" : 69.34511599999999
            },
            "location_type" : "APPROXIMATE",
            "viewport" : {
               "northeast" : {
                  "lat" : 37.0841069,
                  "lng" : 77.1204247
               },
               "southwest" : {
                  "lat" : 23.6344999,
                  "lng" : 60.8729721
               }
            }
         },
         "place_id" : "ChIJH3X9-NJS2zgRXJIU5veht0Y",
         "types" : [ "country", "political" ]
      }
   ],
   "status" : "OK"
}
