{
   "plus_code" : {
      "compound_code" : "W4F4+22G Bhaikh, Pakistan",
      "global_code" : "8J3MW4F4+22G"
   },
   "results" : [
      {
         "address_components" : [
            {
               "long_name" : "W4F4+22",
               "short_name" : "W4F4+22",
               "types" : [ "plus_code" ]
            },
            {
               "long_name" : "Bhaikh",
               "short_name" : "Bhaikh",
               "types" : [ "locality", "political" ]
            },
            {
               "long_name" : "Kot Momin",
               "short_name" : "Kot Momin",
               "types" : [ "administrative_area_level_3", "political" ]
            },
            {
               "long_name" : "Sargodha",
               "short_name" : "Sargodha",
               "types" : [ "administrative_area_level_2", "political" ]
            },
            {
               "long_name" : "Punjab",
               "short_name" : "Punjab",
               "types" : [ "administrative_area_level_1", "political" ]
            },
            {
               "long_name" : "Pakistan",
               "short_name" : "PK",
               "types" : [ "country", "political" ]
            }
         ],
         "formatted_address" : "W4F4+22 Bhaikh, Pakistan",
         "geometry" : {
            "bounds" : {
               "northeast" : {
                  "lat" : 31.922625,
                  "lng" : 73.105125
               },
               "southwest" : {
                  "lat" : 31.9225,
                  "lng" : 73.10499999999999
               }
            },
            "location" : {
               "lat" : 31.9225746,
               "lng" : 73.1050781
            },
            "location_type" : "GEOMETRIC_CENTER",
            "viewport" : {
               "northeast" : {
                  "lat" : 31.9239114802915,
                  "lng" : 73.1064114802915
               },
               "southwest" : {
                  "lat" : 31.92121351970851,
                  "lng" : 73.10371351970849
               }
            }
         },
         "place_id" : "GhIJyh5X2S3sP0ARp8F-mblGUkA",
         "plus_code" : {
            "compound_code" : "W4F4+22 Bhaikh, Pakistan",
            "global_code" : "8J3MW4F4+22"
         },
         "types" : [ "plus_code" ]
      },
      {
         "address_components" : [
            {
               "long_name" : "Unnamed Road",
               "short_name" : "Unnamed Road",
               "types" : [ "route" ]
            },
            {
               "long_name" : "Chiniot",
               "short_name" : "Chiniot",
               "types" : [ "administrative_area_level_3", "political" ]
            },
            {
               "long_name" : "Chiniot",
               "short_name" : "Chiniot",
               "types" : [ "administrative_area_level_2", "political" ]
            },
            {
               "long_name" : "Punjab",
               "short_name" : "Punjab",
               "types" : [ "administrative_area_level_1", "political" ]
            },
            {
               "long_name" : "Pakistan",
               "short_name" : "PK",
               "types" : [ "country", "political" ]
            }
         ],
         "formatted_address" : "Unnamed Road, Chiniot, Punjab, Pakistan",
         "geometry" : {
            "bounds" : {
               "northeast" : {
                  "lat" : 31.920561,
                  "lng" : 73.11008579999999
               },
               "southwest" : {
                  "lat" : 31.9199899,
                  "lng" : 73.1051361
               }
            },
            "location" : {
               "lat" : 31.9204388,
               "lng" : 73.107336
            },
            "location_type" : "GEOMETRIC_CENTER",
            "viewport" : {
               "northeast" : {
                  "lat" : 31.92162443029149,
                  "lng" : 73.11008579999999
               },
               "southwest" : {
                  "lat" : 31.9189264697085,
                  "lng" : 73.1051361
               }
            }
         },
         "place_id" : "ChIJ-0xX2OcfIjkRum8SIaiAyXg",
         "types" : [ "route" ]
      },
      {
         "address_components" : [
            {
               "long_name" : "Langar Makhd",
               "short_name" : "Langar Makhd",
               "types" : [ "administrative_area_level_5", "political" ]
            },
            {
               "long_name" : "Chiniot",
               "short_name" : "Chiniot",
               "types" : [ "administrative_area_level_3", "political" ]
            },
            {
               "long_name" : "Chiniot",
               "short_name" : "Chiniot",
               "types" : [ "administrative_area_level_2", "political" ]
            },
            {
               "long_name" : "Punjab",
               "short_name" : "Punjab",
               "types" : [ "administrative_area_level_1", "political" ]
            },
            {
               "long_name" : "Pakistan",
               "short_name" : "PK",
               "types" : [ "country", "political" ]
            }
         ],
         "formatted_address" : "Langar Makhd, Chiniot, Punjab, Pakistan",
         "geometry" : {
            "bounds" : {
               "northeast" : {
                  "lat" : 31.9606329,
                  "lng" : 73.1406602
               },
               "southwest" : {
                  "lat" : 31.8467314,
                  "lng" : 72.9802682
               }
            },
            "location" : {
               "lat" : 31.8930383,
               "lng" : 73.052334
            },
            "location_type" : "APPROXIMATE",
            "viewport" : {
               "northeast" : {
                  "lat" : 31.9606329,
                  "lng" : 73.1406602
               },
               "southwest" : {
                  "lat" : 31.8467314,
                  "lng" : 72.9802682
               }
            }
         },
         "place_id" : "ChIJLzeGt0EgIjkRi5PLuhzNakk",
         "types" : [ "administrative_area_level_5", "political" ]
      },
      {
         "address_components" : [
            {
               "long_name" : "Chiniot",
               "short_name" : "Chiniot",
               "types" : [ "administrative_area_level_3", "political" ]
            },
            {
               "long_name" : "Chiniot",
               "short_name" : "Chiniot",
               "types" : [ "administrative_area_level_2", "political" ]
            },
            {
               "long_name" : "Punjab",
               "short_name" : "Punjab",
               "types" : [ "administrative_area_level_1", "political" ]
            },
            {
               "long_name" : "Pakistan",
               "short_name" : "PK",
               "types" : [ "country", "political" ]
            }
         ],
         "formatted_address" : "Chiniot, Punjab, Pakistan",
         "geometry" : {
            "bounds" : {
               "northeast" : {
                  "lat" : 31.9762601,
                  "lng" : 73.2314816
               },
               "southwest" : {
                  "lat" : 31.362188,
                  "lng" : 72.434327
               }
            },
            "location" : {
               "lat" : 31.6267779,
               "lng" : 72.8042797
            },
            "location_type" : "APPROXIMATE",
            "viewport" : {
               "northeast" : {
                  "lat" : 31.9762601,
                  "lng" : 73.2314816
               },
               "southwest" : {
                  "lat" : 31.362188,
                  "lng" : 72.434327
               }
            }
         },
         "place_id" : "ChIJG47iCAwxIjkR-5kVzTJAhLM",
         "types" : [ "administrative_area_level_3", "political" ]
      },
      {
         "address_components" : [
            {
               "long_name" : "Chiniot",
               "short_name" : "Chiniot",
               "types" : [ "administrative_area_level_2", "political" ]
            },
            {
               "long_name" : "Chiniot",
               "short_name" : "Chiniot",
               "types" : [ "administrative_area_level_3", "political" ]
            },
            {
               "long_name" : "Punjab",
               "short_name" : "Punjab",
               "types" : [ "administrative_area_level_1", "political" ]
            },
            {
               "long_name" : "Pakistan",
               "short_name" : "PK",
               "types" : [ "country", "political" ]
            }
         ],
         "formatted_address" : "Chiniot, Punjab, Pakistan",
         "geometry" : {
            "bounds" : {
               "northeast" : {
                  "lat" : 31.9762599,
                  "lng" : 73.23148139999999
               },
               "southwest" : {
                  "lat" : 31.362188,
                  "lng" : 72.434327
               }
            },
            "location" : {
               "lat" : 31.6267779,
               "lng" : 72.8042797
            },
            "location_type" : "APPROXIMATE",
            "viewport" : {
               "northeast" : {
                  "lat" : 31.9762599,
                  "lng" : 73.23148139999999
               },
               "southwest" : {
                  "lat" : 31.362188,
                  "lng" : 72.434327
               }
            }
         },
         "place_id" : "ChIJGY7iCAwxIjkRtMDOW4zxzuk",
         "types" : [ "administrative_area_level_2", "political" ]
      },
      {
         "address_components" : [
            {
               "long_name" : "Punjab",
               "short_name" : "Punjab",
               "types" : [ "administrative_area_level_1", "political" ]
            },
            {
               "long_name" : "Pakistan",
               "short_name" : "PK",
               "types" : [ "country", "political" ]
            }
         ],
         "formatted_address" : "Punjab, Pakistan",
         "geometry" : {
            "bounds" : {
               "northeast" : {
                  "lat" : 34.0434647,
                  "lng" : 75.3796504
               },
               "southwest" : {
                  "lat" : 27.7056256,
                  "lng" : 69.3288726
               }
            },
            "location" : {
               "lat" : 31.1704063,
               "lng" : 72.70971609999999
            },
            "location_type" : "APPROXIMATE",
            "viewport" : {
               "northeast" : {
                  "lat" : 34.0434647,
                  "lng" : 75.3796504
               },
               "southwest" : {
                  "lat" : 27.7056256,
                  "lng" : 69.3288726
               }
            }
         },
         "place_id" : "ChIJy5pBdImU3zgRoOxO0hgwnjo",
         "types" : [ "administrative_area_level_1", "political" ]
      },
      {
         "address_components" : [
            {
               "long_name" : "Pakistan",
               "short_name" : "PK",
               "types" : [ "country", "political" ]
            }
         ],
         "formatted_address" : "Pakistan",
         "geometry" : {
            "bounds" : {
               "northeast" : {
                  "lat" : 37.0841069,
                  "lng" : 77.1204247
               },
               "southwest" : {
                  "lat" : 23.6344999,
                  "lng" : 60.8729721
               }
            },
            "location" : {
               "lat" : 30.375321,
               "lng" : 69.34511599999999
            },
            "location_type" : "APPROXIMATE",
            "viewport" : {
               "northeast" : {
                  "lat" : 37.0841069,
                  "lng" : 77.1204247
               },
               "southwest" : {
                  "lat" : 23.6344999,
                  "lng" : 60.8729721
               }
            }
         },
         "place_id" : "ChIJH3X9-NJS2zgRXJIU5veht0Y",
         "types" : [ "country", "political" ]
      }
   ],
   "status" : "OK"
}
